{"generated_at":"2026-07-22T11:09:31.127Z","city":"oak","source":"OpenStreetMap","count":1089,"eats":[{"name":"Mountain Mike's","lat":37.82693,"lng":-122.20957,"kind":"restaurant","cuisine":"pizza"},{"name":"Caffé Strada","lat":37.86911,"lng":-122.25486,"kind":"cafe","cuisine":"coffee shop"},{"name":"Fish & Bird Sousaku Izakaya","lat":37.8648,"lng":-122.26714,"kind":"restaurant","cuisine":"japanese"},{"name":"Penelope's Coffee and Tea","lat":37.86842,"lng":-122.26756,"kind":"cafe","cuisine":"coffee shop"},{"name":"Quargo Coffee","lat":37.86792,"lng":-122.25915,"kind":"cafe","cuisine":"coffee shop"},{"name":"Local X Design","lat":37.87048,"lng":-122.25497,"kind":"cafe","cuisine":"bagel"},{"name":"Nomad Cafe","lat":37.85048,"lng":-122.26569,"kind":"cafe","cuisine":"coffee shop"},{"name":"Homemade Cafe","lat":37.86226,"lng":-122.28136,"kind":"restaurant","cuisine":"brunch"},{"name":"New York Pizza","lat":37.76608,"lng":-122.24108,"kind":"restaurant","cuisine":"pizza"},{"name":"Alameda Grill Hamburgers","lat":37.76584,"lng":-122.24101,"kind":"restaurant","cuisine":"burger"},{"name":"Genghis Khan Kitchen","lat":37.76632,"lng":-122.24087,"kind":"restaurant","cuisine":"chinese"},{"name":"La Penca Azul","lat":37.76509,"lng":-122.24182,"kind":"restaurant","cuisine":"mexican"},{"name":"Leña","lat":37.76384,"lng":-122.24139,"kind":"restaurant","cuisine":"mexican"},{"name":"Starbucks","lat":37.76403,"lng":-122.24278,"kind":"cafe","cuisine":"coffee shop"},{"name":"Tomatina","lat":37.76346,"lng":-122.24319,"kind":"restaurant","cuisine":"pizza"},{"name":"Marley G’s pizzeria","lat":37.76326,"lng":-122.24341,"kind":"restaurant","cuisine":"pizza"},{"name":"Julie's Coffee and Tea Garden","lat":37.76147,"lng":-122.2453,"kind":"cafe","cuisine":"coffee shop"},{"name":"Tetsu Ramen","lat":37.76211,"lng":-122.24478,"kind":"restaurant","cuisine":"japanese"},{"name":"Yellow Tail","lat":37.76309,"lng":-122.2431,"kind":"restaurant","cuisine":"japanese"},{"name":"Taqueria Ramiro & Sons","lat":37.76366,"lng":-122.24383,"kind":"restaurant","cuisine":"mexican"},{"name":"Burma Superstar","lat":37.76372,"lng":-122.24347,"kind":"restaurant","cuisine":"burmese"},{"name":"Spice I am","lat":37.76394,"lng":-122.24334,"kind":"restaurant","cuisine":"thai"},{"name":"Homeskillet","lat":37.7641,"lng":-122.24315,"kind":"restaurant","cuisine":"donut"},{"name":"Peet's Coffee","lat":37.76416,"lng":-122.2431,"kind":"cafe","cuisine":"coffee shop"},{"name":"Troy Greek Cuisine","lat":37.76429,"lng":-122.24335,"kind":"restaurant","cuisine":"greek"},{"name":"Taqueria Viva Mexico","lat":37.76443,"lng":-122.24309,"kind":"restaurant","cuisine":"mexican"},{"name":"Ark Chinese Restaurant","lat":37.76448,"lng":-122.24279,"kind":"restaurant","cuisine":"chinese"},{"name":"Toomie's Thai Cuisine","lat":37.76523,"lng":-122.24218,"kind":"restaurant","cuisine":"thai"},{"name":"China House Restaurant","lat":37.76527,"lng":-122.24215,"kind":"restaurant","cuisine":"chinese"},{"name":"Ole's Waffle Shop","lat":37.76567,"lng":-122.24179,"kind":"restaurant","cuisine":"waffles"},{"name":"Island Taqueria","lat":37.76584,"lng":-122.24165,"kind":"restaurant","cuisine":"mexican"},{"name":"Vietnam House","lat":37.76619,"lng":-122.24141,"kind":"restaurant","cuisine":"vietnamese"},{"name":"Gim's Chinese Kitchen","lat":37.76669,"lng":-122.24159,"kind":"restaurant","cuisine":"chinese"},{"name":"Sushi King","lat":37.76764,"lng":-122.23955,"kind":"restaurant","cuisine":"sushi"},{"name":"Off the Hook Seafood & Super Burritos","lat":37.81439,"lng":-122.26818,"kind":"restaurant","cuisine":"mexican"},{"name":"Delah Coffee","lat":37.81177,"lng":-122.2672,"kind":"cafe","cuisine":"coffee shop"},{"name":"Malibu's Burger","lat":37.81202,"lng":-122.26484,"kind":"restaurant","cuisine":"burger"},{"name":"Osha Thai Express","lat":37.81205,"lng":-122.26501,"kind":"restaurant","cuisine":"thai"},{"name":"Javi's Empanadas","lat":37.81224,"lng":-122.26604,"kind":"cafe","cuisine":"coffee shop"},{"name":"Lo Coco's","lat":37.88173,"lng":-122.26981,"kind":"restaurant","cuisine":"italian"},{"name":"Saul's Deli","lat":37.88069,"lng":-122.26904,"kind":"restaurant","cuisine":"jewish"},{"name":"Ijo Izakaya","lat":37.88092,"lng":-122.26907,"kind":"restaurant","cuisine":"japanese"},{"name":"Kirala 2","lat":37.87981,"lng":-122.26901,"kind":"restaurant","cuisine":"japanese"},{"name":"Flavia","lat":37.87986,"lng":-122.26901,"kind":"restaurant","cuisine":"italian"},{"name":"Tigerlily Berkeley","lat":37.87973,"lng":-122.269,"kind":"restaurant","cuisine":"american"},{"name":"Sunny Side Cafe","lat":37.87986,"lng":-122.26874,"kind":"cafe","cuisine":"breakfast"},{"name":"Chez Panisse","lat":37.8796,"lng":-122.26897,"kind":"restaurant","cuisine":"californian"},{"name":"Cheeseboard Pizza","lat":37.87986,"lng":-122.26947,"kind":"restaurant","cuisine":"pizza"},{"name":"Vanne Bistro","lat":37.87933,"lng":-122.2694,"kind":"cafe","cuisine":"coffee shop"},{"name":"Barney's Gourmet Hamburgers","lat":37.87822,"lng":-122.26944,"kind":"restaurant","cuisine":"burger"},{"name":"Dera Cafe","lat":37.87793,"lng":-122.26924,"kind":"cafe","cuisine":"coffee shop"},{"name":"Da Lian","lat":37.87707,"lng":-122.26916,"kind":"restaurant","cuisine":"chinese"},{"name":"Cha Ya","lat":37.87682,"lng":-122.26912,"kind":"restaurant","cuisine":"japanese"},{"name":"Taste of the Himalayas","lat":37.87646,"lng":-122.26908,"kind":"restaurant","cuisine":"indian"},{"name":"Thai Delight","lat":37.87639,"lng":-122.26906,"kind":"restaurant","cuisine":"thai"},{"name":"Agrodolce","lat":37.87601,"lng":-122.26905,"kind":"restaurant","cuisine":"italian"},{"name":"Party Sushi","lat":37.87526,"lng":-122.26894,"kind":"restaurant","cuisine":"sushi"},{"name":"Via del Corso","lat":37.87505,"lng":-122.26892,"kind":"restaurant","cuisine":"italian"},{"name":"Cha Thai Tea","lat":37.87491,"lng":-122.2689,"kind":"cafe","cuisine":"bubble tea"},{"name":"U : Dessert Story","lat":37.87407,"lng":-122.26838,"kind":"cafe","cuisine":"dessert"},{"name":"Berkeley Espresso","lat":37.87371,"lng":-122.26877,"kind":"cafe","cuisine":"coffee shop"},{"name":"The Noodle","lat":37.8732,"lng":-122.26871,"kind":"restaurant","cuisine":"thai"},{"name":"Gusto","lat":37.87255,"lng":-122.26865,"kind":"restaurant","cuisine":"algerian"},{"name":"Grégoire","lat":37.87857,"lng":-122.26859,"kind":"restaurant","cuisine":"french"},{"name":"JotMahal","lat":37.87866,"lng":-122.26893,"kind":"restaurant","cuisine":"indian"},{"name":"Peet's Coffee","lat":37.88024,"lng":-122.26832,"kind":"cafe","cuisine":"coffee shop"},{"name":"Momo Masala","lat":37.87534,"lng":-122.2598,"kind":"restaurant","cuisine":"indian"},{"name":"Camille","lat":37.87546,"lng":-122.25972,"kind":"restaurant","cuisine":"vietnamese"},{"name":"Aki's","lat":37.87545,"lng":-122.25984,"kind":"restaurant","cuisine":"japanese"},{"name":"Bongo Burger","lat":37.87561,"lng":-122.26013,"kind":"restaurant","cuisine":"american"},{"name":"Gold Palm","lat":37.8082,"lng":-122.26971,"kind":"restaurant","cuisine":"pakistani"},{"name":"MY Coffee Roastery","lat":37.87069,"lng":-122.27317,"kind":"cafe","cuisine":"coffee shop"},{"name":"The Hidden Café","lat":37.86832,"lng":-122.28679,"kind":"restaurant","cuisine":"coffee shop"},{"name":"Iniburger","lat":37.87027,"lng":-122.26734,"kind":"restaurant","cuisine":"burger"},{"name":"Mezzo","lat":37.86618,"lng":-122.25879,"kind":"cafe","cuisine":"sandwich"},{"name":"Peet's Coffee","lat":37.86687,"lng":-122.25627,"kind":"cafe","cuisine":"coffee shop"},{"name":"Kirala","lat":37.85933,"lng":-122.26685,"kind":"restaurant","cuisine":"japanese"},{"name":"Lin Jia Asian Kitchen","lat":37.81154,"lng":-122.24258,"kind":"restaurant","cuisine":"chinese"},{"name":"Crepevine","lat":37.87822,"lng":-122.26927,"kind":"restaurant","cuisine":"crepe"},{"name":"Hawking Bird","lat":37.83586,"lng":-122.26284,"kind":"restaurant","cuisine":"asian"},{"name":"Burma Superstar","lat":37.83475,"lng":-122.26318,"kind":"restaurant","cuisine":"asian"},{"name":"Pyeong Chang Tofu House","lat":37.83447,"lng":-122.26324,"kind":"restaurant","cuisine":"korean"},{"name":"Pixiu Mala Hongtang","lat":37.83253,"lng":-122.26379,"kind":"restaurant","cuisine":"chinese"},{"name":"Noka Ramen","lat":37.79464,"lng":-122.27555,"kind":"restaurant","cuisine":"ramen"},{"name":"Dragon Gate Bar & Grille","lat":37.7937,"lng":-122.27632,"kind":"restaurant","cuisine":"taiwanese"},{"name":"Alborz","lat":37.86976,"lng":-122.26603,"kind":"restaurant","cuisine":"persian"},{"name":"Mountain Mike's","lat":37.87492,"lng":-122.29429,"kind":"restaurant","cuisine":"pizza"},{"name":"Mercado 925","lat":37.86856,"lng":-122.29571,"kind":"restaurant","cuisine":"mexican"},{"name":"Raxakoul Coffee & Cheese","lat":37.88168,"lng":-122.28167,"kind":"cafe","cuisine":"bubble tea"},{"name":"Gioia Pizzeria","lat":37.88179,"lng":-122.28144,"kind":"restaurant","cuisine":"pizza"},{"name":"The Station","lat":37.85881,"lng":-122.24505,"kind":"restaurant","cuisine":"burger"},{"name":"Gypsy's Trattoria Italiano","lat":37.86806,"lng":-122.25809,"kind":"restaurant","cuisine":"italian"},{"name":"Peet's Coffee","lat":37.83683,"lng":-122.26368,"kind":"cafe","cuisine":"coffee shop"},{"name":"Lake Chalet","lat":37.80224,"lng":-122.26156,"kind":"restaurant","cuisine":"american"},{"name":"La Note","lat":37.86621,"lng":-122.26727,"kind":"restaurant","cuisine":"french"},{"name":"Gold Bean Cafe","lat":37.86708,"lng":-122.26601,"kind":"cafe","cuisine":"coffee shop"},{"name":"Revival Kitchen","lat":37.87104,"lng":-122.26848,"kind":"restaurant","cuisine":"regional"},{"name":"Pollo's","lat":37.87111,"lng":-122.26806,"kind":"restaurant","cuisine":"american"},{"name":"Comal Next Door","lat":37.8715,"lng":-122.26853,"kind":"restaurant","cuisine":"mexican"},{"name":"Lucia’s Pizzeria","lat":37.87166,"lng":-122.26852,"kind":"restaurant","cuisine":"pizza"},{"name":"Gather","lat":37.86947,"lng":-122.26611,"kind":"restaurant","cuisine":"california"},{"name":"Zhangliang Malatang","lat":37.86866,"lng":-122.26759,"kind":"restaurant","cuisine":"chinese"},{"name":"Razan Organic Kitchen","lat":37.86874,"lng":-122.26685,"kind":"restaurant","cuisine":"mediterranean"},{"name":"Sushi Broadway","lat":37.76368,"lng":-122.23836,"kind":"restaurant","cuisine":"japanese"},{"name":"YoJimbo Sushi","lat":37.76139,"lng":-122.24537,"kind":"restaurant","cuisine":"ramen"},{"name":"Blue Bottle Coffee","lat":37.87207,"lng":-122.26761,"kind":"cafe","cuisine":"coffee shop"},{"name":"Starbucks","lat":37.71164,"lng":-122.16268,"kind":"cafe","cuisine":"coffee shop"},{"name":"Peet's Coffee","lat":37.85113,"lng":-122.25266,"kind":"cafe","cuisine":"coffee shop"},{"name":"Mitama","lat":37.85118,"lng":-122.25231,"kind":"restaurant","cuisine":"japanese"},{"name":"Chandni Chowk","lat":37.85102,"lng":-122.25227,"kind":"restaurant","cuisine":"indian"},{"name":"Pizzaiolo","lat":37.83661,"lng":-122.26227,"kind":"restaurant","cuisine":"italian"},{"name":"Farley's East","lat":37.8113,"lng":-122.26605,"kind":"cafe","cuisine":"coffee shop"},{"name":"Cactus Taqueria","lat":37.84396,"lng":-122.25157,"kind":"restaurant","cuisine":"mexican"},{"name":"Barney's","lat":37.84657,"lng":-122.25214,"kind":"restaurant","cuisine":"burger"},{"name":"Broadway Terrace Cafe","lat":37.84086,"lng":-122.23664,"kind":"cafe","cuisine":"american"},{"name":"Basil Pizzeria","lat":37.80241,"lng":-122.26814,"kind":"restaurant","cuisine":"pizza"},{"name":"Peet's Coffee","lat":37.79935,"lng":-122.21673,"kind":"cafe","cuisine":"coffee shop"},{"name":"Dimond Cafe","lat":37.79977,"lng":-122.21625,"kind":"cafe","cuisine":"coffee shop"},{"name":"Shaan Indian Cuisine","lat":37.79983,"lng":-122.21623,"kind":"restaurant","cuisine":"indian"},{"name":"Nudi Blue","lat":37.86841,"lng":-122.29167,"kind":"cafe","cuisine":"thai"},{"name":"Las Cabanas","lat":37.87288,"lng":-122.27333,"kind":"restaurant","cuisine":"mexican"},{"name":"Benc⑁ Patisserie Cafe","lat":37.87188,"lng":-122.27288,"kind":"cafe","cuisine":"coffee shop"},{"name":"Cafe Étoile","lat":37.87225,"lng":-122.27327,"kind":"cafe","cuisine":"coffee shop"},{"name":"Quinn's Lighthouse","lat":37.78137,"lng":-122.24376,"kind":"restaurant","cuisine":"seafood"},{"name":"Taqueria Montecristo","lat":37.87004,"lng":-122.28325,"kind":"restaurant","cuisine":"mexican"},{"name":"Pho Tasty","lat":37.87075,"lng":-122.27046,"kind":"restaurant","cuisine":"vietnamese"},{"name":"Coach Sushi","lat":37.80888,"lng":-122.2508,"kind":"restaurant","cuisine":"sushi"},{"name":"Rudy's Can't Fail Cafe","lat":37.83097,"lng":-122.28595,"kind":"restaurant","cuisine":"american"},{"name":"Luca Cucina","lat":37.8683,"lng":-122.29164,"kind":"restaurant","cuisine":"italian"},{"name":"Shan Dong Restaurant","lat":37.80059,"lng":-122.27007,"kind":"restaurant","cuisine":"chinese"},{"name":"Popoca Oakland","lat":37.80159,"lng":-122.27424,"kind":"restaurant","cuisine":"salvadoran"},{"name":"Uccello Coffee","lat":37.80343,"lng":-122.26851,"kind":"cafe","cuisine":"coffee shop"},{"name":"Cafe Romanat","lat":37.81196,"lng":-122.2483,"kind":"restaurant","cuisine":"ethiopian"},{"name":"El Chilar","lat":37.80576,"lng":-122.26776,"kind":"restaurant","cuisine":"mexican"},{"name":"Lucuma Kitchen & Bar","lat":37.80619,"lng":-122.2683,"kind":"restaurant","cuisine":"peruvian"},{"name":"Pho 84","lat":37.8059,"lng":-122.26756,"kind":"restaurant","cuisine":"vietnamese"},{"name":"Take It Easy Thai Food","lat":37.80569,"lng":-122.26756,"kind":"restaurant","cuisine":"thai"},{"name":"Yoshi's Oakland","lat":37.79613,"lng":-122.27829,"kind":"restaurant","cuisine":"japanese"},{"name":"Nua Thai Kitchen","lat":37.82694,"lng":-122.25195,"kind":"restaurant","cuisine":"thai"},{"name":"Ebiko","lat":37.82668,"lng":-122.25186,"kind":"restaurant","cuisine":"sushi"},{"name":"Peet's Coffee","lat":37.82626,"lng":-122.20904,"kind":"cafe","cuisine":"coffee shop"},{"name":"Cholita Linda","lat":37.87202,"lng":-122.26796,"kind":"restaurant","cuisine":"mexican"},{"name":"Mountain Mike's","lat":37.70493,"lng":-122.17952,"kind":"restaurant","cuisine":"pizza"},{"name":"Judoku Sushi","lat":37.82077,"lng":-122.26066,"kind":"restaurant","cuisine":"sushi"},{"name":"Graffiti Pizza","lat":37.8004,"lng":-122.27535,"kind":"restaurant","cuisine":"pizza"},{"name":"Highwire Coffee Roasters","lat":37.80296,"lng":-122.27262,"kind":"cafe","cuisine":"coffee shop"},{"name":"Bagel Street Cafe","lat":37.80427,"lng":-122.27293,"kind":"restaurant","cuisine":"sandwich"},{"name":"Homeroom","lat":37.82858,"lng":-122.25991,"kind":"restaurant","cuisine":"american"},{"name":"Tita Becca's","lat":37.80498,"lng":-122.26949,"kind":"restaurant","cuisine":"filipino"},{"name":"Cato's Ale House","lat":37.82497,"lng":-122.25458,"kind":"restaurant","cuisine":"american"},{"name":"Cairo Station Cafe","lat":37.80726,"lng":-122.27,"kind":"cafe","cuisine":"egyptian"},{"name":"Aroma Bakery & Cafe","lat":37.80733,"lng":-122.26762,"kind":"cafe","cuisine":"coffee shop"},{"name":"Sfizio","lat":37.84928,"lng":-122.2526,"kind":"restaurant","cuisine":"italian"},{"name":"La Méditeranée","lat":37.85762,"lng":-122.25327,"kind":"restaurant","cuisine":"greek"},{"name":"Shimizu","lat":37.82853,"lng":-122.24939,"kind":"restaurant","cuisine":"sushi"},{"name":"Cafe Santana Roasting Company","lat":37.78962,"lng":-122.19669,"kind":"cafe","cuisine":"coffee"},{"name":"Great China","lat":37.86768,"lng":-122.26614,"kind":"restaurant","cuisine":"chinese"},{"name":"Xolo Taqueria","lat":37.8084,"lng":-122.26968,"kind":"restaurant","cuisine":"mexican"},{"name":"Persian Nights","lat":37.80989,"lng":-122.25919,"kind":"restaurant","cuisine":"persian"},{"name":"Curry Up Now","lat":37.80784,"lng":-122.27264,"kind":"restaurant","cuisine":"indian"},{"name":"Xpression","lat":37.87525,"lng":-122.26032,"kind":"restaurant","cuisine":"indian"},{"name":"Scott's Seafood Resturant","lat":37.79417,"lng":-122.27712,"kind":"restaurant","cuisine":"seafood"},{"name":"Seabreeze on the Dock","lat":37.79348,"lng":-122.27502,"kind":"restaurant","cuisine":"seafood"},{"name":"Jong Ga House","lat":37.80904,"lng":-122.25495,"kind":"restaurant","cuisine":"korean"},{"name":"Addis Ethiopian","lat":37.8474,"lng":-122.26072,"kind":"restaurant","cuisine":"ethiopian"},{"name":"All American Natural Cafe","lat":37.84221,"lng":-122.2837,"kind":"cafe","cuisine":"coffee shop"},{"name":"Cafe Colucci","lat":37.84187,"lng":-122.28361,"kind":"restaurant","cuisine":"ethiopian"},{"name":"Good to Eat","lat":37.84713,"lng":-122.29056,"kind":"restaurant","cuisine":"taiwanese"},{"name":"Applebee's","lat":37.75797,"lng":-122.25186,"kind":"restaurant","cuisine":"american"},{"name":"Monkey Thai","lat":37.75715,"lng":-122.25279,"kind":"restaurant","cuisine":"thai"},{"name":"Starbucks","lat":37.75699,"lng":-122.25291,"kind":"cafe","cuisine":"coffee shop"},{"name":"My-O-My","lat":37.87531,"lng":-122.26033,"kind":"restaurant","cuisine":"mediterranean"},{"name":"Home of Chicken & Waffles","lat":37.79536,"lng":-122.27054,"kind":"restaurant","cuisine":"Chicken and waffles"},{"name":"Amazona's Pizza","lat":37.81388,"lng":-122.26873,"kind":"restaurant","cuisine":"pizza"},{"name":"Philz Coffee","lat":37.81115,"lng":-122.24343,"kind":"cafe","cuisine":"coffee shop"},{"name":"Sana'a Cafe","lat":37.80042,"lng":-122.27391,"kind":"cafe","cuisine":"yemeni"},{"name":"Gabriella's Pizza","lat":37.8103,"lng":-122.2465,"kind":"restaurant","cuisine":"pizza"},{"name":"Lo Coco's","lat":37.8284,"lng":-122.2495,"kind":"restaurant","cuisine":"italian"},{"name":"Khana Peena","lat":37.83841,"lng":-122.25118,"kind":"restaurant","cuisine":"indian"},{"name":"Cream","lat":37.86704,"lng":-122.25868,"kind":"restaurant","cuisine":"ice cream"},{"name":"Ippuku","lat":37.8703,"lng":-122.2671,"kind":"restaurant","cuisine":"japanese"},{"name":"Athenian Deli and Cafe","lat":37.81038,"lng":-122.26679,"kind":"restaurant","cuisine":"greek"},{"name":"Yali's Cafe","lat":37.87392,"lng":-122.25647,"kind":"cafe","cuisine":"coffee shop"},{"name":"Juice Appeal","lat":37.87047,"lng":-122.26794,"kind":"cafe","cuisine":"juice"},{"name":"Marhabah","lat":37.80459,"lng":-122.27256,"kind":"restaurant","cuisine":"sandwich"},{"name":"Molcajete","lat":37.80618,"lng":-122.26683,"kind":"restaurant","cuisine":"mexican"},{"name":"Cassave Taqueria","lat":37.838,"lng":-122.28193,"kind":"restaurant","cuisine":"mexican"},{"name":"IHOP","lat":37.83257,"lng":-122.2806,"kind":"restaurant","cuisine":"breakfast"},{"name":"Los Cantaros Taquería","lat":37.83273,"lng":-122.28065,"kind":"restaurant","cuisine":"mexican"},{"name":"Miyozen","lat":37.83088,"lng":-122.27958,"kind":"restaurant","cuisine":"sushi"},{"name":"Wally's Cafe","lat":37.83016,"lng":-122.27921,"kind":"cafe","cuisine":"lebanese"},{"name":"Starbucks","lat":37.83667,"lng":-122.29502,"kind":"cafe","cuisine":"coffee shop"},{"name":"P.F. Chang's","lat":37.83477,"lng":-122.29242,"kind":"restaurant","cuisine":"asian"},{"name":"Summer Summer Thai","lat":37.84106,"lng":-122.28995,"kind":"restaurant","cuisine":"thai"},{"name":"Peet's Coffee","lat":37.87024,"lng":-122.30099,"kind":"cafe","cuisine":"coffee shop"},{"name":"World Famous HotBoys","lat":37.80653,"lng":-122.27221,"kind":"restaurant","cuisine":"chicken"},{"name":"Rose Garden Uptown","lat":37.8091,"lng":-122.27303,"kind":"restaurant","cuisine":"lao"},{"name":"Phuong Nam","lat":37.80695,"lng":-122.27273,"kind":"restaurant","cuisine":"vietnamese"},{"name":"Zino","lat":37.86915,"lng":-122.26866,"kind":"restaurant","cuisine":"mediterranean"},{"name":"Sconehenge","lat":37.8587,"lng":-122.2667,"kind":"restaurant","cuisine":"american"},{"name":"Highwire Coffee","lat":37.82641,"lng":-122.20948,"kind":"cafe","cuisine":"coffee shop"},{"name":"Shooting Star Cafe","lat":37.80096,"lng":-122.27013,"kind":"restaurant","cuisine":"chinese"},{"name":"Cam Huong Bakery","lat":37.80114,"lng":-122.27003,"kind":"restaurant","cuisine":"vietnamese"},{"name":"Ippudo","lat":37.87187,"lng":-122.26758,"kind":"restaurant","cuisine":"ramen"},{"name":"Leaning Tower of Pizza","lat":37.80457,"lng":-122.24952,"kind":"restaurant","cuisine":"pizza"},{"name":"Oak-Dar","lat":37.80387,"lng":-122.27121,"kind":"cafe","cuisine":"ethiopian"},{"name":"Angel Fish","lat":37.73755,"lng":-122.24032,"kind":"restaurant","cuisine":"japanese"},{"name":"Scolari's","lat":37.76278,"lng":-122.24422,"kind":"restaurant","cuisine":"burger"},{"name":"King of Thai","lat":37.76773,"lng":-122.24013,"kind":"restaurant","cuisine":"thai"},{"name":"East End Pizza Co.","lat":37.76792,"lng":-122.23946,"kind":"restaurant","cuisine":"pizza"},{"name":"Capullo Cocina Mexicana","lat":37.7656,"lng":-122.24149,"kind":"restaurant","cuisine":"mexican"},{"name":"Alameda Cinema Grill","lat":37.76483,"lng":-122.24394,"kind":"restaurant","cuisine":"pizza"},{"name":"Yume Sushi","lat":37.76491,"lng":-122.242,"kind":"restaurant","cuisine":"sushi"},{"name":"Roll and Bowl","lat":37.76286,"lng":-122.24528,"kind":"restaurant","cuisine":"asian"},{"name":"Kabana","lat":37.86908,"lng":-122.29309,"kind":"restaurant","cuisine":"pakistani"},{"name":"Everett and Jones","lat":37.8697,"lng":-122.29204,"kind":"restaurant","cuisine":"barbecue"},{"name":"Eat @ Thai","lat":37.86954,"lng":-122.29016,"kind":"restaurant","cuisine":"thai"},{"name":"Peet's Coffee","lat":37.81039,"lng":-122.24456,"kind":"cafe","cuisine":"coffee shop"},{"name":"Cana","lat":37.81031,"lng":-122.24659,"kind":"restaurant","cuisine":"cuban"},{"name":"Angeline's Louisiana Kitchen","lat":37.86824,"lng":-122.26754,"kind":"restaurant","cuisine":"louisiana"},{"name":"MintLeaf","lat":37.85328,"lng":-122.29164,"kind":"restaurant","cuisine":"vietnamese"},{"name":"Kiku Sushi","lat":37.88114,"lng":-122.28933,"kind":"restaurant","cuisine":"japanese"},{"name":"PRAAW (พราว) Thai Berkeley","lat":37.88166,"lng":-122.29051,"kind":"restaurant","cuisine":"thai"},{"name":"Cafe Chiave","lat":37.82625,"lng":-122.2529,"kind":"cafe","cuisine":"coffee shop"},{"name":"Fava","lat":37.88021,"lng":-122.26861,"kind":"restaurant","cuisine":"middle eastern"},{"name":"Sandwich Zone","lat":37.87102,"lng":-122.26754,"kind":"restaurant","cuisine":"sandwich"},{"name":"Sun Sun Sushi Shop","lat":37.87111,"lng":-122.27278,"kind":"restaurant","cuisine":"japanese"},{"name":"Zut!","lat":37.86967,"lng":-122.30071,"kind":"restaurant","cuisine":"mediterranean"},{"name":"Toust","lat":37.86818,"lng":-122.25979,"kind":"restaurant","cuisine":"korean"},{"name":"Happy Burrito #1","lat":37.80526,"lng":-122.26743,"kind":"restaurant","cuisine":"mexican"},{"name":"Fellini Coffee Bar","lat":37.87032,"lng":-122.28395,"kind":"cafe","cuisine":"coffee shop"},{"name":"Ruby's Cafe","lat":37.84334,"lng":-122.29058,"kind":"cafe","cuisine":"breakfast"},{"name":"Chile Jalapeño","lat":37.84994,"lng":-122.28575,"kind":"restaurant","cuisine":"mexican"},{"name":"Juan's Place","lat":37.85759,"lng":-122.29108,"kind":"restaurant","cuisine":"mexican"},{"name":"Lao Garden","lat":37.86048,"lng":-122.28961,"kind":"restaurant","cuisine":"lao"},{"name":"Yali's Cafe","lat":37.8748,"lng":-122.2587,"kind":"cafe","cuisine":"coffee shop"},{"name":"Café Zeb","lat":37.86968,"lng":-122.25315,"kind":"cafe","cuisine":"sandwich"},{"name":"Kinda Izakaya","lat":37.87183,"lng":-122.27212,"kind":"restaurant","cuisine":"japanese"},{"name":"Binge Coffee House","lat":37.86793,"lng":-122.26618,"kind":"cafe","cuisine":"coffee shop"},{"name":"Saigon Express","lat":37.87138,"lng":-122.26754,"kind":"restaurant","cuisine":"vietnamese"},{"name":"Pastino's Pasta & Pizza","lat":37.80742,"lng":-122.22266,"kind":"restaurant","cuisine":"italian"},{"name":"Sushi Park","lat":37.80745,"lng":-122.22261,"kind":"restaurant","cuisine":"sushi"},{"name":"Afghan Burrito","lat":37.8643,"lng":-122.29033,"kind":"restaurant","cuisine":"coffee shop"},{"name":"Way Station Brew","lat":37.86396,"lng":-122.26667,"kind":"cafe","cuisine":"coffee shop"},{"name":"Arinell Pizza","lat":37.87098,"lng":-122.26758,"kind":"restaurant","cuisine":"pizza"},{"name":"Rotten City Pizza","lat":37.84794,"lng":-122.29201,"kind":"restaurant","cuisine":"pizza"},{"name":"Starbucks","lat":37.88091,"lng":-122.26968,"kind":"cafe","cuisine":"coffee shop"},{"name":"Impression of Lanzhou","lat":37.87518,"lng":-122.26031,"kind":"restaurant","cuisine":"noodle"},{"name":"La Val's Pizza","lat":37.87548,"lng":-122.26055,"kind":"restaurant","cuisine":"pizza"},{"name":"Heroic Italian","lat":37.8682,"lng":-122.26926,"kind":"cafe","cuisine":"italian"},{"name":"Shaka Shack","lat":37.77134,"lng":-122.23949,"kind":"restaurant","cuisine":"hawaiian"},{"name":"Starbucks","lat":37.83342,"lng":-122.24945,"kind":"cafe","cuisine":"coffee shop"},{"name":"Delicious Thai Kitchen","lat":37.83796,"lng":-122.25158,"kind":"restaurant","cuisine":"thai"},{"name":"bb.q Chicken","lat":37.83789,"lng":-122.25143,"kind":"restaurant","cuisine":"korean"},{"name":"Asmara","lat":37.8368,"lng":-122.26221,"kind":"restaurant","cuisine":"ethiopian"},{"name":"The Butcher's Son","lat":37.87157,"lng":-122.27161,"kind":"restaurant","cuisine":"sandwich"},{"name":"Rose Pizzeria","lat":37.87159,"lng":-122.2715,"kind":"restaurant","cuisine":"pizza"},{"name":"Bag O' Crab","lat":37.72192,"lng":-122.15318,"kind":"restaurant","cuisine":"seafood"},{"name":"Lox Stock & Bagel","lat":37.86931,"lng":-122.26946,"kind":"cafe","cuisine":"bagel"},{"name":"Red Tomato Pizza House","lat":37.8721,"lng":-122.27013,"kind":"restaurant","cuisine":"pizza"},{"name":"States Coffee","lat":37.82838,"lng":-122.26069,"kind":"cafe","cuisine":"coffee shop"},{"name":"Ole Ole Burrito Express","lat":37.81414,"lng":-122.26865,"kind":"restaurant","cuisine":"mexican"},{"name":"Roast & Toast Cafe","lat":37.87583,"lng":-122.269,"kind":"cafe","cuisine":"coffee shop"},{"name":"Tsuruya","lat":37.87334,"lng":-122.26874,"kind":"restaurant","cuisine":"ramen"},{"name":"KEFA Cafe","lat":37.77317,"lng":-122.23483,"kind":"cafe","cuisine":"coffee shop"},{"name":"Coffee Conscious","lat":37.88119,"lng":-122.28941,"kind":"cafe","cuisine":"coffee shop"},{"name":"Me & Jungle","lat":37.82539,"lng":-122.25398,"kind":"cafe","cuisine":"american"},{"name":"Wise Sons","lat":37.82778,"lng":-122.26465,"kind":"restaurant","cuisine":"coffee shop"},{"name":"Three Seasons Thai","lat":37.8115,"lng":-122.21175,"kind":"restaurant","cuisine":"thai"},{"name":"Red Boy Pizza","lat":37.81158,"lng":-122.21189,"kind":"restaurant","cuisine":"pizza"},{"name":"Bellanico","lat":37.80754,"lng":-122.22172,"kind":"restaurant","cuisine":"italian"},{"name":"Marzano","lat":37.80734,"lng":-122.22215,"kind":"restaurant","cuisine":"pizza"},{"name":"Park Burger","lat":37.80738,"lng":-122.22206,"kind":"restaurant","cuisine":"burger"},{"name":"Haddon Hill Cafe","lat":37.80492,"lng":-122.24885,"kind":"cafe","cuisine":"coffee shop"},{"name":"Dumpling Day","lat":37.86873,"lng":-122.26692,"kind":"restaurant","cuisine":"asian"},{"name":"Toss Noodle Bar","lat":37.86806,"lng":-122.26815,"kind":"restaurant","cuisine":"asian"},{"name":"Vulcan Thai Cafe","lat":37.76927,"lng":-122.21602,"kind":"restaurant","cuisine":"thai"},{"name":"Asha Tea House","lat":37.87193,"lng":-122.26883,"kind":"cafe","cuisine":"tea"},{"name":"Imm Thai Street Food","lat":37.87189,"lng":-122.26912,"kind":"restaurant","cuisine":"thai"},{"name":"Cafe Rio","lat":37.87189,"lng":-122.26919,"kind":"cafe","cuisine":"sandwich"},{"name":"Platano","lat":37.87182,"lng":-122.26973,"kind":"restaurant","cuisine":"salvadoran"},{"name":"Cafe Tibet","lat":37.87176,"lng":-122.27017,"kind":"restaurant","cuisine":"tibetan"},{"name":"Phosho Dough","lat":37.88106,"lng":-122.29577,"kind":"restaurant","cuisine":"vietnamese"},{"name":"Cole Coffee","lat":37.85023,"lng":-122.2525,"kind":"cafe","cuisine":"coffee shop"},{"name":"Souvenir Coffee","lat":37.86201,"lng":-122.2534,"kind":"cafe","cuisine":"coffee shop"},{"name":"Comal","lat":37.87158,"lng":-122.26852,"kind":"restaurant","cuisine":"mexican"},{"name":"Sushi Secrets","lat":37.87082,"lng":-122.26846,"kind":"restaurant","cuisine":"sushi"},{"name":"Udupi Palace","lat":37.87175,"lng":-122.27278,"kind":"restaurant","cuisine":"indian"},{"name":"Everett and Jones Barbecue","lat":37.78774,"lng":-122.1954,"kind":"restaurant","cuisine":"barbecue"},{"name":"Little Plearn Thai Kitchen","lat":37.86794,"lng":-122.26754,"kind":"restaurant","cuisine":"thai"},{"name":"眷湘 Easterly","lat":37.86716,"lng":-122.26746,"kind":"restaurant","cuisine":"chinese"},{"name":"Nikko Sushi","lat":37.86594,"lng":-122.26733,"kind":"restaurant","cuisine":"japanese"},{"name":"Calafia","lat":37.7729,"lng":-122.27701,"kind":"restaurant","cuisine":"mexican"},{"name":"Blue Dot Cafe & Coffee Bar","lat":37.76682,"lng":-122.25435,"kind":"cafe","cuisine":"coffee shop"},{"name":"Tay Ho Restaurant","lat":37.80208,"lng":-122.26942,"kind":"restaurant","cuisine":"vietnamese"},{"name":"Peony Restaurant","lat":37.80079,"lng":-122.2714,"kind":"restaurant","cuisine":"chinese"},{"name":"Crazy Block Cheesecakes","lat":37.81119,"lng":-122.24329,"kind":"restaurant","cuisine":"barbecue"},{"name":"Happy Lemon","lat":37.87096,"lng":-122.26847,"kind":"cafe","cuisine":"bubble tea"},{"name":"University Taqueria","lat":37.8721,"lng":-122.27007,"kind":"restaurant","cuisine":"mexican"},{"name":"Phnom Penh","lat":37.79098,"lng":-122.19785,"kind":"restaurant","cuisine":"oriental"},{"name":"Fountain Garden Seafood Restaurant","lat":37.7914,"lng":-122.19818,"kind":"restaurant","cuisine":"chinese"},{"name":"Gadani","lat":37.8707,"lng":-122.26797,"kind":"cafe","cuisine":"dessert"},{"name":"Tea Hut","lat":37.87443,"lng":-122.26843,"kind":"cafe","cuisine":"bubble tea"},{"name":"Cafenated Coffee Co.","lat":37.85685,"lng":-122.25322,"kind":"cafe","cuisine":"coffee shop"},{"name":"House Of Curries","lat":37.85646,"lng":-122.25314,"kind":"restaurant","cuisine":"indian"},{"name":"Gordo Taqueria","lat":37.85641,"lng":-122.25286,"kind":"restaurant","cuisine":"mexican"},{"name":"Sukho Thai","lat":37.84248,"lng":-122.25145,"kind":"restaurant","cuisine":"thai"},{"name":"Ben 'N Nick's Bar & Grill","lat":37.84355,"lng":-122.25152,"kind":"restaurant","cuisine":"bar and grill"},{"name":"Highwire Coffee Roasters","lat":37.84356,"lng":-122.25184,"kind":"cafe","cuisine":"coffee shop"},{"name":"Bangkok Garden","lat":37.83652,"lng":-122.25141,"kind":"restaurant","cuisine":"thai"},{"name":"Enssaro","lat":37.80875,"lng":-122.25577,"kind":"restaurant","cuisine":"ethiopian"},{"name":"Starbucks","lat":37.77445,"lng":-122.23029,"kind":"cafe","cuisine":"coffee shop"},{"name":"Starbucks","lat":37.76825,"lng":-122.2325,"kind":"cafe","cuisine":"coffee shop"},{"name":"Red Bay Coffee","lat":37.84875,"lng":-122.2724,"kind":"cafe","cuisine":"coffee shop"},{"name":"Lois the Pie Queen","lat":37.84477,"lng":-122.27294,"kind":"restaurant","cuisine":"breakfast"},{"name":"Greens and Grains","lat":37.76769,"lng":-122.2396,"kind":"restaurant","cuisine":"salad"},{"name":"Village Pizza","lat":37.88131,"lng":-122.18731,"kind":"restaurant","cuisine":"pizza"},{"name":"Sweetheart Cafe","lat":37.86808,"lng":-122.25792,"kind":"cafe","cuisine":"taiwanese"},{"name":"Pizzeria Violetta","lat":37.83011,"lng":-122.24771,"kind":"restaurant","cuisine":"pizza"},{"name":"Nation's Giant Hamburgers","lat":37.79721,"lng":-122.27589,"kind":"restaurant","cuisine":"american"},{"name":"Awaken Cafe","lat":37.80528,"lng":-122.27086,"kind":"cafe","cuisine":"coffee shop"},{"name":"BroomBush Cafe","lat":37.85679,"lng":-122.28797,"kind":"cafe","cuisine":"diner"},{"name":"The Bureau 510","lat":37.84011,"lng":-122.28918,"kind":"restaurant","cuisine":"burger"},{"name":"Bar César","lat":37.82617,"lng":-122.25302,"kind":"restaurant","cuisine":"spanish"},{"name":"Cancún","lat":37.86943,"lng":-122.26682,"kind":"restaurant","cuisine":"mexican"},{"name":"Diamonds","lat":37.72934,"lng":-122.2018,"kind":"restaurant","cuisine":"american"},{"name":"Uqbar","lat":37.86352,"lng":-122.29731,"kind":"cafe","cuisine":"mediterranean"},{"name":"Las Guerrera's","lat":37.80176,"lng":-122.27493,"kind":"restaurant","cuisine":"mexican"},{"name":"Casa Latina","lat":37.87148,"lng":-122.29272,"kind":"restaurant","cuisine":"mexican"},{"name":"Berkeley Social Club","lat":37.87184,"lng":-122.26952,"kind":"restaurant","cuisine":"korean"},{"name":"Koja Kitchen","lat":37.86711,"lng":-122.25862,"kind":"restaurant","cuisine":"asian"},{"name":"Huangcheng Noodle House","lat":37.80172,"lng":-122.27456,"kind":"restaurant","cuisine":"chinese"},{"name":"New Gold Medal","lat":37.79944,"lng":-122.27223,"kind":"restaurant","cuisine":"chinese"},{"name":"Tierra Mia","lat":37.80926,"lng":-122.26836,"kind":"cafe","cuisine":"coffee shop"},{"name":"Oakland Cafe","lat":37.80093,"lng":-122.2685,"kind":"restaurant","cuisine":"chinese"},{"name":"Mother Tongue Cafe and Bar","lat":37.8287,"lng":-122.2564,"kind":"cafe","cuisine":"california"},{"name":"Kiraku","lat":37.86373,"lng":-122.25886,"kind":"restaurant","cuisine":"japanese"},{"name":"Jebena Cafe","lat":37.81868,"lng":-122.26708,"kind":"cafe","cuisine":"ethiopian"},{"name":"Tane Vegan Izakaya","lat":37.87281,"lng":-122.26867,"kind":"restaurant","cuisine":"japanese"},{"name":"Odin","lat":37.79464,"lng":-122.26669,"kind":"restaurant","cuisine":"mexican"},{"name":"Cenaduria Elvira","lat":37.79714,"lng":-122.27641,"kind":"restaurant","cuisine":"mexican"},{"name":"Mosley's Cafe","lat":37.77879,"lng":-122.25226,"kind":"cafe","cuisine":"regional"},{"name":"Anh Dao","lat":37.7999,"lng":-122.25206,"kind":"restaurant","cuisine":"vietnamese"},{"name":"Peet's Coffee","lat":37.8233,"lng":-122.25839,"kind":"cafe","cuisine":"coffee shop"},{"name":"Cafe Buenos Aires","lat":37.85544,"lng":-122.26639,"kind":"cafe","cuisine":"argentinian"},{"name":"Emilia's Pizzeria","lat":37.85552,"lng":-122.2664,"kind":"restaurant","cuisine":"pizza"},{"name":"La Familia","lat":37.85565,"lng":-122.2664,"kind":"restaurant","cuisine":"taqueria"},{"name":"Munch India","lat":37.8547,"lng":-122.26629,"kind":"restaurant","cuisine":"indian"},{"name":"Nick's Pizza","lat":37.84968,"lng":-122.2654,"kind":"restaurant","cuisine":"pizza"},{"name":"Oori Rice Triangles","lat":37.86985,"lng":-122.26767,"kind":"restaurant","cuisine":"onigiri"},{"name":"Kamado Sushi","lat":37.88164,"lng":-122.26967,"kind":"restaurant","cuisine":"japanese"},{"name":"Los Cilantros","lat":37.85289,"lng":-122.26603,"kind":"restaurant","cuisine":"mexican"},{"name":"Evergreen Cafe","lat":37.87447,"lng":-122.29359,"kind":"cafe","cuisine":"salad"},{"name":"Shawarmaji","lat":37.81067,"lng":-122.26642,"kind":"restaurant","cuisine":"middle eastern"},{"name":"Kansai","lat":37.83201,"lng":-122.26394,"kind":"restaurant","cuisine":"sushi"},{"name":"Pizza Marica","lat":37.83809,"lng":-122.2515,"kind":"restaurant","cuisine":"pizza"},{"name":"Tacubaya","lat":37.87015,"lng":-122.30127,"kind":"restaurant","cuisine":"mexican"},{"name":"Charm Thai Bistro","lat":37.8263,"lng":-122.25278,"kind":"restaurant","cuisine":"thai"},{"name":"Burma Berkeley","lat":37.85899,"lng":-122.25949,"kind":"restaurant","cuisine":"burmese"},{"name":"Philz Coffee","lat":37.85016,"lng":-122.25222,"kind":"cafe","cuisine":"coffee shop"},{"name":"T-Bear","lat":37.87313,"lng":-122.26869,"kind":"cafe","cuisine":"bubble tea"},{"name":"Crepes a Go Go","lat":37.87027,"lng":-122.26937,"kind":"cafe","cuisine":"crepes"},{"name":"Rojbas Grill","lat":37.87176,"lng":-122.27287,"kind":"restaurant","cuisine":"kurdish"},{"name":"Brothers Deli & Co","lat":37.80229,"lng":-122.24142,"kind":"restaurant","cuisine":"sandwich"},{"name":"Siam Orchid","lat":37.88196,"lng":-122.18775,"kind":"restaurant","cuisine":"thai"},{"name":"Sliver Pizzeria","lat":37.86567,"lng":-122.2587,"kind":"restaurant","cuisine":"pizza"},{"name":"Aburaya","lat":37.80594,"lng":-122.26764,"kind":"restaurant","cuisine":"fried chicken"},{"name":"La Val's Pizza","lat":37.7376,"lng":-122.24089,"kind":"restaurant","cuisine":"pizza"},{"name":"Jasmine Thai Blossom Cuisine","lat":37.84713,"lng":-122.29147,"kind":"restaurant","cuisine":"thai"},{"name":"Los Moles","lat":37.84695,"lng":-122.2914,"kind":"restaurant","cuisine":"mexican"},{"name":"Starbucks","lat":37.84659,"lng":-122.29161,"kind":"cafe","cuisine":"coffee shop"},{"name":"Kyu 2 Sushi","lat":37.84654,"lng":-122.29158,"kind":"restaurant","cuisine":"sushi"},{"name":"Peet's Coffee","lat":37.84159,"lng":-122.29361,"kind":"cafe","cuisine":"coffee shop"},{"name":"Hot Italian","lat":37.84153,"lng":-122.2936,"kind":"restaurant","cuisine":"pizza"},{"name":"Philz Coffee","lat":37.87963,"lng":-122.29771,"kind":"cafe","cuisine":"coffee shop"},{"name":"Narwhal Urban Village","lat":37.85053,"lng":-122.27881,"kind":"restaurant","cuisine":"indian"},{"name":"Golden Gate Donuts","lat":37.83102,"lng":-122.26419,"kind":"cafe","cuisine":"donut"},{"name":"Flipside Burgers","lat":37.81126,"lng":-122.2431,"kind":"restaurant","cuisine":"burger"},{"name":"The Peach","lat":37.81064,"lng":-122.24497,"kind":"restaurant","cuisine":"brunch"},{"name":"Rico Rico Taco","lat":37.81032,"lng":-122.24585,"kind":"restaurant","cuisine":"mexican"},{"name":"Chao Thai Cuisine","lat":37.81099,"lng":-122.2473,"kind":"restaurant","cuisine":"thai"},{"name":"Hunan Village Restaurant","lat":37.81187,"lng":-122.24745,"kind":"restaurant","cuisine":"chinese"},{"name":"Neecha Thai","lat":37.81193,"lng":-122.24741,"kind":"restaurant","cuisine":"thai"},{"name":"Bayleaf","lat":37.81253,"lng":-122.24707,"kind":"restaurant","cuisine":"indian"},{"name":"Mijori Sushi","lat":37.81244,"lng":-122.24713,"kind":"restaurant","cuisine":"japanese"},{"name":"Bayview café","lat":37.86059,"lng":-122.24353,"kind":"cafe","cuisine":"sandwich"},{"name":"Taqueria Barajitas Taco Truck","lat":37.81797,"lng":-122.26256,"kind":"restaurant","cuisine":"mexican"},{"name":"La Furia Chalaca","lat":37.79693,"lng":-122.27557,"kind":"restaurant","cuisine":"peruvian"},{"name":"Yia-Yia's Sandwiches","lat":37.79434,"lng":-122.2713,"kind":"restaurant","cuisine":"diner"},{"name":"Victory Point Cafe","lat":37.87529,"lng":-122.26855,"kind":"cafe","cuisine":"coffee shop"},{"name":"Kura Revolving Sushi Bar","lat":37.87197,"lng":-122.26819,"kind":"restaurant","cuisine":"sushi"},{"name":"Gum Kuo","lat":37.80074,"lng":-122.27155,"kind":"restaurant","cuisine":"chinese"},{"name":"Tian Jin Dumplings","lat":37.80101,"lng":-122.27192,"kind":"restaurant","cuisine":"chinese"},{"name":"Sobo Ramen","lat":37.80089,"lng":-122.27161,"kind":"restaurant","cuisine":"ramen"},{"name":"Binh Minh Quan","lat":37.80202,"lng":-122.26929,"kind":"restaurant","cuisine":"vietnamese"},{"name":"Biryani Kabab Halal Indian and Pakistani Cuisine","lat":37.80285,"lng":-122.27003,"kind":"restaurant","cuisine":"pakistani"},{"name":"Spices 3!","lat":37.80232,"lng":-122.27012,"kind":"restaurant","cuisine":"chinese"},{"name":"Sweetheart Cafe","lat":37.79944,"lng":-122.27014,"kind":"cafe","cuisine":"chinese"},{"name":"Spices Noodle House","lat":37.80213,"lng":-122.27035,"kind":"restaurant","cuisine":"chinese"},{"name":"Fresh & Best Cafe 2","lat":37.80298,"lng":-122.26596,"kind":"cafe","cuisine":"vietnamese"},{"name":"Alma","lat":37.80689,"lng":-122.26713,"kind":"restaurant","cuisine":"mexican"},{"name":"Halal Burgers","lat":37.80173,"lng":-122.26419,"kind":"restaurant","cuisine":"yemeni"},{"name":"Kingston 11 Cuisine","lat":37.8123,"lng":-122.26868,"kind":"restaurant","cuisine":"jamaican"},{"name":"Que Rico","lat":37.80455,"lng":-122.26904,"kind":"restaurant","cuisine":"mexican"},{"name":"Sushi Villa","lat":37.8058,"lng":-122.26789,"kind":"restaurant","cuisine":"sushi"},{"name":"JR Ramen Station","lat":37.7877,"lng":-122.25111,"kind":"restaurant","cuisine":"ramen"},{"name":"Starbucks","lat":37.78768,"lng":-122.25101,"kind":"cafe","cuisine":"coffee shop"},{"name":"Kang Tong","lat":37.82549,"lng":-122.26525,"kind":"restaurant","cuisine":"korean"},{"name":"Big Daddy's Chinese Restaurant","lat":37.82544,"lng":-122.26526,"kind":"restaurant","cuisine":"chinese"},{"name":"California Pizza Kitchen","lat":37.8343,"lng":-122.29199,"kind":"restaurant","cuisine":"pizza"},{"name":"Artís Coffee","lat":37.87163,"lng":-122.301,"kind":"cafe","cuisine":"coffee shop"},{"name":"Pintoh Thai","lat":37.80455,"lng":-122.26933,"kind":"restaurant","cuisine":"thai"},{"name":"Delicious Curry House","lat":37.80454,"lng":-122.26975,"kind":"restaurant","cuisine":"indian"},{"name":"Edible Happy Pizzeria","lat":37.80482,"lng":-122.27063,"kind":"restaurant","cuisine":"pizza"},{"name":"Battambang","lat":37.80052,"lng":-122.27333,"kind":"restaurant","cuisine":"cambodian"},{"name":"Zara","lat":37.80292,"lng":-122.27527,"kind":"restaurant","cuisine":"ethiopian"},{"name":"Cafe Dareye","lat":37.81478,"lng":-122.26807,"kind":"restaurant","cuisine":"ethiopian"},{"name":"Koffee Pot","lat":37.81506,"lng":-122.268,"kind":"restaurant","cuisine":"breakfast"},{"name":"Gogi Time","lat":37.81551,"lng":-122.26772,"kind":"restaurant","cuisine":"korean"},{"name":"Elve's BBQ","lat":37.82182,"lng":-122.27028,"kind":"restaurant","cuisine":"barbecue"},{"name":"Lounge Chinatown","lat":37.79959,"lng":-122.27185,"kind":"restaurant","cuisine":"chinese"},{"name":"Zeng's Family Kitchen","lat":37.8017,"lng":-122.27479,"kind":"restaurant","cuisine":"chinese"},{"name":"Las Guerrera's Comida Costeña","lat":37.8018,"lng":-122.27482,"kind":"restaurant","cuisine":"mexican"},{"name":"Imperial Soup","lat":37.79898,"lng":-122.27174,"kind":"restaurant","cuisine":"chinese"},{"name":"Royaltea","lat":37.79864,"lng":-122.27159,"kind":"cafe","cuisine":"bubble tea"},{"name":"Guangdong BBQ","lat":37.79901,"lng":-122.27115,"kind":"restaurant","cuisine":"barbecue"},{"name":"i Tea","lat":37.80051,"lng":-122.27081,"kind":"cafe","cuisine":"bubble tea"},{"name":"Cam Anh","lat":37.80027,"lng":-122.27056,"kind":"restaurant","cuisine":"vietnamese"},{"name":"R' Noodles & Bakery","lat":37.80031,"lng":-122.27053,"kind":"restaurant","cuisine":"chinese"},{"name":"Phở Hòa Lão II","lat":37.80032,"lng":-122.27011,"kind":"restaurant","cuisine":"vietnamese"},{"name":"Quickly","lat":37.80046,"lng":-122.26969,"kind":"cafe","cuisine":"bubble tea"},{"name":"Mam Hanoi","lat":37.79975,"lng":-122.26864,"kind":"restaurant","cuisine":"vietnamese"},{"name":"Chatime","lat":37.79896,"lng":-122.26881,"kind":"cafe","cuisine":"bubble tea"},{"name":"Mr. Liu Noodle House","lat":37.80153,"lng":-122.27026,"kind":"restaurant","cuisine":"chinese"},{"name":"Dan Sung Sa","lat":37.81712,"lng":-122.2679,"kind":"restaurant","cuisine":"korean"},{"name":"Hong Kong Fast Food","lat":37.80288,"lng":-122.2816,"kind":"restaurant","cuisine":"chinese"},{"name":"Pizza Love","lat":37.80303,"lng":-122.28177,"kind":"restaurant","cuisine":"pizza"},{"name":"Rimy Mediterranean Grocery and Grill","lat":37.80282,"lng":-122.28148,"kind":"restaurant","cuisine":"mediterranean"},{"name":"Annapurna","lat":37.80234,"lng":-122.27527,"kind":"restaurant","cuisine":"indian"},{"name":"Pho Mekong","lat":37.79255,"lng":-122.25232,"kind":"restaurant","cuisine":"vietnamese"},{"name":"Pho King Noodle House","lat":37.79461,"lng":-122.25237,"kind":"restaurant","cuisine":"vietnamese"},{"name":"Phở Gà Hương Quê Cafe","lat":37.79383,"lng":-122.25266,"kind":"restaurant","cuisine":"vietnamese"},{"name":"Pho Huong Que","lat":37.79793,"lng":-122.25607,"kind":"restaurant","cuisine":"vietnamese"},{"name":"Thanh Ky Restaurant","lat":37.79365,"lng":-122.2534,"kind":"restaurant","cuisine":"chinese"},{"name":"Chai Thai Noodles","lat":37.79507,"lng":-122.25331,"kind":"restaurant","cuisine":"thai"},{"name":"La Quebrada","lat":37.79626,"lng":-122.25474,"kind":"restaurant","cuisine":"mexican"},{"name":"Da Nang Quan","lat":37.79404,"lng":-122.25383,"kind":"restaurant","cuisine":"vietnamese"},{"name":"Thanh Thuy","lat":37.79285,"lng":-122.25276,"kind":"restaurant","cuisine":"vietnamese"},{"name":"Mama Papa Lithuania Restaurant","lat":37.76204,"lng":-122.24484,"kind":"restaurant","cuisine":"lithuanian"},{"name":"Thai Noodle House","lat":37.76816,"lng":-122.23929,"kind":"restaurant","cuisine":"thai"},{"name":"Sì Sì Caffè","lat":37.83402,"lng":-122.13115,"kind":"cafe","cuisine":"coffee shop"},{"name":"Ramen Shop","lat":37.84636,"lng":-122.25183,"kind":"restaurant","cuisine":"ramen"},{"name":"Cam Huong Deli Restaurant","lat":37.79417,"lng":-122.25188,"kind":"restaurant","cuisine":"vietnamese"},{"name":"Pho Ao Sen","lat":37.79013,"lng":-122.2494,"kind":"restaurant","cuisine":"vietnamese"},{"name":"Phở Hòa Lāo","lat":37.79405,"lng":-122.25174,"kind":"restaurant","cuisine":"vietnamese"},{"name":"Cafe Phuong Nam","lat":37.79324,"lng":-122.25123,"kind":"restaurant","cuisine":"vietnamese"},{"name":"Banh Mi Ba Le","lat":37.78623,"lng":-122.24094,"kind":"restaurant","cuisine":"vietnamese"},{"name":"Lemon Pepper Vietnamese Cuisine","lat":37.79083,"lng":-122.24978,"kind":"restaurant","cuisine":"vietnamese"},{"name":"KiNgKoNg Rotisserie","lat":37.79282,"lng":-122.25077,"kind":"restaurant","cuisine":"chinese"},{"name":"Comal Next Door","lat":37.80904,"lng":-122.25044,"kind":"restaurant","cuisine":"mexican"},{"name":"House of Curries","lat":37.80861,"lng":-122.25424,"kind":"restaurant","cuisine":"indian"},{"name":"Grand Avenue Thai Cuisine","lat":37.80901,"lng":-122.25457,"kind":"restaurant","cuisine":"thai"},{"name":"Aqua Fresh Fish and Chips","lat":37.74146,"lng":-122.15023,"kind":"restaurant","cuisine":"seafood"},{"name":"Red Pepper Pizza","lat":37.7397,"lng":-122.14585,"kind":"restaurant","cuisine":"pizza"},{"name":"Oriental Tea House","lat":37.73863,"lng":-122.14353,"kind":"restaurant","cuisine":"chinese"},{"name":"Golondrinas Mexican Grill","lat":37.78862,"lng":-122.19628,"kind":"restaurant","cuisine":"mexican"},{"name":"China Gourmet Express","lat":37.79944,"lng":-122.2167,"kind":"restaurant","cuisine":"chinese"},{"name":"Starbucks","lat":37.71481,"lng":-122.14175,"kind":"cafe","cuisine":"coffee shop"},{"name":"Rayman's Nudough","lat":37.8003,"lng":-122.21642,"kind":"restaurant","cuisine":"vietnamese"},{"name":"Cholita Linda","lat":37.83618,"lng":-122.26278,"kind":"restaurant","cuisine":"latin american"},{"name":"Koryo","lat":37.8321,"lng":-122.2631,"kind":"restaurant","cuisine":"sushi"},{"name":"FOB Kitchen","lat":37.83768,"lng":-122.26288,"kind":"restaurant","cuisine":"filipino"},{"name":"Johnny's","lat":37.84062,"lng":-122.26472,"kind":"restaurant","cuisine":"asian"},{"name":"Itani Ramen","lat":37.80747,"lng":-122.26994,"kind":"restaurant","cuisine":"ramen"},{"name":"Hanshin Pocha","lat":37.83533,"lng":-122.26303,"kind":"restaurant","cuisine":"korean"},{"name":"Taava Kitchen","lat":37.81335,"lng":-122.26442,"kind":"restaurant","cuisine":"indian"},{"name":"Peet's Coffee","lat":37.85871,"lng":-122.24411,"kind":"cafe","cuisine":"coffee shop"},{"name":"Chengdu Style Restaurant","lat":37.86869,"lng":-122.25667,"kind":"restaurant","cuisine":"chinese"},{"name":"Tacos Sinaloa 2","lat":37.77671,"lng":-122.2266,"kind":"restaurant","cuisine":"mexican"},{"name":"Ben's","lat":37.79623,"lng":-122.27425,"kind":"restaurant","cuisine":"chinese"},{"name":"Enoteca Molinari","lat":37.84192,"lng":-122.25138,"kind":"restaurant","cuisine":"italian"},{"name":"5 Tacos & Beers","lat":37.85797,"lng":-122.2533,"kind":"restaurant","cuisine":"tacos"},{"name":"King Yen","lat":37.85625,"lng":-122.25285,"kind":"restaurant","cuisine":"chinese"},{"name":"Falafel Boy","lat":37.80763,"lng":-122.26743,"kind":"restaurant","cuisine":"kebab"},{"name":"Mun-cheeze","lat":37.8051,"lng":-122.2757,"kind":"restaurant","cuisine":"pizza"},{"name":"Anchalee","lat":37.86093,"lng":-122.28989,"kind":"restaurant","cuisine":"thai"},{"name":"Vault Cafe","lat":37.84956,"lng":-122.27147,"kind":"restaurant","cuisine":"american"},{"name":"Caffe Chiave","lat":37.86095,"lng":-122.28976,"kind":"cafe","cuisine":"coffee shop"},{"name":"Thai Basil","lat":37.86831,"lng":-122.25812,"kind":"restaurant","cuisine":"thai"},{"name":"Cafe Durant","lat":37.86813,"lng":-122.2583,"kind":"restaurant","cuisine":"mexican"},{"name":"La Bonita Taqueria","lat":37.81098,"lng":-122.26656,"kind":"restaurant","cuisine":"mexican"},{"name":"Sandwicheez Burger","lat":37.81091,"lng":-122.26641,"kind":"restaurant","cuisine":"burger"},{"name":"Kinfolx","lat":37.8095,"lng":-122.26985,"kind":"cafe","cuisine":"coffee shop"},{"name":"Agave Uptown","lat":37.81077,"lng":-122.2669,"kind":"restaurant","cuisine":"mexican"},{"name":"Shirasoni","lat":37.78722,"lng":-122.27909,"kind":"restaurant","cuisine":"sushi"},{"name":"Starbucks","lat":37.78562,"lng":-122.28083,"kind":"cafe","cuisine":"coffee shop"},{"name":"Ono Hawaiian BBQ","lat":37.78685,"lng":-122.28081,"kind":"restaurant","cuisine":"barbecue"},{"name":"Levy's Bagels","lat":37.77949,"lng":-122.27545,"kind":"restaurant","cuisine":"bagel"},{"name":"Starbucks","lat":37.77949,"lng":-122.27561,"kind":"cafe","cuisine":"coffee shop"},{"name":"Starbucks","lat":37.78866,"lng":-122.28003,"kind":"cafe","cuisine":"coffee shop"},{"name":"Blind Tiger","lat":37.81565,"lng":-122.26762,"kind":"restaurant","cuisine":"korean"},{"name":"Khatan Sushi","lat":37.80358,"lng":-122.26888,"kind":"restaurant","cuisine":"sushi"},{"name":"Ma'Adi Selam","lat":37.84492,"lng":-122.26148,"kind":"restaurant","cuisine":"ethiopian"},{"name":"Ginger Indian Cuisine","lat":37.85076,"lng":-122.26065,"kind":"restaurant","cuisine":"indian"},{"name":"Mujiri","lat":37.84823,"lng":-122.28564,"kind":"restaurant","cuisine":"sushi"},{"name":"Dek Doi Cafe","lat":37.82681,"lng":-122.25211,"kind":"cafe","cuisine":"thai"},{"name":"Baja on Piedmont","lat":37.8262,"lng":-122.25249,"kind":"restaurant","cuisine":"mexican"},{"name":"Philomena","lat":37.79208,"lng":-122.24281,"kind":"restaurant","cuisine":"pizza"},{"name":"Mountain Mike's","lat":37.80663,"lng":-122.26653,"kind":"restaurant","cuisine":"pizza"},{"name":"Samurai Sushi Boat","lat":37.81329,"lng":-122.24657,"kind":"restaurant","cuisine":"sushi"},{"name":"Qi Dumpling Lounge","lat":37.81274,"lng":-122.24693,"kind":"restaurant","cuisine":"chinese"},{"name":"Almond & Oak","lat":37.81304,"lng":-122.24727,"kind":"restaurant","cuisine":"american"},{"name":"Yang Chow Restaurant","lat":37.81206,"lng":-122.24783,"kind":"restaurant","cuisine":"chinese"},{"name":"Shogun","lat":37.81414,"lng":-122.24656,"kind":"restaurant","cuisine":"sushi"},{"name":"The Mix","lat":37.81338,"lng":-122.24655,"kind":"cafe","cuisine":"bubble tea"},{"name":"Tada Ramen & Yakitori","lat":37.81407,"lng":-122.24659,"kind":"restaurant","cuisine":"ramen"},{"name":"Admas","lat":37.79985,"lng":-122.24973,"kind":"restaurant","cuisine":"ethiopian"},{"name":"Rockridge Cafe","lat":37.84223,"lng":-122.2514,"kind":"cafe","cuisine":"breakfast"},{"name":"A16","lat":37.83937,"lng":-122.2512,"kind":"restaurant","cuisine":"italian"},{"name":"Judoku Sushi","lat":37.8388,"lng":-122.2515,"kind":"restaurant","cuisine":"japanese"},{"name":"The Burrito Shop","lat":37.83954,"lng":-122.25149,"kind":"restaurant","cuisine":"mexican"},{"name":"Pucquio","lat":37.83896,"lng":-122.25149,"kind":"restaurant","cuisine":"peruvian"},{"name":"À Côté","lat":37.84203,"lng":-122.2514,"kind":"restaurant","cuisine":"mediterranean"},{"name":"Im Moment Kaffee","lat":37.83693,"lng":-122.25114,"kind":"cafe","cuisine":"coffee shop"},{"name":"Marufuku Ramen","lat":37.83509,"lng":-122.26266,"kind":"restaurant","cuisine":"ramen"},{"name":"T4 Tea For U","lat":37.80108,"lng":-122.27006,"kind":"cafe","cuisine":"bubble tea"},{"name":"Cinco Taco Bar","lat":37.70089,"lng":-122.12839,"kind":"restaurant","cuisine":"mexican"},{"name":"Bare Knuckle Pizza","lat":37.80196,"lng":-122.26988,"kind":"restaurant","cuisine":"pizza"},{"name":"Breads of India","lat":37.86238,"lng":-122.28136,"kind":"restaurant","cuisine":"indian"},{"name":"Rainbow Donuts","lat":37.86869,"lng":-122.29178,"kind":"cafe","cuisine":"donut"},{"name":"Starbucks","lat":37.73188,"lng":-122.13977,"kind":"cafe","cuisine":"coffee shop"},{"name":"Boulevard Burger","lat":37.73327,"lng":-122.14007,"kind":"restaurant","cuisine":"burger"},{"name":"China Moon","lat":37.86008,"lng":-122.12573,"kind":"restaurant","cuisine":"chinese"},{"name":"Happy Donuts","lat":37.88054,"lng":-122.29639,"kind":"cafe","cuisine":"donut"},{"name":"Tastee Steam Kitchen","lat":37.80099,"lng":-122.26966,"kind":"restaurant","cuisine":"hotpot"},{"name":"Lanesplitter Pizza","lat":37.82807,"lng":-122.27914,"kind":"restaurant","cuisine":"pizza"},{"name":"Wahpepah's Kitchen","lat":37.77545,"lng":-122.22467,"kind":"restaurant","cuisine":"native american"},{"name":"Joodooboo","lat":37.83252,"lng":-122.27372,"kind":"restaurant","cuisine":"korean"},{"name":"New Delhi Bistro","lat":37.85841,"lng":-122.1258,"kind":"restaurant","cuisine":"indian"},{"name":"Mountain Mike's","lat":37.85816,"lng":-122.12589,"kind":"restaurant","cuisine":"pizza"},{"name":"Picante","lat":37.87809,"lng":-122.30112,"kind":"restaurant","cuisine":"mexican"},{"name":"Wiki Wiki Hawaiian BBQ","lat":37.86547,"lng":-122.26722,"kind":"restaurant","cuisine":"asian"},{"name":"Sushi Fighter","lat":37.86043,"lng":-122.12666,"kind":"restaurant","cuisine":"sushi"},{"name":"Amoroma","lat":37.86038,"lng":-122.12651,"kind":"restaurant","cuisine":"italian"},{"name":"Musashi","lat":37.864,"lng":-122.26644,"kind":"restaurant","cuisine":"japanese"},{"name":"Hunan Yuan","lat":37.79785,"lng":-122.18223,"kind":"restaurant","cuisine":"chinese"},{"name":"The Berkeley Boathouse","lat":37.86833,"lng":-122.31435,"kind":"restaurant","cuisine":"seafood"},{"name":"El Mono","lat":37.87873,"lng":-122.30363,"kind":"restaurant","cuisine":"peruvian"},{"name":"Hidden Spot","lat":37.83151,"lng":-122.27799,"kind":"restaurant","cuisine":"american"},{"name":"Proposition Chicken","lat":37.81042,"lng":-122.24447,"kind":"restaurant","cuisine":"chicken"},{"name":"Mehak","lat":37.86243,"lng":-122.28094,"kind":"restaurant","cuisine":"indian"},{"name":"84 Viet","lat":37.87283,"lng":-122.26892,"kind":"restaurant","cuisine":"vietnamese"},{"name":"LY-Luck Restaurant","lat":37.80101,"lng":-122.21605,"kind":"restaurant","cuisine":"chinese"},{"name":"Hesher's Pizza & Tap House","lat":37.79635,"lng":-122.27589,"kind":"restaurant","cuisine":"pizza"},{"name":"Blue Nile","lat":37.80181,"lng":-122.26441,"kind":"restaurant","cuisine":"ethiopian"},{"name":"Seoul Gom Tang","lat":37.82681,"lng":-122.26535,"kind":"restaurant","cuisine":"korean"},{"name":"MLK Restaurant & Full Bar","lat":37.82847,"lng":-122.26859,"kind":"restaurant","cuisine":"ethiopian"},{"name":"Equator Coffees & Teas","lat":37.8122,"lng":-122.26114,"kind":"cafe","cuisine":"coffee shop"},{"name":"Parche","lat":37.81192,"lng":-122.2667,"kind":"restaurant","cuisine":"colombian"},{"name":"Timeless Coffee","lat":37.82823,"lng":-122.2498,"kind":"cafe","cuisine":"coffee shop"},{"name":"Cajun Claws Seafood Boil House","lat":37.8093,"lng":-122.26986,"kind":"restaurant","cuisine":"cajun"},{"name":"Hui Lau Shan","lat":37.8682,"lng":-122.26623,"kind":"cafe","cuisine":"dessert"},{"name":"East Ocean Seafood Restaurant","lat":37.77667,"lng":-122.27687,"kind":"restaurant","cuisine":"chinese"},{"name":"Laughing Buddha","lat":37.82341,"lng":-122.25615,"kind":"restaurant","cuisine":"chinese"},{"name":"Maya Halal Taqueria","lat":37.80345,"lng":-122.26858,"kind":"restaurant","cuisine":"mexican"},{"name":"Biryani Tika Kabab","lat":37.80332,"lng":-122.26825,"kind":"restaurant","cuisine":"pakistani"},{"name":"Pyeong Chang Tofu","lat":37.8699,"lng":-122.2875,"kind":"restaurant","cuisine":"korean"},{"name":"Blue Bottle Coffee","lat":37.82584,"lng":-122.25338,"kind":"cafe","cuisine":"coffee shop"},{"name":"Pizza Amigos","lat":37.83653,"lng":-122.27607,"kind":"restaurant","cuisine":"pizza"},{"name":"Monster Phở","lat":37.82828,"lng":-122.25795,"kind":"restaurant","cuisine":"vietnamese"},{"name":"Teni East Kitchen","lat":37.82794,"lng":-122.25668,"kind":"restaurant","cuisine":"burmese"},{"name":"Peet's Coffee","lat":37.87897,"lng":-122.26982,"kind":"cafe","cuisine":"coffee shop"},{"name":"Café Parisien","lat":37.87731,"lng":-122.26878,"kind":"cafe","cuisine":"coffee shop"},{"name":"YOKEE","lat":37.8066,"lng":-122.26808,"kind":"cafe","cuisine":"bubble tea"},{"name":"JP Seoul Tofu House","lat":37.70214,"lng":-122.14182,"kind":"restaurant","cuisine":"korean"},{"name":"Thai Taste Kitchen","lat":37.82405,"lng":-122.25534,"kind":"restaurant","cuisine":"thai"},{"name":"Creekwood","lat":37.85094,"lng":-122.27824,"kind":"restaurant","cuisine":"italian"},{"name":"Italian Homemade Company","lat":37.85819,"lng":-122.25304,"kind":"restaurant","cuisine":"italian"},{"name":"Xiang Yuan Xiao Long Bao","lat":37.72251,"lng":-122.15228,"kind":"restaurant","cuisine":"chinese"},{"name":"Pho King","lat":37.79975,"lng":-122.25358,"kind":"restaurant","cuisine":"vietnamese"},{"name":"A+ Burger","lat":37.84844,"lng":-122.26053,"kind":"restaurant","cuisine":"burger"},{"name":"Royal Kitchen","lat":37.72981,"lng":-122.19447,"kind":"restaurant","cuisine":"indian"},{"name":"Sana'a Cafe","lat":37.72993,"lng":-122.19424,"kind":"cafe","cuisine":"yemeni"},{"name":"1951 Coffee Company","lat":37.86659,"lng":-122.26001,"kind":"cafe","cuisine":"coffee shop"},{"name":"Zacatecas","lat":37.7476,"lng":-122.15721,"kind":"restaurant","cuisine":"mexican"},{"name":"Oaklandish Coffee Collective","lat":37.71187,"lng":-122.21466,"kind":"cafe","cuisine":"coffee shop"},{"name":"Peet's Coffee","lat":37.70988,"lng":-122.21196,"kind":"cafe","cuisine":"coffee shop"},{"name":"Cancun Sabor Mexicano","lat":37.71132,"lng":-122.21589,"kind":"restaurant","cuisine":"mexican"},{"name":"Calavera","lat":37.70957,"lng":-122.21239,"kind":"restaurant","cuisine":"mexican"},{"name":"A16 Pizzeria","lat":37.71114,"lng":-122.21576,"kind":"restaurant","cuisine":"pizza"},{"name":"Farmhouse Kitchen","lat":37.79417,"lng":-122.27556,"kind":"restaurant","cuisine":"thai"},{"name":"Fortune Cookie","lat":37.80676,"lng":-122.30068,"kind":"restaurant","cuisine":"chinese"},{"name":"Romeo's Coffee","lat":37.86526,"lng":-122.25834,"kind":"cafe","cuisine":"coffee shop"},{"name":"Al Maida Hot Food and Market","lat":37.84101,"lng":-122.27413,"kind":"restaurant","cuisine":"pakistani"},{"name":"Kainbigan","lat":37.79403,"lng":-122.24005,"kind":"restaurant","cuisine":"filipino"},{"name":"Saysetha Thai Cuisine","lat":37.84857,"lng":-122.26054,"kind":"restaurant","cuisine":"thai"},{"name":"Me Va Con","lat":37.84749,"lng":-122.26113,"kind":"restaurant","cuisine":"vietnamese"},{"name":"Boba Binge","lat":37.81109,"lng":-122.26663,"kind":"cafe","cuisine":"bubble tea"},{"name":"Kendejah","lat":37.72263,"lng":-122.15474,"kind":"restaurant","cuisine":"african"},{"name":"Kimchi Garden","lat":37.86808,"lng":-122.25821,"kind":"restaurant","cuisine":"korean"},{"name":"Little Gem Belgian Waffles","lat":37.86562,"lng":-122.25869,"kind":"restaurant","cuisine":"waffle"},{"name":"Dream Fluff Donuts","lat":37.85715,"lng":-122.25339,"kind":"cafe","cuisine":"donut"},{"name":"Starbucks","lat":37.82586,"lng":-122.20935,"kind":"cafe","cuisine":"coffee shop"},{"name":"Oh G Burger","lat":37.82636,"lng":-122.20912,"kind":"restaurant","cuisine":"burger"},{"name":"United Dumplings","lat":37.85008,"lng":-122.2525,"kind":"restaurant","cuisine":"chinese"},{"name":"Lotus Leaf","lat":37.72156,"lng":-122.15539,"kind":"restaurant","cuisine":"vietnamese"},{"name":"Peet's Coffee","lat":37.72348,"lng":-122.15352,"kind":"cafe","cuisine":"coffee shop"},{"name":"Long Life Vegi House","lat":37.87128,"lng":-122.27667,"kind":"restaurant","cuisine":"chinese"},{"name":"Barcote","lat":37.85087,"lng":-122.26015,"kind":"restaurant","cuisine":"ethiopian"},{"name":"Spoon Korean Bistro","lat":37.85162,"lng":-122.28991,"kind":"restaurant","cuisine":"korean"},{"name":"Daol tofu","lat":37.83171,"lng":-122.26403,"kind":"restaurant","cuisine":"korean"},{"name":"Artichoke basille's pizza","lat":37.83494,"lng":-122.26315,"kind":"restaurant","cuisine":"pizza"},{"name":"Mountain Mike's","lat":37.83573,"lng":-122.26224,"kind":"restaurant","cuisine":"pizza"},{"name":"Mugunghwa","lat":37.8319,"lng":-122.26399,"kind":"restaurant","cuisine":"korean"},{"name":"Smokin Woods BBQ","lat":37.83182,"lng":-122.26401,"kind":"restaurant","cuisine":"southern"},{"name":"Round Table Pizza","lat":37.83686,"lng":-122.26362,"kind":"restaurant","cuisine":"pizza"},{"name":"Poke Parlor","lat":37.86552,"lng":-122.25839,"kind":"restaurant","cuisine":"poke"},{"name":"Baja Cali Taqueria","lat":37.88191,"lng":-122.1877,"kind":"restaurant","cuisine":"mexican"},{"name":"Starbucks","lat":37.88435,"lng":-122.19161,"kind":"cafe","cuisine":"coffee shop"},{"name":"Niwa Sushi Bar","lat":37.88426,"lng":-122.19168,"kind":"restaurant","cuisine":"sushi"},{"name":"Zamboni's Pizza","lat":37.88417,"lng":-122.19177,"kind":"restaurant","cuisine":"pizza"},{"name":"Cafe Teatro","lat":37.88242,"lng":-122.18764,"kind":"cafe","cuisine":"sandwich"},{"name":"Village Inn Cafe","lat":37.8836,"lng":-122.19039,"kind":"restaurant","cuisine":"american"},{"name":"4 Dreams Nepali Indian Cuisine","lat":37.86526,"lng":-122.26722,"kind":"restaurant","cuisine":"indian"},{"name":"Yo Sushi","lat":37.8838,"lng":-122.29665,"kind":"restaurant","cuisine":"sushi"},{"name":"Taqueria Pericos","lat":37.72303,"lng":-122.1534,"kind":"restaurant","cuisine":"mexican"},{"name":"Indian Grill","lat":37.72205,"lng":-122.15385,"kind":"restaurant","cuisine":"indian"},{"name":"Casa Orinda","lat":37.8793,"lng":-122.18218,"kind":"restaurant","cuisine":"pizza"},{"name":"La Piazza","lat":37.8791,"lng":-122.18188,"kind":"restaurant","cuisine":"pizza"},{"name":"Sushi Island","lat":37.87907,"lng":-122.18181,"kind":"restaurant","cuisine":"japanese"},{"name":"Becky's","lat":37.84365,"lng":-122.25156,"kind":"restaurant","cuisine":"chinese"},{"name":"iTea","lat":37.72274,"lng":-122.15419,"kind":"cafe","cuisine":"asian"},{"name":"Hinodeya","lat":37.86842,"lng":-122.25897,"kind":"restaurant","cuisine":"japanese"},{"name":"Starbucks","lat":37.88431,"lng":-122.29783,"kind":"cafe","cuisine":"coffee shop"},{"name":"Tacos Oscar","lat":37.82864,"lng":-122.26025,"kind":"restaurant","cuisine":"tacos"},{"name":"Bangkok Thai Cuisine","lat":37.87038,"lng":-122.28345,"kind":"restaurant","cuisine":"thai"},{"name":"Wild Ginger","lat":37.76192,"lng":-122.24496,"kind":"restaurant","cuisine":"chinese"},{"name":"Funky Elephant","lat":37.87953,"lng":-122.2977,"kind":"restaurant","cuisine":"thai"},{"name":"Angry Fish Sushi","lat":37.69666,"lng":-122.11608,"kind":"restaurant","cuisine":"sushi"},{"name":"Ruth's Buka","lat":37.77277,"lng":-122.20176,"kind":"restaurant","cuisine":"nigerian"},{"name":"Xingones","lat":37.79512,"lng":-122.26915,"kind":"restaurant","cuisine":"mexican"},{"name":"Mama Oakland","lat":37.80901,"lng":-122.25451,"kind":"restaurant","cuisine":"italian"},{"name":"Helacio's Deli & Cafe","lat":37.86152,"lng":-122.28063,"kind":"cafe","cuisine":"sandwich"},{"name":"Noodles Fresh","lat":37.8652,"lng":-122.26783,"kind":"restaurant","cuisine":"chinese"},{"name":"Southie","lat":37.85058,"lng":-122.25255,"kind":"restaurant","cuisine":"american"},{"name":"Peet's Coffee","lat":37.79769,"lng":-122.18225,"kind":"cafe","cuisine":"coffee shop"},{"name":"Teni East Kitchen","lat":37.82345,"lng":-122.25584,"kind":"restaurant","cuisine":"burmese"},{"name":"Doña","lat":37.82354,"lng":-122.25594,"kind":"restaurant","cuisine":"mexican"},{"name":"Anja’s","lat":37.8716,"lng":-122.27139,"kind":"restaurant","cuisine":"salad"},{"name":"Elaichi","lat":37.8697,"lng":-122.26655,"kind":"cafe","cuisine":"tea"},{"name":"The Bootstrapper","lat":37.85629,"lng":-122.27989,"kind":"restaurant","cuisine":"burger"},{"name":"Super pho","lat":37.87764,"lng":-122.29517,"kind":"restaurant","cuisine":"vietnamese"},{"name":"Hayati Hookah","lat":37.87103,"lng":-122.27582,"kind":"cafe","cuisine":"hookah"},{"name":"West coast pizza","lat":37.87081,"lng":-122.27717,"kind":"restaurant","cuisine":"pizza"},{"name":"Aliberto's Jr. Mexican Food","lat":37.85675,"lng":-122.25994,"kind":"restaurant","cuisine":"taqueria"},{"name":"Mount Everest","lat":37.86335,"lng":-122.25896,"kind":"restaurant","cuisine":"nepalese"},{"name":"Pho k&k","lat":37.86441,"lng":-122.25836,"kind":"restaurant","cuisine":"vietnamese"},{"name":"Palm Açaí Cafe","lat":37.85656,"lng":-122.25288,"kind":"cafe","cuisine":"açaí"},{"name":"Manpuku","lat":37.85663,"lng":-122.25288,"kind":"restaurant","cuisine":"sushi"},{"name":"Imperial garden","lat":37.7404,"lng":-122.14721,"kind":"restaurant","cuisine":"chinese"},{"name":"D'yar","lat":37.86802,"lng":-122.25852,"kind":"restaurant","cuisine":"falafel"},{"name":"Organic Greens","lat":37.85786,"lng":-122.25301,"kind":"restaurant","cuisine":"salad"},{"name":"Curry Pizza House","lat":37.86728,"lng":-122.259,"kind":"restaurant","cuisine":"pizza"},{"name":"Yimm","lat":37.84909,"lng":-122.25204,"kind":"restaurant","cuisine":"japanese"},{"name":"Oken","lat":37.84953,"lng":-122.25201,"kind":"restaurant","cuisine":"fusion"},{"name":"Rare Tea","lat":37.8465,"lng":-122.25216,"kind":"cafe","cuisine":"bubble tea"},{"name":"Ohgane","lat":37.82727,"lng":-122.25716,"kind":"restaurant","cuisine":"korean"},{"name":"Sharetea","lat":37.86817,"lng":-122.25921,"kind":"cafe","cuisine":"bubble tea"},{"name":"Phosho Dough","lat":37.8521,"lng":-122.26046,"kind":"restaurant","cuisine":"vietnamese"},{"name":"Brenda's","lat":37.82835,"lng":-122.25644,"kind":"restaurant","cuisine":"creole"},{"name":"Souvenir Café","lat":37.85453,"lng":-122.24839,"kind":"cafe","cuisine":"coffee shop"},{"name":"Hashtag Poki","lat":37.85435,"lng":-122.25974,"kind":"restaurant","cuisine":"sushi"},{"name":"Noodle Dynasty","lat":37.86641,"lng":-122.2589,"kind":"restaurant","cuisine":"noodle"},{"name":"Chinese express","lat":37.86675,"lng":-122.2592,"kind":"restaurant","cuisine":"chinese"},{"name":"Holy Basil Pho","lat":37.83955,"lng":-122.25115,"kind":"restaurant","cuisine":"vietnamese"},{"name":"café bolita","lat":37.85712,"lng":-122.29178,"kind":"restaurant","cuisine":"mexican"},{"name":"RareTea","lat":37.86845,"lng":-122.26039,"kind":"cafe","cuisine":"bubble tea"},{"name":"Heads and Tails BBQ","lat":37.86743,"lng":-122.2913,"kind":"restaurant","cuisine":"barbecue"},{"name":"Noori Chicken","lat":37.80907,"lng":-122.25531,"kind":"restaurant","cuisine":"chicken"},{"name":"Califas Green","lat":37.86899,"lng":-122.29167,"kind":"restaurant","cuisine":"mexican"},{"name":"Passione","lat":37.86244,"lng":-122.29727,"kind":"restaurant","cuisine":"pizza"},{"name":"La Marcha","lat":37.86863,"lng":-122.29224,"kind":"restaurant","cuisine":"tapas"},{"name":"Espresso Roma","lat":37.88175,"lng":-122.28232,"kind":"cafe","cuisine":"coffee shop"},{"name":"Gold Bean Cafe","lat":37.87526,"lng":-122.25978,"kind":"cafe","cuisine":"coffee shop"},{"name":"Bangkok by the Bay","lat":37.85282,"lng":-122.29353,"kind":"restaurant","cuisine":"thai"},{"name":"TaMee Thai","lat":37.77963,"lng":-122.29098,"kind":"restaurant","cuisine":"thai"},{"name":"Thai House Barn","lat":37.76308,"lng":-122.24397,"kind":"restaurant","cuisine":"thai"},{"name":"Uchiwa Ramen","lat":37.83352,"lng":-122.29185,"kind":"restaurant","cuisine":"ramen"},{"name":"Iyasare","lat":37.86949,"lng":-122.30069,"kind":"restaurant","cuisine":"japanese"},{"name":"Desta","lat":37.81659,"lng":-122.25732,"kind":"restaurant","cuisine":"ethiopian"},{"name":"Kowloon Station 1","lat":37.77657,"lng":-122.27648,"kind":"restaurant","cuisine":"chinese"},{"name":"Kitchen of Alameda","lat":37.77708,"lng":-122.27682,"kind":"restaurant","cuisine":"chinese"},{"name":"Chef's Wok","lat":37.77786,"lng":-122.27687,"kind":"restaurant","cuisine":"chinese"},{"name":"The Star","lat":37.76426,"lng":-122.24259,"kind":"restaurant","cuisine":"pizza"},{"name":"Cholita linda","lat":37.76362,"lng":-122.24355,"kind":"restaurant","cuisine":"mexican"},{"name":"Chiang Mai Thai Noodle","lat":37.76281,"lng":-122.24421,"kind":"restaurant","cuisine":"thai"},{"name":"Lama Beans","lat":37.87948,"lng":-122.30159,"kind":"restaurant","cuisine":"international"},{"name":"Dinner House","lat":37.80309,"lng":-122.26842,"kind":"restaurant","cuisine":"american"},{"name":"The Posh Bagel","lat":37.82606,"lng":-122.2531,"kind":"cafe","cuisine":"bagel"},{"name":"Peet's Coffee","lat":37.82602,"lng":-122.25274,"kind":"cafe","cuisine":"coffee shop"},{"name":"Barney's","lat":37.82687,"lng":-122.25164,"kind":"restaurant","cuisine":"fast food"},{"name":"Glom Thai","lat":37.88113,"lng":-122.29582,"kind":"restaurant","cuisine":"thai"},{"name":"Phở le","lat":37.88042,"lng":-122.29558,"kind":"restaurant","cuisine":"vietnamese"},{"name":"Koja Kitchen","lat":37.78721,"lng":-122.28052,"kind":"restaurant","cuisine":"korean"},{"name":"Poke Salad","lat":37.78721,"lng":-122.28061,"kind":"restaurant","cuisine":"hawaiian"},{"name":"Raretea","lat":37.7872,"lng":-122.28001,"kind":"cafe","cuisine":"bubble tea"},{"name":"Boba Ninja","lat":37.86812,"lng":-122.2581,"kind":"cafe","cuisine":"bubble tea"},{"name":"Abigail Café & Deli","lat":37.76611,"lng":-122.28787,"kind":"restaurant","cuisine":"moroccan"},{"name":"Shewhat Cafe","lat":37.8467,"lng":-122.2656,"kind":"restaurant","cuisine":"ethiopian"},{"name":"Sliver Pizzeria","lat":37.83386,"lng":-122.24935,"kind":"restaurant","cuisine":"pizza"},{"name":"Timeless Coffee","lat":37.80575,"lng":-122.26711,"kind":"cafe","cuisine":"coffee shop"},{"name":"Kotobuki","lat":37.82652,"lng":-122.21027,"kind":"restaurant","cuisine":"japanese"},{"name":"Sideshow Kitchen","lat":37.8438,"lng":-122.2768,"kind":"restaurant","cuisine":"american"},{"name":"Paradita Eatery","lat":37.84141,"lng":-122.29376,"kind":"restaurant","cuisine":"peruvian"},{"name":"Shiba Ramen","lat":37.84122,"lng":-122.29398,"kind":"restaurant","cuisine":"ramen"},{"name":"Pizza My Heart","lat":37.87078,"lng":-122.25153,"kind":"restaurant","cuisine":"pizza"},{"name":"Peet's Coffee","lat":37.87013,"lng":-122.25013,"kind":"cafe","cuisine":"coffee shop"},{"name":"CoRo Coffee Room","lat":37.86251,"lng":-122.29728,"kind":"cafe","cuisine":"coffee shop"},{"name":"Starbucks","lat":37.8287,"lng":-122.28938,"kind":"cafe","cuisine":"coffee shop"},{"name":"J's Snacks and Tea","lat":37.87542,"lng":-122.25986,"kind":"cafe","cuisine":"bubble tea"},{"name":"The Melt","lat":37.81166,"lng":-122.2663,"kind":"restaurant","cuisine":"burger"},{"name":"Bread Winners","lat":37.80186,"lng":-122.27444,"kind":"restaurant","cuisine":"sandwich"},{"name":"Blue Bottle Coffee","lat":37.80126,"lng":-122.27394,"kind":"cafe","cuisine":"coffee shop"},{"name":"Binge Coffee House","lat":37.86781,"lng":-122.25777,"kind":"cafe","cuisine":"coffee shop"},{"name":"Yi Fang Tea","lat":37.86863,"lng":-122.2586,"kind":"cafe","cuisine":"bubble tea"},{"name":"Poké Bar","lat":37.86805,"lng":-122.25984,"kind":"restaurant","cuisine":"poke"},{"name":"Noody","lat":37.86796,"lng":-122.2599,"kind":"restaurant","cuisine":"noodle"},{"name":"KoStop","lat":37.86782,"lng":-122.2599,"kind":"restaurant","cuisine":"korean"},{"name":"Alameda Pizza","lat":37.77468,"lng":-122.27659,"kind":"restaurant","cuisine":"pizza"},{"name":"Dragon Village","lat":37.77505,"lng":-122.27718,"kind":"restaurant","cuisine":"chinese"},{"name":"Steve's Korean B.B.Q.","lat":37.86831,"lng":-122.25807,"kind":"restaurant","cuisine":"korean"},{"name":"Bears Ramen House","lat":37.86825,"lng":-122.25804,"kind":"restaurant","cuisine":"ramen"},{"name":"Katsumi Sushi","lat":37.86821,"lng":-122.25803,"kind":"restaurant","cuisine":"sushi"},{"name":"Nunu's Cafe","lat":37.81348,"lng":-122.29017,"kind":"cafe","cuisine":"coffee shop"},{"name":"Rio California","lat":37.80573,"lng":-122.27739,"kind":"cafe","cuisine":"brazilian"},{"name":"Wescafe","lat":37.77393,"lng":-122.27659,"kind":"restaurant","cuisine":"coffee shop"},{"name":"Middle East Café","lat":37.86822,"lng":-122.29208,"kind":"restaurant","cuisine":"persian"},{"name":"Paddington Cafe","lat":37.82828,"lng":-122.21046,"kind":"cafe","cuisine":"coffee shop"},{"name":"Noor Indian Fusion Kitchen","lat":37.86993,"lng":-122.28441,"kind":"restaurant","cuisine":"indian"},{"name":"Mela Bistro","lat":37.8113,"lng":-122.26595,"kind":"restaurant","cuisine":"ethiopian"},{"name":"Catastrophe Pizza","lat":37.83371,"lng":-122.26762,"kind":"restaurant","cuisine":"pizza"},{"name":"Gallego's","lat":37.86616,"lng":-122.29145,"kind":"restaurant","cuisine":"mexican"},{"name":"Mensho","lat":37.82831,"lng":-122.24969,"kind":"restaurant","cuisine":"ramen"},{"name":"Chef Yu Chinese Restaurant","lat":37.83543,"lng":-122.263,"kind":"restaurant","cuisine":"chinese"},{"name":"Cafenated Coffee Co.","lat":37.88026,"lng":-122.26989,"kind":"cafe","cuisine":"coffee shop"},{"name":"Jolly Cafe","lat":37.80071,"lng":-122.27071,"kind":"cafe","cuisine":"vietnamese"},{"name":"Chicha San Chen","lat":37.86833,"lng":-122.26129,"kind":"cafe","cuisine":"bubble tea"},{"name":"Coffee Hut","lat":37.86986,"lng":-122.26816,"kind":"cafe","cuisine":"coffee shop"},{"name":"Moussaka","lat":37.73345,"lng":-122.15114,"kind":"restaurant","cuisine":"mediterranean"},{"name":"Zocalo","lat":37.73322,"lng":-122.15094,"kind":"cafe","cuisine":"coffee shop"},{"name":"Paradiso","lat":37.73301,"lng":-122.15083,"kind":"restaurant","cuisine":"italian"},{"name":"Highwire Coffee Roasters","lat":37.76162,"lng":-122.24482,"kind":"cafe","cuisine":"coffee shop"},{"name":"UC Dessert","lat":37.80044,"lng":-122.27184,"kind":"restaurant","cuisine":"dessert"},{"name":"La Penca Azul","lat":37.7377,"lng":-122.24077,"kind":"restaurant","cuisine":"mexican"},{"name":"Pacific Lighthouse Restaurant","lat":37.78378,"lng":-122.26548,"kind":"restaurant","cuisine":"chinese"},{"name":"Los Cantaros Restaurant And Taqueria","lat":37.80918,"lng":-122.25655,"kind":"restaurant","cuisine":"mexican"},{"name":"Belly","lat":37.84374,"lng":-122.25158,"kind":"restaurant","cuisine":"mexican"},{"name":"Pennini's","lat":37.83608,"lng":-122.12808,"kind":"restaurant","cuisine":"italian"},{"name":"Flower Lounge Restaurant","lat":37.80069,"lng":-122.21791,"kind":"restaurant","cuisine":"chinese"},{"name":"La Hacienda","lat":37.80066,"lng":-122.21779,"kind":"restaurant","cuisine":"mexican"},{"name":"Tanzie's Chiang Mai Thai Brunch","lat":37.86224,"lng":-122.28155,"kind":"restaurant","cuisine":"thai"},{"name":"Starbucks","lat":37.73596,"lng":-122.23908,"kind":"cafe","cuisine":"coffee shop"},{"name":"Todos Cantina + Cocina","lat":37.81195,"lng":-122.2643,"kind":"restaurant","cuisine":"mexican"},{"name":"Dumpling time","lat":37.87039,"lng":-122.30051,"kind":"restaurant","cuisine":"asian"},{"name":"Bansho Ramen","lat":37.86491,"lng":-122.2588,"kind":"restaurant","cuisine":"ramen"},{"name":"Jaji","lat":37.81355,"lng":-122.26578,"kind":"restaurant","cuisine":"afghan"},{"name":"El Talpense Mexican","lat":37.87555,"lng":-122.26012,"kind":"restaurant","cuisine":"mexican"},{"name":"Taiwan Professional Tea","lat":37.86722,"lng":-122.25872,"kind":"cafe","cuisine":"bubble tea"},{"name":"One Milk Tea","lat":37.79839,"lng":-122.27173,"kind":"cafe","cuisine":"bubble tea"},{"name":"Bloom","lat":37.80936,"lng":-122.27311,"kind":"restaurant","cuisine":"pizza"},{"name":"Minto's","lat":37.80508,"lng":-122.26974,"kind":"restaurant","cuisine":"jamaican"},{"name":"Yonsei Handrolls","lat":37.80754,"lng":-122.26992,"kind":"restaurant","cuisine":"sushi"},{"name":"Waki","lat":37.77161,"lng":-122.27704,"kind":"restaurant","cuisine":"sushi"},{"name":"Up 2U Thai Eatery","lat":37.77168,"lng":-122.27705,"kind":"restaurant","cuisine":"thai"},{"name":"Racha Cafe","lat":37.86467,"lng":-122.25872,"kind":"restaurant","cuisine":"thai"},{"name":"Gangnam Jajang","lat":37.83208,"lng":-122.26345,"kind":"restaurant","cuisine":"korean"},{"name":"Moo Bong Ri","lat":37.83221,"lng":-122.26292,"kind":"restaurant","cuisine":"korean"},{"name":"To The Moon","lat":37.83199,"lng":-122.26348,"kind":"restaurant","cuisine":"korean"},{"name":"Mr. Green Bubble","lat":37.82895,"lng":-122.24932,"kind":"cafe","cuisine":"bubble tea"},{"name":"Heytea","lat":37.87091,"lng":-122.26797,"kind":"cafe","cuisine":"bubble tea"},{"name":"Pizzeria Da Laura","lat":37.87132,"lng":-122.26809,"kind":"restaurant","cuisine":"pizza"},{"name":"Mama's Boy","lat":37.81132,"lng":-122.26635,"kind":"restaurant","cuisine":"pizza"},{"name":"TGI Oni Sushi","lat":37.82618,"lng":-122.2103,"kind":"restaurant","cuisine":"sushi"},{"name":"El Agavero Restaurant and Bar","lat":37.82614,"lng":-122.20953,"kind":"restaurant","cuisine":"mexican"},{"name":"Taqueria Las Comadres","lat":37.8259,"lng":-122.20961,"kind":"restaurant","cuisine":"mexican"},{"name":"Meet Fresh","lat":37.79954,"lng":-122.27169,"kind":"restaurant","cuisine":"taiwanese"},{"name":"Bad Barista","lat":37.75621,"lng":-122.23333,"kind":"cafe","cuisine":"coffee shop"},{"name":"Sidestreet Pho","lat":37.76285,"lng":-122.24525,"kind":"restaurant","cuisine":"noodle"},{"name":"Gong Cha","lat":37.76555,"lng":-122.24194,"kind":"cafe","cuisine":"bubble tea"},{"name":"Happy Lemon","lat":37.76569,"lng":-122.24232,"kind":"cafe","cuisine":"bubble tea"},{"name":"iTea","lat":37.76731,"lng":-122.23993,"kind":"cafe","cuisine":"bubble tea"},{"name":"Piedmont Cafe & Bakery","lat":37.82606,"lng":-122.25268,"kind":"cafe","cuisine":"american"},{"name":"Burma Bites","lat":37.836,"lng":-122.26283,"kind":"restaurant","cuisine":"asian"},{"name":"Pizza Ponte","lat":37.83608,"lng":-122.26281,"kind":"restaurant","cuisine":"pizza"},{"name":"Daruma Sushi","lat":37.86593,"lng":-122.29085,"kind":"restaurant","cuisine":"sushi"},{"name":"Dessert Cafe","lat":37.85577,"lng":-122.26645,"kind":"restaurant","cuisine":"dessert"},{"name":"Co Nam","lat":37.82896,"lng":-122.26432,"kind":"restaurant","cuisine":"vietnamese"},{"name":"K Banchan","lat":37.82953,"lng":-122.26456,"kind":"restaurant","cuisine":"korean"},{"name":"Cafe Eritrea d' Afrique","lat":37.82978,"lng":-122.26449,"kind":"restaurant","cuisine":"ethiopian"},{"name":"9jagrills","lat":37.79709,"lng":-122.27596,"kind":"restaurant","cuisine":"nigerian"},{"name":"Dumpling Kitchen","lat":37.86804,"lng":-122.25833,"kind":"restaurant","cuisine":"chinese"},{"name":"Purple Kow","lat":37.86685,"lng":-122.25825,"kind":"cafe","cuisine":"bubble tea"},{"name":"Plentea","lat":37.86756,"lng":-122.25964,"kind":"cafe","cuisine":"bubble tea"},{"name":"Ming's Tasty Restaurant","lat":37.80044,"lng":-122.27046,"kind":"restaurant","cuisine":"chinese"},{"name":"WAWA Thai Food","lat":37.79711,"lng":-122.20475,"kind":"restaurant","cuisine":"thai"},{"name":"Swahili Spot","lat":37.81122,"lng":-122.29427,"kind":"restaurant","cuisine":"tanzanian"},{"name":"Oakland Draft House","lat":37.70947,"lng":-122.21227,"kind":"restaurant","cuisine":"american"},{"name":"Slice House","lat":37.72201,"lng":-122.15347,"kind":"restaurant","cuisine":"pizza"},{"name":"Mel's Diner","lat":37.70543,"lng":-122.13032,"kind":"restaurant","cuisine":"diner"},{"name":"Asia Delight","lat":37.72379,"lng":-122.15518,"kind":"restaurant","cuisine":"chinese"},{"name":"Sons of Liberty","lat":37.72377,"lng":-122.1553,"kind":"restaurant","cuisine":"american"},{"name":"85°C","lat":37.72474,"lng":-122.15693,"kind":"cafe","cuisine":"coffee shop"},{"name":"Bonchon Chicken","lat":37.72481,"lng":-122.1573,"kind":"restaurant","cuisine":"chicken"},{"name":"Rocky's Charcoal Grill","lat":37.72444,"lng":-122.15766,"kind":"restaurant","cuisine":"american"},{"name":"Beijing Bowl","lat":37.70149,"lng":-122.14044,"kind":"restaurant","cuisine":"chinese"},{"name":"La Crêpe à moi","lat":37.87542,"lng":-122.26036,"kind":"cafe","cuisine":"crepe"},{"name":"SoDoI Coffee Tasting House","lat":37.86721,"lng":-122.25948,"kind":"cafe","cuisine":"coffee shop"},{"name":"Signal","lat":37.87031,"lng":-122.26704,"kind":"cafe","cuisine":"coffee shop"},{"name":"Sizzling Lunch","lat":37.87247,"lng":-122.26822,"kind":"restaurant","cuisine":"japanese"},{"name":"Pho Nation","lat":37.76575,"lng":-122.24175,"kind":"restaurant","cuisine":"vietnamese"},{"name":"DesiLicious","lat":37.80568,"lng":-122.27429,"kind":"restaurant","cuisine":"pakistani"},{"name":"Delage","lat":37.80168,"lng":-122.27498,"kind":"restaurant","cuisine":"sushi"},{"name":"Belotti Bottega","lat":37.82587,"lng":-122.25335,"kind":"restaurant","cuisine":"italian"},{"name":"Rico Rico Vegano","lat":37.81045,"lng":-122.24634,"kind":"restaurant","cuisine":"mexican"},{"name":"KoKoLo Donburi","lat":37.76575,"lng":-122.24135,"kind":"restaurant","cuisine":"japanese"},{"name":"El Trompudo","lat":37.86522,"lng":-122.25904,"kind":"restaurant","cuisine":"mexican"},{"name":"Pho Nation Express","lat":37.76558,"lng":-122.24211,"kind":"restaurant","cuisine":"vietnamese"},{"name":"Speisekammer","lat":37.76606,"lng":-122.24011,"kind":"restaurant","cuisine":"german"},{"name":"Happy Lemon","lat":37.8277,"lng":-122.25054,"kind":"cafe","cuisine":"bubble tea"},{"name":"Monsoon","lat":37.82772,"lng":-122.25049,"kind":"restaurant","cuisine":"vietnamese"},{"name":"Diggery Inn","lat":37.80721,"lng":-122.22232,"kind":"restaurant","cuisine":"breakfast"},{"name":"Round Table Pizza","lat":37.78684,"lng":-122.27995,"kind":"restaurant","cuisine":"pizza"},{"name":"Aria Super Market & Bakery","lat":37.77477,"lng":-122.27695,"kind":"cafe","cuisine":"coffee shop"},{"name":"Phnom Penh House Restaurant","lat":37.77386,"lng":-122.2766,"kind":"restaurant","cuisine":"cambodian"},{"name":"Ala Mediterranean Grill & Mezzes","lat":37.77364,"lng":-122.27661,"kind":"restaurant","cuisine":"mediterranean"},{"name":"Cafe Jolie","lat":37.77349,"lng":-122.2766,"kind":"restaurant","cuisine":"breakfast"},{"name":"Oori Triangles Piedmont","lat":37.82617,"lng":-122.25254,"kind":"restaurant","cuisine":"japanese"},{"name":"City Center Pizzeria","lat":37.8037,"lng":-122.27283,"kind":"restaurant","cuisine":"pizza"},{"name":"Milyar Cafe","lat":37.84857,"lng":-122.27185,"kind":"cafe","cuisine":"coffee shop"},{"name":"Peet's Coffee","lat":37.71101,"lng":-122.21612,"kind":"cafe","cuisine":"coffee shop"},{"name":"Ono Hawaiian BBQ","lat":37.77491,"lng":-122.2314,"kind":"restaurant","cuisine":"barbecue"},{"name":"Horn Barbecue","lat":37.80053,"lng":-122.27421,"kind":"restaurant","cuisine":"barbecue"},{"name":"Farmhouse Kitchen","lat":37.87859,"lng":-122.26887,"kind":"restaurant","cuisine":"thai"},{"name":"Sol Taqueria","lat":37.87955,"lng":-122.29525,"kind":"restaurant","cuisine":"american"},{"name":"Kuidaore Handroll Bar","lat":37.79436,"lng":-122.2767,"kind":"restaurant","cuisine":"sushi"},{"name":"Dove’s Donut—The Vegan Cafe","lat":37.79887,"lng":-122.25087,"kind":"cafe","cuisine":"coffee shop"},{"name":"Genji","lat":37.80741,"lng":-122.26758,"kind":"restaurant","cuisine":"japanese"},{"name":"Pizza Lanesplitter","lat":37.77273,"lng":-122.14491,"kind":"restaurant","cuisine":"pizza"},{"name":"Yin Ji Chang Fen","lat":37.87067,"lng":-122.26844,"kind":"restaurant","cuisine":"chinese"},{"name":"Teaspoon","lat":37.87242,"lng":-122.26748,"kind":"cafe","cuisine":"bubble tea"},{"name":"Jay's Coffee Teas and Treats","lat":37.76998,"lng":-122.26165,"kind":"cafe","cuisine":"coffee shop"},{"name":"Little Joe's Express","lat":37.77002,"lng":-122.26172,"kind":"restaurant","cuisine":"chinese"},{"name":"Marti's Place","lat":37.7671,"lng":-122.2544,"kind":"restaurant","cuisine":"breakfast"},{"name":"Lazy Bird Cafe","lat":37.77113,"lng":-122.26925,"kind":"cafe","cuisine":"coffee shop"},{"name":"Belotti","lat":37.84033,"lng":-122.25151,"kind":"restaurant","cuisine":"italian"},{"name":"Round Table Pizza","lat":37.73775,"lng":-122.1978,"kind":"restaurant","cuisine":"pizza"},{"name":"Saga Kitchen","lat":37.77269,"lng":-122.25494,"kind":"restaurant","cuisine":"asian"},{"name":"Malaya Tea Room","lat":37.77114,"lng":-122.2696,"kind":"cafe","cuisine":"teahouse"},{"name":"The Star","lat":37.81427,"lng":-122.24649,"kind":"restaurant","cuisine":"american"},{"name":"La Calaca Loca","lat":37.83777,"lng":-122.26287,"kind":"restaurant","cuisine":"mexican"},{"name":"Los Arcos","lat":37.78298,"lng":-122.22085,"kind":"restaurant","cuisine":"mexican"},{"name":"China Gourmet Express","lat":37.78323,"lng":-122.22164,"kind":"restaurant","cuisine":"chinese"},{"name":"Peet's Coffee","lat":37.87855,"lng":-122.18096,"kind":"cafe","cuisine":"coffee shop"},{"name":"Boichik Bagels","lat":37.88077,"lng":-122.30148,"kind":"restaurant","cuisine":"bagel"},{"name":"Serika Japanese Restaurant","lat":37.8787,"lng":-122.18258,"kind":"restaurant","cuisine":"sushi"},{"name":"Petra Cafe","lat":37.87883,"lng":-122.18216,"kind":"restaurant","cuisine":"mediterranean"},{"name":"Saffron Indian Restaurant & Bar","lat":37.87849,"lng":-122.18197,"kind":"restaurant","cuisine":"indian"},{"name":"Comelones Tacos","lat":37.87831,"lng":-122.18225,"kind":"restaurant","cuisine":"mexican"},{"name":"Atithi Restaurant","lat":37.87815,"lng":-122.18094,"kind":"restaurant","cuisine":"indian"},{"name":"Maya Mexican Grill","lat":37.87807,"lng":-122.18084,"kind":"restaurant","cuisine":"mexican"},{"name":"Katak","lat":37.87073,"lng":-122.26844,"kind":"restaurant","cuisine":"thai"},{"name":"Bab Al-Yemen","lat":37.72766,"lng":-122.20083,"kind":"restaurant","cuisine":"mediterranean"},{"name":"Moxie Steakhouse","lat":37.76748,"lng":-122.23982,"kind":"restaurant","cuisine":"steak house"},{"name":"Chong Qing Noodles House","lat":37.76759,"lng":-122.24022,"kind":"restaurant","cuisine":"chinese"},{"name":"Maria’s Mexican Kitchen","lat":37.79079,"lng":-122.2054,"kind":"restaurant","cuisine":"mexican"},{"name":"Joe's Coffee","lat":37.88493,"lng":-122.30762,"kind":"cafe","cuisine":"coffee shop"},{"name":"Ace Seafood","lat":37.83644,"lng":-122.26229,"kind":"restaurant","cuisine":"seafood"},{"name":"Starbucks","lat":37.86962,"lng":-122.2838,"kind":"cafe","cuisine":"coffee shop"},{"name":"June’s Pizza","lat":37.819,"lng":-122.28866,"kind":"restaurant","cuisine":"pizza"},{"name":"Mountain Mike's","lat":37.74718,"lng":-122.19575,"kind":"restaurant","cuisine":"pizza"},{"name":"Lula Restaurant","lat":37.81754,"lng":-122.26778,"kind":"restaurant","cuisine":"ethiopian"},{"name":"Joe's Pho","lat":37.72449,"lng":-122.15683,"kind":"restaurant","cuisine":"vietnamese"},{"name":"Round Table Pizza","lat":37.72385,"lng":-122.15643,"kind":"restaurant","cuisine":"pizza"},{"name":"Masta Gua Malatang & BBQ","lat":37.72248,"lng":-122.1539,"kind":"restaurant","cuisine":"hotpot"},{"name":"It's A Grind Coffee House","lat":37.71571,"lng":-122.17886,"kind":"cafe","cuisine":"coffee shop"},{"name":"Le Soleil Vietnamese Noodles & Grill","lat":37.72329,"lng":-122.15376,"kind":"restaurant","cuisine":"vietnamese"},{"name":"Makiyaki","lat":37.72293,"lng":-122.15401,"kind":"restaurant","cuisine":"japanese"},{"name":"Pelton Cafe","lat":37.72282,"lng":-122.15476,"kind":"restaurant","cuisine":"breakfast"},{"name":"Bhan Mae Vane","lat":37.7737,"lng":-122.27695,"kind":"restaurant","cuisine":"lao"},{"name":"Yi Fang Tea","lat":37.75639,"lng":-122.25131,"kind":"cafe","cuisine":"bubble tea"},{"name":"Trabocco Kitchen and Cocktails","lat":37.75733,"lng":-122.25168,"kind":"restaurant","cuisine":"italian"},{"name":"Ohgane Alameda x Vons Chicken","lat":37.75738,"lng":-122.25201,"kind":"restaurant","cuisine":"korean"},{"name":"Bowl'd BBQ","lat":37.75761,"lng":-122.25221,"kind":"restaurant","cuisine":"korean"},{"name":"Touch of Soul","lat":37.82954,"lng":-122.2787,"kind":"restaurant","cuisine":"american"},{"name":"A-Town Pizza and Kabob House","lat":37.77117,"lng":-122.23788,"kind":"restaurant","cuisine":"pizza"},{"name":"Taqueria La Venganza","lat":37.85069,"lng":-122.26066,"kind":"restaurant","cuisine":"mexican"},{"name":"Asu Mare","lat":37.84829,"lng":-122.26573,"kind":"restaurant","cuisine":"peruvian"},{"name":"Terra Bella Kitchen","lat":37.75699,"lng":-122.18206,"kind":"restaurant","cuisine":"mexican"},{"name":"Mariscos El Tata","lat":37.73865,"lng":-122.16655,"kind":"restaurant","cuisine":"mexican"},{"name":"Reina's restaurant","lat":37.7492,"lng":-122.17383,"kind":"restaurant","cuisine":"salvadoran"},{"name":"Yuri's restaurant","lat":37.749,"lng":-122.17422,"kind":"restaurant","cuisine":"mexican"},{"name":"El Asadero Taqueria","lat":37.75036,"lng":-122.17467,"kind":"restaurant","cuisine":"mexican"},{"name":"Champion Smokehouse","lat":37.73689,"lng":-122.18319,"kind":"restaurant","cuisine":"barbecue"},{"name":"Lucky Dragon Cafe","lat":37.76056,"lng":-122.18955,"kind":"restaurant","cuisine":"chinese"},{"name":"El Torero Taqueria","lat":37.76525,"lng":-122.20028,"kind":"restaurant","cuisine":"mexican"},{"name":"Pupusas Salvadorenas","lat":37.77294,"lng":-122.21354,"kind":"restaurant","cuisine":"salvadoran"},{"name":"Mountain Mike's","lat":37.77256,"lng":-122.2139,"kind":"restaurant","cuisine":"pizza"},{"name":"iLava Hawaiian Barbecue","lat":37.7724,"lng":-122.21403,"kind":"restaurant","cuisine":"barbecue"},{"name":"Yummy Halal Grill","lat":37.77234,"lng":-122.21443,"kind":"restaurant","cuisine":"afghan"},{"name":"La Frontera","lat":37.77143,"lng":-122.2133,"kind":"restaurant","cuisine":"mexican"},{"name":"North Beach Pizza","lat":37.86528,"lng":-122.26784,"kind":"restaurant","cuisine":"pizza"},{"name":"Tortas Ahogadas Mi Barrio","lat":37.77016,"lng":-122.2106,"kind":"restaurant","cuisine":"mexican"},{"name":"Papusas Guadalupana","lat":37.77028,"lng":-122.21083,"kind":"restaurant","cuisine":"mexican"},{"name":"Taqueria El Paisa","lat":37.77088,"lng":-122.21122,"kind":"restaurant","cuisine":"mexican"},{"name":"Lucky Chef Chen","lat":37.77604,"lng":-122.2222,"kind":"restaurant","cuisine":"chinese"},{"name":"La Gran Chiquita","lat":37.77587,"lng":-122.22263,"kind":"restaurant","cuisine":"mexican"},{"name":"Cafe Platano 2","lat":37.77575,"lng":-122.22157,"kind":"restaurant","cuisine":"salvadoran"},{"name":"Mariscos La Costa","lat":37.77523,"lng":-122.22134,"kind":"restaurant","cuisine":"mexican"},{"name":"Taqueria El Farolito","lat":37.77544,"lng":-122.22094,"kind":"restaurant","cuisine":"mexican"},{"name":"Taqueria El Tio Juan","lat":37.77489,"lng":-122.22056,"kind":"restaurant","cuisine":"mexican"},{"name":"Rinconcito Chapin","lat":37.77448,"lng":-122.21967,"kind":"restaurant","cuisine":"guatemalan"},{"name":"El Huarache Azteca","lat":37.77467,"lng":-122.21932,"kind":"restaurant","cuisine":"mexican"},{"name":"Otaez","lat":37.77454,"lng":-122.21904,"kind":"restaurant","cuisine":"mexican"},{"name":"Taqueria San Jose","lat":37.77614,"lng":-122.22315,"kind":"restaurant","cuisine":"mexican"},{"name":"La Torta Loca","lat":37.77624,"lng":-122.22335,"kind":"restaurant","cuisine":"mexican"},{"name":"Taqueria 16 De Septiembre","lat":37.77652,"lng":-122.22316,"kind":"restaurant","cuisine":"mexican"},{"name":"Luis's Coffee Shop","lat":37.7719,"lng":-122.20096,"kind":"cafe","cuisine":"breakfast"},{"name":"Mom's Bun Mi","lat":37.78937,"lng":-122.24566,"kind":"restaurant","cuisine":"vietnamese"},{"name":"Tasty Szechuan","lat":37.76993,"lng":-122.18212,"kind":"restaurant","cuisine":"chinese"},{"name":"Taqueria Los Altos","lat":37.7698,"lng":-122.18237,"kind":"restaurant","cuisine":"mexican"},{"name":"Egg Roll Kitchen","lat":37.76973,"lng":-122.18184,"kind":"restaurant","cuisine":"chinese"},{"name":"Marina Restaurant","lat":37.70505,"lng":-122.17942,"kind":"restaurant","cuisine":"mexican"},{"name":"Taqueria El Cruzero","lat":37.70601,"lng":-122.18128,"kind":"restaurant","cuisine":"mexican"},{"name":"Saigon 2","lat":37.70557,"lng":-122.17904,"kind":"restaurant","cuisine":"vietnamese"},{"name":"KiGawa Bistro","lat":37.7053,"lng":-122.17865,"kind":"restaurant","cuisine":"japanese"},{"name":"Vientian Cafe","lat":37.78611,"lng":-122.20582,"kind":"restaurant","cuisine":"lao"},{"name":"Lucky Three Seven","lat":37.79313,"lng":-122.21887,"kind":"restaurant","cuisine":"filipino"},{"name":"Dave & Buster's","lat":37.79407,"lng":-122.27436,"kind":"restaurant","cuisine":"american"},{"name":"Starbucks","lat":37.80139,"lng":-122.21514,"kind":"cafe","cuisine":"coffee shop"},{"name":"Starbucks","lat":37.83456,"lng":-122.24858,"kind":"cafe","cuisine":"coffee shop"},{"name":"Sobo Ramen","lat":37.87164,"lng":-122.27091,"kind":"restaurant","cuisine":"ramen"},{"name":"Bravo's Pizza","lat":37.87801,"lng":-122.18077,"kind":"restaurant","cuisine":"pizza"},{"name":"Pete's Coffee","lat":37.76948,"lng":-122.2337,"kind":"cafe","cuisine":"coffee shop"},{"name":"Yosi Cafe","lat":37.83661,"lng":-122.26416,"kind":"cafe","cuisine":"ethiopian"},{"name":"Foccaceria","lat":37.85106,"lng":-122.25264,"kind":"restaurant","cuisine":"pizza"},{"name":"Bella Italia","lat":37.78455,"lng":-122.19991,"kind":"restaurant","cuisine":"italian"},{"name":"La Chicharronda Colombiana","lat":37.73335,"lng":-122.19782,"kind":"restaurant","cuisine":"colombian"},{"name":"Citizen Pizza","lat":37.79604,"lng":-122.27157,"kind":"restaurant","cuisine":"pizza"},{"name":"State Flour Pizza Company","lat":37.85644,"lng":-122.25287,"kind":"restaurant","cuisine":"pizza"},{"name":"Chai Thai Noodles","lat":37.85184,"lng":-122.28637,"kind":"restaurant","cuisine":"thai"},{"name":"Sana’a Cafe","lat":37.83455,"lng":-122.26279,"kind":"cafe","cuisine":"yemeni"},{"name":"Vegan Chula","lat":37.83669,"lng":-122.26199,"kind":"restaurant","cuisine":"mexican"},{"name":"Snail Bar","lat":37.83674,"lng":-122.26418,"kind":"restaurant","cuisine":"regional"},{"name":"Obelisco","lat":37.81131,"lng":-122.243,"kind":"restaurant","cuisine":"mexican"},{"name":"Vien Huong Restaurant","lat":37.79929,"lng":-122.27266,"kind":"restaurant","cuisine":"vietnamese"},{"name":"C & M Bistro","lat":37.80078,"lng":-122.27133,"kind":"restaurant","cuisine":"chinese"},{"name":"Chuan Yu","lat":37.80056,"lng":-122.2715,"kind":"restaurant","cuisine":"chinese"},{"name":"Sakura Bistro","lat":37.80061,"lng":-122.27151,"kind":"restaurant","cuisine":"japanese"},{"name":"Presotea","lat":37.87117,"lng":-122.27472,"kind":"cafe","cuisine":"bubble tea"},{"name":"Soul Blends Coffee","lat":37.82399,"lng":-122.28481,"kind":"cafe","cuisine":"coffee shop"},{"name":"Southie","lat":37.7092,"lng":-122.21259,"kind":"cafe","cuisine":"coffee shop"},{"name":"The Forge","lat":37.71017,"lng":-122.21167,"kind":"restaurant","cuisine":"pizza"},{"name":"Fikscue Craft BBQ","lat":37.76837,"lng":-122.23893,"kind":"restaurant","cuisine":"barbecue"},{"name":"Tipsy Yeti Restaurant & Bar","lat":37.86064,"lng":-122.28967,"kind":"restaurant","cuisine":"nepali"},{"name":"Jaffa Coffee Roasters","lat":37.87117,"lng":-122.27742,"kind":"cafe","cuisine":"coffee shop"},{"name":"Qahwa Time","lat":37.86496,"lng":-122.26781,"kind":"cafe","cuisine":"yemeni"},{"name":"Bluebird Pizzeria","lat":37.73183,"lng":-122.16094,"kind":"restaurant","cuisine":"pizza"},{"name":"Forest Tea Bar","lat":37.86107,"lng":-122.26737,"kind":"cafe","cuisine":"japanese"},{"name":"Vegan N Chicken 1 Indian and Pakistani Food","lat":37.87002,"lng":-122.29268,"kind":"restaurant","cuisine":"indian"},{"name":"Chen's Garden","lat":37.84873,"lng":-122.27072,"kind":"restaurant","cuisine":"chinese"},{"name":"Momo House","lat":37.86845,"lng":-122.26023,"kind":"restaurant","cuisine":"nepalese"},{"name":"Thai Table","lat":37.86847,"lng":-122.29621,"kind":"restaurant","cuisine":"thai"},{"name":"Butterfish Sushi","lat":37.86849,"lng":-122.29612,"kind":"restaurant","cuisine":"sushi"},{"name":"el Tiny Cafe","lat":37.85004,"lng":-122.27059,"kind":"cafe","cuisine":"coffee shop"},{"name":"Marigold Indian Eats","lat":37.8357,"lng":-122.26225,"kind":"restaurant","cuisine":"indian"},{"name":"Pizzeria Violetta","lat":37.81461,"lng":-122.29248,"kind":"restaurant","cuisine":"pizza"},{"name":"Fatto a Mano Alimentari","lat":37.81457,"lng":-122.29207,"kind":"restaurant","cuisine":"italian"},{"name":"Highwire Coffee Roasters","lat":37.81454,"lng":-122.29224,"kind":"cafe","cuisine":"coffee shop"},{"name":"Cafe Noir","lat":37.81461,"lng":-122.29218,"kind":"cafe","cuisine":"coffee shop"},{"name":"JJ Fish and Chicken","lat":37.8143,"lng":-122.27963,"kind":"restaurant","cuisine":"chicken"},{"name":"Shawlay Burger","lat":37.82844,"lng":-122.27466,"kind":"restaurant","cuisine":"burger"},{"name":"The Pizza Boyz","lat":37.78866,"lng":-122.19584,"kind":"restaurant","cuisine":"pizza"},{"name":"Starbucks","lat":37.75736,"lng":-122.25059,"kind":"cafe","cuisine":"coffee shop"},{"name":"Razzo's Pizza","lat":37.78713,"lng":-122.19438,"kind":"restaurant","cuisine":"pizza"},{"name":"Happy Garden","lat":37.7895,"lng":-122.1966,"kind":"restaurant","cuisine":"chinese"},{"name":"CocoBreeze","lat":37.78058,"lng":-122.20583,"kind":"restaurant","cuisine":"caribbean"},{"name":"Kopi Bar and Bakery","lat":37.8707,"lng":-122.26622,"kind":"cafe","cuisine":"indonesian"},{"name":"Dough Zone","lat":37.87353,"lng":-122.26877,"kind":"restaurant","cuisine":"chinese"},{"name":"Shangri-La Vegan","lat":37.83133,"lng":-122.27678,"kind":"restaurant","cuisine":"local"},{"name":"Take Eat Easy","lat":37.86872,"lng":-122.26021,"kind":"restaurant","cuisine":"chinese"},{"name":"Sidewalk Street Food","lat":37.8586,"lng":-122.24425,"kind":"restaurant","cuisine":"vietnamese"},{"name":"Flour + Water Pizza Shop","lat":37.81275,"lng":-122.26265,"kind":"restaurant","cuisine":"pizza"},{"name":"Highwire Coffee Roasters","lat":37.81309,"lng":-122.26275,"kind":"cafe","cuisine":"coffee shop"},{"name":"Taqueria El Zocalo","lat":37.77671,"lng":-122.2249,"kind":"restaurant","cuisine":"mexican"},{"name":"Southie","lat":37.76097,"lng":-122.24506,"kind":"restaurant","cuisine":"mexican"},{"name":"FOB West","lat":37.81456,"lng":-122.29228,"kind":"restaurant","cuisine":"filipino"},{"name":"Kanda Ramen & BBQ","lat":37.7226,"lng":-122.15381,"kind":"restaurant","cuisine":"barbecue"},{"name":"Quickly","lat":37.81059,"lng":-122.2439,"kind":"cafe","cuisine":"bubble tea"},{"name":"House of Three","lat":37.87539,"lng":-122.2597,"kind":"restaurant","cuisine":"asian"},{"name":"Metro Taquero","lat":37.70939,"lng":-122.17031,"kind":"restaurant","cuisine":"mexican"},{"name":"Saints Smokehouse","lat":37.80152,"lng":-122.26579,"kind":"restaurant","cuisine":"barbecue"},{"name":"Poke Star sushi","lat":37.69968,"lng":-122.17638,"kind":"restaurant","cuisine":"sushi"},{"name":"Round Table Pizza","lat":37.69962,"lng":-122.17635,"kind":"restaurant","cuisine":"pizza"},{"name":"Mai Thai","lat":37.69981,"lng":-122.1762,"kind":"restaurant","cuisine":"thai"},{"name":"Payakk","lat":37.83493,"lng":-122.21221,"kind":"restaurant","cuisine":"thai"},{"name":"Istanbul Kitchen","lat":37.70018,"lng":-122.12708,"kind":"restaurant","cuisine":"mediterranean"},{"name":"drink thicc","lat":37.8133,"lng":-122.26439,"kind":"restaurant","cuisine":"smoothies"},{"name":"Fez Coffee Roasters","lat":37.80795,"lng":-122.26505,"kind":"cafe","cuisine":"coffee shop"},{"name":"Primavera","lat":37.83329,"lng":-122.25292,"kind":"restaurant","cuisine":"sandwich"},{"name":"Purple Pepper Pizza","lat":37.83292,"lng":-122.25287,"kind":"restaurant","cuisine":"pizza"},{"name":"Bento & Bowls","lat":37.83281,"lng":-122.25309,"kind":"restaurant","cuisine":"korean"},{"name":"Waka Sakura","lat":37.83374,"lng":-122.29284,"kind":"restaurant","cuisine":"sushi"},{"name":"Mumu Hot pot","lat":37.83696,"lng":-122.29283,"kind":"restaurant","cuisine":"hotpot"},{"name":"BB Bowl","lat":37.76915,"lng":-122.23287,"kind":"restaurant","cuisine":"korean"},{"name":"Old Weang Ping Village","lat":37.77469,"lng":-122.18106,"kind":"restaurant","cuisine":"thai"},{"name":"Kathiew House of Oakland","lat":37.78041,"lng":-122.21887,"kind":"restaurant","cuisine":"cambodian"},{"name":"Jiams","lat":37.78824,"lng":-122.24376,"kind":"restaurant","cuisine":"thai"},{"name":"Tamaleria Azteca","lat":37.84248,"lng":-122.27491,"kind":"restaurant","cuisine":"mexican"},{"name":"Seabreeze","lat":37.86596,"lng":-122.30574,"kind":"restaurant","cuisine":"burger"},{"name":"Everett and Jones BBQ","lat":37.79571,"lng":-122.27614,"kind":"restaurant","cuisine":"barbecue"},{"name":"Sushinista","lat":37.86779,"lng":-122.27015,"kind":"restaurant","cuisine":"sushi"},{"name":"Chili's","lat":37.70275,"lng":-122.12564,"kind":"restaurant","cuisine":"tex-mex"},{"name":"Izakaya Shodai","lat":37.80988,"lng":-122.26918,"kind":"restaurant","cuisine":"japanese"},{"name":"Kamdesh Afghani Kabab House","lat":37.80347,"lng":-122.26829,"kind":"restaurant","cuisine":"afghan"},{"name":"Daughter Thai Kitchen","lat":37.82692,"lng":-122.2104,"kind":"restaurant","cuisine":"thai"},{"name":"Fentons Creamery","lat":37.82792,"lng":-122.24998,"kind":"restaurant","cuisine":"ice cream"},{"name":"Peet's Coffee","lat":37.77849,"lng":-122.27684,"kind":"cafe","cuisine":"coffee shop"},{"name":"Sushi House","lat":37.75473,"lng":-122.25048,"kind":"restaurant","cuisine":"sushi"},{"name":"Starbucks","lat":37.70294,"lng":-122.12596,"kind":"cafe","cuisine":"coffee shop"},