{"generated_at":"2026-07-22T10:56:34.579Z","city":"den","source":"OpenStreetMap","count":1754,"eats":[{"name":"Machete Tequila + Tacos","lat":39.75321,"lng":-104.99893,"kind":"restaurant","cuisine":"mexican"},{"name":"Venice Ristorante","lat":39.75286,"lng":-104.99941,"kind":"restaurant","cuisine":"italian"},{"name":"Jax Fish House","lat":39.75219,"lng":-104.99854,"kind":"restaurant","cuisine":"seafood"},{"name":"Denver Chop House & Brewery","lat":39.75498,"lng":-104.99736,"kind":"restaurant","cuisine":"steak house"},{"name":"Fogo de Chão","lat":39.75119,"lng":-105.00212,"kind":"restaurant","cuisine":"brazilian"},{"name":"Pappadeaux Seafood Kitchen","lat":39.62188,"lng":-104.9017,"kind":"restaurant","cuisine":"seafood"},{"name":"Buckhorn Exchange","lat":39.73225,"lng":-105.00511,"kind":"restaurant","cuisine":"steak house"},{"name":"Vintage Himalayan","lat":39.66962,"lng":-104.98737,"kind":"restaurant","cuisine":"indian"},{"name":"Texas Roadhouse","lat":39.88684,"lng":-104.98902,"kind":"restaurant","cuisine":"steak house"},{"name":"Chu's Asian Grill","lat":39.77366,"lng":-104.80864,"kind":"restaurant","cuisine":"asian"},{"name":"Pizza Hut","lat":39.77366,"lng":-104.80892,"kind":"restaurant","cuisine":"pizza"},{"name":"Applebee's","lat":39.77244,"lng":-104.79638,"kind":"restaurant","cuisine":"american"},{"name":"Ted's Montana Grill","lat":39.77239,"lng":-104.79688,"kind":"restaurant","cuisine":"american"},{"name":"Thai Chili & Sushi","lat":39.77343,"lng":-104.79873,"kind":"restaurant","cuisine":"thai"},{"name":"Anthony's Pizza & Pasta","lat":39.77329,"lng":-104.79892,"kind":"restaurant","cuisine":"pizza"},{"name":"Urban Sombrero","lat":39.77316,"lng":-104.79874,"kind":"restaurant","cuisine":"mexican"},{"name":"Outback Steakhouse","lat":39.77329,"lng":-104.79762,"kind":"restaurant","cuisine":"american"},{"name":"La Fogata","lat":39.63811,"lng":-104.89536,"kind":"restaurant","cuisine":"mexican"},{"name":"Tuk Tuk Thai Grill","lat":39.63837,"lng":-104.89694,"kind":"restaurant","cuisine":"thai"},{"name":"South Garden","lat":39.63831,"lng":-104.89806,"kind":"restaurant","cuisine":"chinese"},{"name":"Oliver's Italian","lat":39.62458,"lng":-104.8834,"kind":"restaurant","cuisine":"italian"},{"name":"Bonefish Grill","lat":39.62508,"lng":-104.88477,"kind":"restaurant","cuisine":"seafood"},{"name":"Shanghai Kitchen","lat":39.62477,"lng":-104.88346,"kind":"restaurant","cuisine":"chinese"},{"name":"Golden Corral","lat":39.87381,"lng":-104.98398,"kind":"restaurant","cuisine":"american"},{"name":"Breakfast On Broadway","lat":39.66383,"lng":-104.98817,"kind":"restaurant","cuisine":"american"},{"name":"Starbucks","lat":39.74518,"lng":-104.99242,"kind":"cafe","cuisine":"coffee shop"},{"name":"Starbucks","lat":39.74297,"lng":-104.989,"kind":"cafe","cuisine":"coffee shop"},{"name":"Jelly","lat":39.67831,"lng":-104.96736,"kind":"restaurant","cuisine":"breakfast"},{"name":"Starbucks","lat":39.74881,"lng":-104.99138,"kind":"cafe","cuisine":"coffee shop"},{"name":"Black-eyed Pea","lat":39.62316,"lng":-104.98741,"kind":"restaurant","cuisine":"american"},{"name":"Caribou Coffee","lat":39.62222,"lng":-104.98754,"kind":"cafe","cuisine":"coffee shop"},{"name":"Olive Garden","lat":39.61981,"lng":-105.09049,"kind":"restaurant","cuisine":"italian"},{"name":"Buffalo Wild Wings","lat":39.62252,"lng":-105.09058,"kind":"restaurant","cuisine":"wings"},{"name":"Starbucks","lat":39.71126,"lng":-104.97301,"kind":"cafe","cuisine":"coffee shop"},{"name":"Starbucks","lat":39.67994,"lng":-104.95888,"kind":"cafe","cuisine":"coffee shop"},{"name":"Hunan Dynasty","lat":39.62276,"lng":-105.10871,"kind":"restaurant","cuisine":"chinese"},{"name":"Fluid Coffee Bar","lat":39.74631,"lng":-104.98094,"kind":"cafe","cuisine":"coffee shop"},{"name":"P.F. Chang's","lat":39.74936,"lng":-104.9996,"kind":"restaurant","cuisine":"asian"},{"name":"Las Delicias Maxican Restaurant","lat":39.74636,"lng":-104.98144,"kind":"restaurant","cuisine":"mexican"},{"name":"Pho 4 U","lat":39.64998,"lng":-105.00885,"kind":"restaurant","cuisine":"vietnamese"},{"name":"Sunrise Sunset","lat":39.69082,"lng":-105.08104,"kind":"restaurant","cuisine":"american"},{"name":"Sukoon","lat":39.61282,"lng":-105.02036,"kind":"restaurant","cuisine":"indian"},{"name":"Sushi Basho","lat":39.61274,"lng":-105.02049,"kind":"restaurant","cuisine":"sushi"},{"name":"Welton Street Cafe","lat":39.75666,"lng":-104.97587,"kind":"cafe","cuisine":"regional"},{"name":"Bubba Gump Shrimp Co.","lat":39.74402,"lng":-104.99418,"kind":"restaurant","cuisine":"seafood"},{"name":"Noodles & Company","lat":39.71054,"lng":-105.08251,"kind":"restaurant","cuisine":"pasta"},{"name":"Shish Kabob","lat":39.74002,"lng":-104.95322,"kind":"restaurant","cuisine":"kebab"},{"name":"Kaladi Coffee Cafe","lat":39.67826,"lng":-104.96703,"kind":"cafe","cuisine":"coffee shop"},{"name":"Gold Panda","lat":39.74802,"lng":-104.97722,"kind":"restaurant","cuisine":"asian"},{"name":"Spicy Basil","lat":39.65666,"lng":-104.9882,"kind":"restaurant","cuisine":"asian"},{"name":"Bird","lat":39.68871,"lng":-104.98062,"kind":"restaurant","cuisine":"american"},{"name":"Wash Perk","lat":39.70223,"lng":-104.97717,"kind":"cafe","cuisine":"coffee shop"},{"name":"Spice Room","lat":39.73994,"lng":-104.95025,"kind":"restaurant","cuisine":"indian"},{"name":"Little Finch","lat":39.75033,"lng":-104.99915,"kind":"restaurant","cuisine":"american"},{"name":"John Holly's Asian Bistro","lat":39.67263,"lng":-104.97318,"kind":"restaurant","cuisine":"asian"},{"name":"Starbucks","lat":39.6232,"lng":-104.89737,"kind":"cafe","cuisine":"coffee shop"},{"name":"Ziggi's Coffee","lat":39.88593,"lng":-105.02584,"kind":"cafe","cuisine":"coffee shop"},{"name":"Starbucks","lat":39.88231,"lng":-105.02565,"kind":"cafe","cuisine":"coffee shop"},{"name":"The Cherry Tomato","lat":39.75123,"lng":-104.93312,"kind":"restaurant","cuisine":"italian"},{"name":"Oblio's Pizzeria","lat":39.7494,"lng":-104.917,"kind":"restaurant","cuisine":"pizza"},{"name":"Starbucks","lat":39.75791,"lng":-104.90259,"kind":"cafe","cuisine":"coffee shop"},{"name":"Anthony's Pizza and Pasta","lat":39.75789,"lng":-104.90115,"kind":"restaurant","cuisine":"pizza"},{"name":"Noodles & Company","lat":39.7582,"lng":-104.90151,"kind":"restaurant","cuisine":"pasta"},{"name":"Star of India","lat":39.66171,"lng":-104.8534,"kind":"restaurant","cuisine":"indian"},{"name":"Katherine's","lat":39.70301,"lng":-104.95907,"kind":"cafe","cuisine":"french"},{"name":"Blue Fin Sushi","lat":39.75819,"lng":-104.90261,"kind":"restaurant","cuisine":"sushi"},{"name":"Little India","lat":39.75788,"lng":-104.90193,"kind":"restaurant","cuisine":"indian"},{"name":"Bistro Vendôme","lat":39.75049,"lng":-104.91782,"kind":"restaurant","cuisine":"french"},{"name":"El Tapatio","lat":39.79457,"lng":-105.07789,"kind":"restaurant","cuisine":"mexican"},{"name":"Namaste India Restaurant & Bar","lat":39.79733,"lng":-105.07867,"kind":"restaurant","cuisine":"indian"},{"name":"Starbucks","lat":39.79697,"lng":-105.07866,"kind":"cafe","cuisine":"coffee shop"},{"name":"Steuben's","lat":39.74352,"lng":-104.98037,"kind":"restaurant","cuisine":"american"},{"name":"Rio Grande","lat":39.75015,"lng":-104.99995,"kind":"restaurant","cuisine":"mexican"},{"name":"Noodles & Company","lat":39.72535,"lng":-104.98701,"kind":"restaurant","cuisine":"pasta"},{"name":"Sam's #3","lat":39.74622,"lng":-104.99567,"kind":"restaurant","cuisine":"diner"},{"name":"Starbucks","lat":39.8867,"lng":-105.07637,"kind":"cafe","cuisine":"coffee shop"},{"name":"Metropolis Coffee","lat":39.73371,"lng":-104.99185,"kind":"cafe","cuisine":"coffee shop"},{"name":"Aviano Coffee","lat":39.72037,"lng":-104.95436,"kind":"cafe","cuisine":"coffee shop"},{"name":"Osteria Marco","lat":39.7481,"lng":-104.99908,"kind":"restaurant","cuisine":"italian"},{"name":"Starbucks","lat":39.69435,"lng":-104.94104,"kind":"cafe","cuisine":"coffee shop"},{"name":"Starbucks","lat":39.69899,"lng":-104.93934,"kind":"cafe","cuisine":"coffee shop"},{"name":"Ming's Dynasty","lat":39.69676,"lng":-104.93757,"kind":"restaurant","cuisine":"chinese"},{"name":"Sexy Pizza","lat":39.688,"lng":-104.9806,"kind":"restaurant","cuisine":"pizza"},{"name":"Kaos Pizzeria","lat":39.69052,"lng":-104.98068,"kind":"restaurant","cuisine":"pizza"},{"name":"Uno Mas Taqueria","lat":39.68786,"lng":-104.9806,"kind":"restaurant","cuisine":"mexican"},{"name":"Pete's Greek Town Cafe","lat":39.73998,"lng":-104.95272,"kind":"cafe","cuisine":"american"},{"name":"Peet's Coffee","lat":39.74283,"lng":-104.98942,"kind":"cafe","cuisine":"coffee shop"},{"name":"Yard House","lat":39.74291,"lng":-104.98955,"kind":"restaurant","cuisine":"american"},{"name":"Starbucks","lat":39.74274,"lng":-104.98707,"kind":"cafe","cuisine":"coffee shop"},{"name":"Parry's Pizzeria & Bar","lat":39.60885,"lng":-104.92015,"kind":"restaurant","cuisine":"pizza"},{"name":"Rice Bistro","lat":39.60896,"lng":-104.92211,"kind":"restaurant","cuisine":"asian"},{"name":"Venice Restaurant","lat":39.60914,"lng":-104.92134,"kind":"restaurant","cuisine":"italian"},{"name":"Ink!","lat":39.71956,"lng":-104.95771,"kind":"cafe","cuisine":"coffee shop"},{"name":"North Italia","lat":39.71926,"lng":-104.9557,"kind":"restaurant","cuisine":"italian"},{"name":"Starbucks","lat":39.7196,"lng":-104.95314,"kind":"cafe","cuisine":"coffee shop"},{"name":"Anthony's Pizza & Pasta","lat":39.74482,"lng":-104.99239,"kind":"restaurant","cuisine":"pizza"},{"name":"Wing Slingers","lat":39.61979,"lng":-105.01638,"kind":"restaurant","cuisine":"american"},{"name":"Piccino Wood Oven Pizza","lat":39.61955,"lng":-105.01636,"kind":"restaurant","cuisine":"pizza"},{"name":"Arvada Villa Italian Restaurant","lat":39.80122,"lng":-105.10532,"kind":"restaurant","cuisine":"italian"},{"name":"Ralston cafe","lat":39.80324,"lng":-105.10419,"kind":"restaurant","cuisine":"american"},{"name":"Delectable Egg","lat":39.75037,"lng":-104.99742,"kind":"restaurant","cuisine":"american"},{"name":"Village Inn","lat":39.6535,"lng":-104.77071,"kind":"restaurant","cuisine":"american"},{"name":"Cheba Hut","lat":39.74615,"lng":-104.99469,"kind":"restaurant","cuisine":"sandwich"},{"name":"Tamayo","lat":39.74734,"lng":-104.99959,"kind":"restaurant","cuisine":"mexican"},{"name":"Huckleberry Roasters","lat":39.74744,"lng":-104.99945,"kind":"cafe","cuisine":"coffee shop"},{"name":"Bangkok Tokyo","lat":39.60521,"lng":-104.7161,"kind":"restaurant","cuisine":"asian"},{"name":"Little Panda","lat":39.65459,"lng":-104.77742,"kind":"restaurant","cuisine":"chinese"},{"name":"Starbucks","lat":39.65221,"lng":-104.77313,"kind":"cafe","cuisine":"coffee shop"},{"name":"Sloan's Bar and Grill","lat":39.75288,"lng":-105.06098,"kind":"restaurant","cuisine":"american"},{"name":"India Oven","lat":39.66418,"lng":-104.93868,"kind":"restaurant","cuisine":"indian"},{"name":"D'Corazon","lat":39.75004,"lng":-104.99953,"kind":"restaurant","cuisine":"mexican"},{"name":"The Capital Grille","lat":39.74792,"lng":-104.99883,"kind":"restaurant","cuisine":"steak house"},{"name":"Bistro Vendôme","lat":39.74749,"lng":-104.99896,"kind":"restaurant","cuisine":"french"},{"name":"The Original Pancake House","lat":39.62358,"lng":-104.89607,"kind":"restaurant","cuisine":"breakfast"},{"name":"Sazza","lat":39.60938,"lng":-104.95811,"kind":"restaurant","cuisine":"pizza"},{"name":"Starbucks","lat":39.60886,"lng":-104.95737,"kind":"cafe","cuisine":"coffee shop"},{"name":"Ink Coffee","lat":39.74943,"lng":-104.99625,"kind":"cafe","cuisine":"coffee shop"},{"name":"Illegal Burger","lat":39.74846,"lng":-104.99802,"kind":"restaurant","cuisine":"italian"},{"name":"Ocean Prime","lat":39.74823,"lng":-104.9989,"kind":"restaurant","cuisine":"seafood"},{"name":"Panzano","lat":39.74772,"lng":-104.99284,"kind":"restaurant","cuisine":"italian"},{"name":"Hooked on Colfax","lat":39.74034,"lng":-104.94967,"kind":"cafe","cuisine":"pastry"},{"name":"Le Central","lat":39.72891,"lng":-104.98578,"kind":"restaurant","cuisine":"french"},{"name":"The Corner Office Restaurant & Martini Bar","lat":39.7456,"lng":-104.99732,"kind":"restaurant","cuisine":"comfort food"},{"name":"Trattoria Stella","lat":39.74033,"lng":-104.94985,"kind":"restaurant","cuisine":"italian"},{"name":"Noodles & Company","lat":39.74274,"lng":-104.98871,"kind":"restaurant","cuisine":"pasta"},{"name":"Maggiano's Little Italy","lat":39.74282,"lng":-104.9904,"kind":"restaurant","cuisine":"italian"},{"name":"Saigon Bowl","lat":39.71061,"lng":-105.02544,"kind":"restaurant","cuisine":"vietnamese"},{"name":"Pho Duy","lat":39.69978,"lng":-105.02533,"kind":"restaurant","cuisine":"vietnamese"},{"name":"BC Subs","lat":39.65513,"lng":-105.10743,"kind":"restaurant","cuisine":"american"},{"name":"Golden Plate II","lat":39.65486,"lng":-105.10815,"kind":"restaurant","cuisine":"chinese"},{"name":"Golden Boar","lat":39.60799,"lng":-105.10809,"kind":"restaurant","cuisine":"chinese"},{"name":"Thai Bistro","lat":39.60894,"lng":-105.10816,"kind":"restaurant","cuisine":"thai"},{"name":"First Watch","lat":39.71002,"lng":-105.08365,"kind":"restaurant","cuisine":"american"},{"name":"Starbucks","lat":39.70961,"lng":-105.08561,"kind":"cafe","cuisine":"coffee shop"},{"name":"Buffalo Wild Wings","lat":39.70884,"lng":-105.08203,"kind":"restaurant","cuisine":"wings"},{"name":"Village Inn","lat":39.71155,"lng":-105.07932,"kind":"restaurant","cuisine":"american"},{"name":"The Rib BBQ","lat":39.68149,"lng":-105.09985,"kind":"restaurant","cuisine":"american"},{"name":"Garramone's","lat":39.68161,"lng":-105.09941,"kind":"restaurant","cuisine":"italian"},{"name":"Casa de Torres","lat":39.68285,"lng":-105.09987,"kind":"restaurant","cuisine":"mexican"},{"name":"House of Windsor","lat":39.69722,"lng":-105.08009,"kind":"cafe","cuisine":"coffee shop"},{"name":"Johnny's NY Style Pizza","lat":39.69805,"lng":-105.08106,"kind":"restaurant","cuisine":"pizza"},{"name":"Ming Hin Best Taste Buffet","lat":39.68375,"lng":-105.082,"kind":"restaurant","cuisine":"chinese"},{"name":"Star Thai","lat":39.68142,"lng":-105.08573,"kind":"restaurant","cuisine":"thai"},{"name":"Fortune City","lat":39.68087,"lng":-105.08308,"kind":"restaurant","cuisine":"chinese"},{"name":"Las Dalias","lat":39.68169,"lng":-105.08421,"kind":"restaurant","cuisine":"mexican"},{"name":"Noodles & Company","lat":39.62362,"lng":-104.89702,"kind":"restaurant","cuisine":"pasta"},{"name":"Meade ST Provisions","lat":39.76224,"lng":-105.03527,"kind":"restaurant","cuisine":"sandwich"},{"name":"Sera’s Ramen Enclave","lat":39.762,"lng":-105.03402,"kind":"restaurant","cuisine":"asian"},{"name":"Stella Trattoria","lat":39.762,"lng":-105.03392,"kind":"restaurant","cuisine":"italian"},{"name":"Ramen 930","lat":39.76241,"lng":-105.0335,"kind":"restaurant","cuisine":"ramen"},{"name":"Kiki's Japanese Casual Dining","lat":39.67246,"lng":-104.94015,"kind":"restaurant","cuisine":"japanese"},{"name":"Taste of Philly","lat":39.67261,"lng":-104.94016,"kind":"restaurant","cuisine":"sandwich"},{"name":"Coohills","lat":39.75068,"lng":-105.00384,"kind":"restaurant","cuisine":"french"},{"name":"Jim N' Nick's Bar-B-Q","lat":39.78114,"lng":-104.89284,"kind":"restaurant","cuisine":"barbecue"},{"name":"Starbucks","lat":39.7071,"lng":-104.92049,"kind":"cafe","cuisine":"coffee shop"},{"name":"Santiago's","lat":39.70736,"lng":-104.92141,"kind":"restaurant","cuisine":"mexican"},{"name":"Starbucks","lat":39.67428,"lng":-104.86967,"kind":"cafe","cuisine":"coffee shop"},{"name":"Silla Korean BBQ","lat":39.66131,"lng":-104.84817,"kind":"restaurant","cuisine":"korean"},{"name":"Hungry Wolf BBQ","lat":39.66662,"lng":-104.86554,"kind":"restaurant","cuisine":"barbecue"},{"name":"Papa Rick's Pizza","lat":39.66014,"lng":-104.85237,"kind":"restaurant","cuisine":"pizza"},{"name":"Sonoda's Sushi & Seafood","lat":39.66082,"lng":-104.85277,"kind":"restaurant","cuisine":"sushi"},{"name":"Home Grown Tap and Dough","lat":39.69826,"lng":-104.96197,"kind":"restaurant","cuisine":"pizza"},{"name":"Yum Asian and Sushi","lat":39.88517,"lng":-104.77546,"kind":"restaurant","cuisine":"asian"},{"name":"Pizza Hut","lat":39.884,"lng":-104.80684,"kind":"restaurant","cuisine":"pizza"},{"name":"China Red","lat":39.88401,"lng":-104.80673,"kind":"restaurant","cuisine":"chinese"},{"name":"Starbucks","lat":39.88747,"lng":-104.81147,"kind":"cafe","cuisine":"coffee shop"},{"name":"McCormick & Schmick's","lat":39.62873,"lng":-104.89438,"kind":"restaurant","cuisine":"seafood"},{"name":"Offshoots at the Gardens Cafe","lat":39.73267,"lng":-104.96063,"kind":"cafe","cuisine":"coffee shop"},{"name":"Shells and Sauce","lat":39.73503,"lng":-104.95618,"kind":"restaurant","cuisine":"italian"},{"name":"Chef Zorba's Restaurant","lat":39.73498,"lng":-104.9556,"kind":"restaurant","cuisine":"greek"},{"name":"Okinawa","lat":39.74017,"lng":-104.95963,"kind":"restaurant","cuisine":"seafood"},{"name":"Ma's Kitchen","lat":39.74036,"lng":-104.95962,"kind":"restaurant","cuisine":"chinese"},{"name":"Chickees Lil Kitchen","lat":39.7762,"lng":-105.01563,"kind":"restaurant","cuisine":"american"},{"name":"Hapa Sushi","lat":39.61909,"lng":-104.89978,"kind":"restaurant","cuisine":"sushi"},{"name":"Ted's Montana Grill","lat":39.61927,"lng":-104.90002,"kind":"restaurant","cuisine":"american"},{"name":"Pizza Republica","lat":39.61884,"lng":-104.90103,"kind":"restaurant","cuisine":"pizza"},{"name":"Jing","lat":39.61925,"lng":-104.90057,"kind":"restaurant","cuisine":"japanese"},{"name":"Tuscany Coffee And Deli","lat":39.74353,"lng":-104.98591,"kind":"cafe","cuisine":"coffee shop"},{"name":"Tuscany Coffee And Deli","lat":39.74588,"lng":-104.99268,"kind":"cafe","cuisine":"coffee shop"},{"name":"Spices","lat":39.74039,"lng":-104.96947,"kind":"restaurant","cuisine":"sandwich"},{"name":"Yannis Greek","lat":39.61787,"lng":-104.90112,"kind":"restaurant","cuisine":"greek"},{"name":"Buzz Cafe","lat":39.72575,"lng":-104.97229,"kind":"cafe","cuisine":"coffee shop"},{"name":"Starbucks","lat":39.72493,"lng":-104.97333,"kind":"cafe","cuisine":"coffee shop"},{"name":"Dazbog Coffee","lat":39.7306,"lng":-104.97279,"kind":"cafe","cuisine":"sandwich"},{"name":"Snooze","lat":39.72755,"lng":-104.94043,"kind":"restaurant","cuisine":"breakfast"},{"name":"Stargazer","lat":39.72786,"lng":-104.94015,"kind":"cafe","cuisine":"coffee shop"},{"name":"India Express","lat":39.72808,"lng":-104.94118,"kind":"restaurant","cuisine":"indian"},{"name":"Osaka Sushi","lat":39.70368,"lng":-104.94169,"kind":"restaurant","cuisine":"sushi"},{"name":"Tea Street","lat":39.6964,"lng":-104.93967,"kind":"cafe","cuisine":"bubble tea"},{"name":"Yemen Grill","lat":39.67411,"lng":-104.86768,"kind":"restaurant","cuisine":"arab"},{"name":"Tofu House 1962","lat":39.67437,"lng":-104.86763,"kind":"restaurant","cuisine":"korean"},{"name":"Cody's Cafe & Bar","lat":39.67541,"lng":-104.86906,"kind":"restaurant","cuisine":"international"},{"name":"Lamar's Donuts","lat":39.67515,"lng":-104.87014,"kind":"cafe","cuisine":"coffee shop"},{"name":"Golden Shanghai","lat":39.69095,"lng":-104.88967,"kind":"restaurant","cuisine":"chinese"},{"name":"Tokyo Joe's","lat":39.69824,"lng":-104.93927,"kind":"restaurant","cuisine":"japanese"},{"name":"Sunny's","lat":39.77666,"lng":-105.01545,"kind":"restaurant","cuisine":"breakfast"},{"name":"Chili's","lat":39.85684,"lng":-105.08016,"kind":"restaurant","cuisine":"tex-mex"},{"name":"Cake Crumbs","lat":39.74975,"lng":-104.91725,"kind":"restaurant","cuisine":"bakery"},{"name":"Empanada Express Grill","lat":39.77681,"lng":-105.0429,"kind":"restaurant","cuisine":"venezuelan"},{"name":"Hops & Pie","lat":39.77133,"lng":-105.04387,"kind":"restaurant","cuisine":"pizza"},{"name":"Tenn Street Coffee","lat":39.77692,"lng":-105.04381,"kind":"cafe","cuisine":"coffee shop"},{"name":"Swing Thai","lat":39.77623,"lng":-105.04382,"kind":"restaurant","cuisine":"thai"},{"name":"Javier's Diner","lat":39.76956,"lng":-105.04448,"kind":"restaurant","cuisine":"mexican"},{"name":"Burrito Giant","lat":39.76953,"lng":-105.0454,"kind":"restaurant","cuisine":"mexican"},{"name":"Starbucks","lat":39.7691,"lng":-105.04585,"kind":"cafe","cuisine":"coffee shop"},{"name":"Carl's","lat":39.76935,"lng":-105.03729,"kind":"restaurant","cuisine":"italian"},{"name":"Pho Fusion","lat":39.76912,"lng":-105.04916,"kind":"restaurant","cuisine":"asian"},{"name":"Tocabe American Indian Eatery","lat":39.77654,"lng":-105.03432,"kind":"restaurant","cuisine":"native american"},{"name":"Proto's","lat":39.90593,"lng":-105.08754,"kind":"restaurant","cuisine":"pizza"},{"name":"Kneaders Bakery & Cafe","lat":39.84047,"lng":-105.08248,"kind":"restaurant","cuisine":"american"},{"name":"Old Chicago","lat":39.85386,"lng":-105.08236,"kind":"restaurant","cuisine":"pizza"},{"name":"The Garlic Knot","lat":39.86439,"lng":-105.08333,"kind":"restaurant","cuisine":"pizza"},{"name":"Blue Bay Asian Cafe","lat":39.78503,"lng":-104.7691,"kind":"restaurant","cuisine":"chinese"},{"name":"Meadow Hills Grill","lat":39.6503,"lng":-104.81981,"kind":"restaurant","cuisine":"american"},{"name":"Parisi Pizzeria, Trattoria e Vino","lat":39.7767,"lng":-105.04414,"kind":"restaurant","cuisine":"italian"},{"name":"Loftea Cafe","lat":39.90619,"lng":-105.08906,"kind":"cafe","cuisine":"organic"},{"name":"Joe's Crab Shack","lat":39.86058,"lng":-105.05262,"kind":"restaurant","cuisine":"seafood"},{"name":"The Avenue Grille","lat":39.7431,"lng":-104.9789,"kind":"restaurant","cuisine":"american"},{"name":"Ace Eat Serve","lat":39.74345,"lng":-104.98088,"kind":"restaurant","cuisine":"american"},{"name":"Tokyo Joe's","lat":39.65351,"lng":-104.99846,"kind":"restaurant","cuisine":"japanese"},{"name":"Bambu","lat":39.6764,"lng":-104.98785,"kind":"cafe","cuisine":"vietnamese"},{"name":"Starbucks","lat":39.63884,"lng":-104.98743,"kind":"cafe","cuisine":"coffee shop"},{"name":"Starbucks","lat":39.65395,"lng":-104.9608,"kind":"cafe","cuisine":"coffee shop"},{"name":"Modern Market","lat":39.65457,"lng":-104.96065,"kind":"restaurant","cuisine":"american"},{"name":"Osteria Alberico","lat":39.65447,"lng":-104.95979,"kind":"restaurant","cuisine":"italian"},{"name":"Starbucks","lat":39.8675,"lng":-105.05144,"kind":"cafe","cuisine":"coffee shop"},{"name":"Starbucks","lat":39.65363,"lng":-104.91577,"kind":"cafe","cuisine":"coffee shop"},{"name":"Pho Denver","lat":39.67521,"lng":-104.90114,"kind":"restaurant","cuisine":"vietnamese"},{"name":"Wing Slingers","lat":39.67668,"lng":-104.90297,"kind":"restaurant","cuisine":"chicken"},{"name":"Pat's Philly Steaks & Subs","lat":39.67733,"lng":-104.90215,"kind":"restaurant","cuisine":"sandwich"},{"name":"Dave & Buster's","lat":39.68138,"lng":-104.93898,"kind":"restaurant","cuisine":"american"},{"name":"Rock Bottom Restaurant Brewery","lat":39.74754,"lng":-104.99472,"kind":"restaurant","cuisine":"american"},{"name":"Starbucks","lat":39.67648,"lng":-104.91324,"kind":"cafe","cuisine":"coffee shop"},{"name":"Yazoo BBQ Company","lat":39.75202,"lng":-104.98715,"kind":"restaurant","cuisine":"barbecue"},{"name":"Restaurante Antojitos Hondureños","lat":39.74181,"lng":-105.06841,"kind":"restaurant","cuisine":"spanish"},{"name":"Pho2Love","lat":39.74189,"lng":-105.06855,"kind":"restaurant","cuisine":"vietnamese"},{"name":"Little Owl","lat":39.75036,"lng":-104.99967,"kind":"cafe","cuisine":"coffee shop"},{"name":"Meskerem","lat":39.69595,"lng":-104.84766,"kind":"restaurant","cuisine":"ethiopian"},{"name":"Portico","lat":39.69815,"lng":-104.86562,"kind":"restaurant","cuisine":"eritrean"},{"name":"Starbucks","lat":39.71163,"lng":-104.86271,"kind":"cafe","cuisine":"coffee shop"},{"name":"Guadalajara","lat":39.69881,"lng":-104.82788,"kind":"restaurant","cuisine":"mexican"},{"name":"Outback Steakhouse","lat":39.6789,"lng":-104.8274,"kind":"restaurant","cuisine":"american"},{"name":"Carrabba's Italian Grill","lat":39.67834,"lng":-104.82742,"kind":"restaurant","cuisine":"italian"},{"name":"El Chubby's","lat":39.69549,"lng":-104.8279,"kind":"restaurant","cuisine":"mexican"},{"name":"El Gallito Taqueria","lat":39.72022,"lng":-104.86552,"kind":"restaurant","cuisine":"mexican"},{"name":"Real de Minas","lat":39.74038,"lng":-104.85855,"kind":"restaurant","cuisine":"mexican"},{"name":"Lupita's Restaurant","lat":39.74041,"lng":-104.85032,"kind":"restaurant","cuisine":"mexican"},{"name":"Las Tortas","lat":39.70473,"lng":-104.93926,"kind":"restaurant","cuisine":"mexican"},{"name":"$1.26/scoop","lat":39.8807,"lng":-104.97837,"kind":"restaurant","cuisine":"chinese"},{"name":"El Jardin Restaurant","lat":39.82907,"lng":-104.91263,"kind":"restaurant","cuisine":"mexican"},{"name":"Charlie Browns Piano Bar & Grill","lat":39.7319,"lng":-104.98337,"kind":"restaurant","cuisine":"regional"},{"name":"Anthony's Pizza & Pasta","lat":39.67832,"lng":-104.968,"kind":"restaurant","cuisine":"italian"},{"name":"The Pioneer","lat":39.6728,"lng":-104.95981,"kind":"restaurant","cuisine":"mexican"},{"name":"Fat Shack","lat":39.67945,"lng":-104.9597,"kind":"restaurant","cuisine":"american"},{"name":"Gyroz","lat":39.67973,"lng":-104.95883,"kind":"restaurant","cuisine":"greek"},{"name":"Mad Greens","lat":39.67875,"lng":-104.94119,"kind":"restaurant","cuisine":"international"},{"name":"Starbucks","lat":39.66757,"lng":-104.9392,"kind":"cafe","cuisine":"coffee shop"},{"name":"Little India","lat":39.67328,"lng":-104.97308,"kind":"restaurant","cuisine":"indian"},{"name":"Yemen Grill and Cafe","lat":39.67865,"lng":-104.97378,"kind":"restaurant","cuisine":"mediterranean"},{"name":"Bison Grille","lat":39.89931,"lng":-104.80388,"kind":"restaurant","cuisine":"american"},{"name":"Caribou Coffee","lat":39.88903,"lng":-105.0679,"kind":"cafe","cuisine":"coffee shop"},{"name":"Ten Seconds Yunnan Rice Noodles","lat":39.67983,"lng":-104.86522,"kind":"restaurant","cuisine":"chinese"},{"name":"Jackie Chan Chinese Kitchen","lat":39.82974,"lng":-105.02456,"kind":"restaurant","cuisine":"chinese"},{"name":"Moreno Tamales","lat":39.69693,"lng":-105.05548,"kind":"restaurant","cuisine":"mexican"},{"name":"Walton Donuts","lat":39.70281,"lng":-104.91195,"kind":"cafe","cuisine":"donut"},{"name":"Starbucks","lat":39.65334,"lng":-104.87303,"kind":"cafe","cuisine":"coffee shop"},{"name":"Hooters","lat":39.66927,"lng":-104.86314,"kind":"restaurant","cuisine":"burger"},{"name":"O Bok Korean Rice Cake","lat":39.66692,"lng":-104.86439,"kind":"restaurant","cuisine":"asian"},{"name":"Old Town Hot Pot","lat":39.66506,"lng":-104.86525,"kind":"restaurant","cuisine":"chinese"},{"name":"Chutney Restaurant","lat":39.66674,"lng":-104.86439,"kind":"restaurant","cuisine":"indian"},{"name":"Tequila's","lat":39.66601,"lng":-104.86453,"kind":"restaurant","cuisine":"mexican"},{"name":"Golden Saigon","lat":39.66853,"lng":-104.86218,"kind":"restaurant","cuisine":"vietnamese"},{"name":"Mr. Pho","lat":39.66719,"lng":-104.86361,"kind":"restaurant","cuisine":"vietnamese"},{"name":"New Canton BBQ","lat":39.66592,"lng":-104.86355,"kind":"restaurant","cuisine":"asian"},{"name":"Moobongri Soondae","lat":39.66571,"lng":-104.86223,"kind":"restaurant","cuisine":"korean"},{"name":"Las Fajitas","lat":39.66772,"lng":-104.86421,"kind":"restaurant","cuisine":"mexican"},{"name":"Sae Jong Kwan","lat":39.66786,"lng":-104.86421,"kind":"restaurant","cuisine":"korean"},{"name":"WATAN Restaurant & Bakery","lat":39.66778,"lng":-104.86421,"kind":"restaurant","cuisine":"afghan"},{"name":"Molcajete","lat":39.6815,"lng":-104.86702,"kind":"restaurant","cuisine":"mexican"},{"name":"Starbucks","lat":39.68594,"lng":-104.86809,"kind":"cafe","cuisine":"coffee shop"},{"name":"Shinkjuku","lat":39.67989,"lng":-104.82637,"kind":"restaurant","cuisine":"japanese"},{"name":"Real de Minas","lat":39.68033,"lng":-104.82663,"kind":"restaurant","cuisine":"mexican"},{"name":"Pho Bom","lat":39.65266,"lng":-104.8863,"kind":"restaurant","cuisine":"vietnamese"},{"name":"Big Daddy's Pizza","lat":39.69577,"lng":-104.86681,"kind":"restaurant","cuisine":"pizza"},{"name":"Saj Fresh Grill","lat":39.67442,"lng":-104.86934,"kind":"restaurant","cuisine":"mediterranean"},{"name":"Casablanca","lat":39.67614,"lng":-104.86505,"kind":"restaurant","cuisine":"moroccan"},{"name":"Dah Won Rice Cake","lat":39.6764,"lng":-104.86505,"kind":"restaurant","cuisine":"korean"},{"name":"Pho 7","lat":39.65363,"lng":-104.87125,"kind":"restaurant","cuisine":"vietnamese"},{"name":"Doc's Pub & Grill","lat":39.65954,"lng":-104.85965,"kind":"restaurant","cuisine":"american"},{"name":"South Philly Cheese Steaks","lat":39.65967,"lng":-104.8612,"kind":"restaurant","cuisine":"american"},{"name":"Tumrup Thai","lat":39.65972,"lng":-104.85977,"kind":"restaurant","cuisine":"thai"},{"name":"Anthony's Real NY Pizza & Pasta","lat":39.65968,"lng":-104.86077,"kind":"restaurant","cuisine":"italian"},{"name":"Darya","lat":39.65977,"lng":-104.86044,"kind":"restaurant","cuisine":"international"},{"name":"The Market Cafe","lat":39.6615,"lng":-104.85912,"kind":"restaurant","cuisine":"american"},{"name":"Atelier by Radex","lat":39.74338,"lng":-104.96309,"kind":"restaurant","cuisine":"french"},{"name":"Starbucks","lat":39.6545,"lng":-104.9,"kind":"cafe","cuisine":"coffee shop"},{"name":"Benihana","lat":39.65616,"lng":-104.89948,"kind":"restaurant","cuisine":"japanese"},{"name":"Provolino","lat":39.65146,"lng":-104.91361,"kind":"restaurant","cuisine":"italian"},{"name":"Sushi Train","lat":39.65406,"lng":-104.91506,"kind":"restaurant","cuisine":"sushi"},{"name":"Sparks Coffee & Tea","lat":39.65264,"lng":-104.91114,"kind":"cafe","cuisine":"coffee shop"},{"name":"China Beijing","lat":39.65663,"lng":-104.90094,"kind":"restaurant","cuisine":"chinese"},{"name":"Giorgio's NY Pizzeria","lat":39.65593,"lng":-104.90094,"kind":"restaurant","cuisine":"italian"},{"name":"Las Caras","lat":39.65574,"lng":-104.90094,"kind":"restaurant","cuisine":"mexican"},{"name":"The Fresh Fish Co.","lat":39.65217,"lng":-104.89989,"kind":"restaurant","cuisine":"seafood"},{"name":"Pho 63","lat":39.65276,"lng":-104.90002,"kind":"restaurant","cuisine":"vietnamese"},{"name":"New York Deli News","lat":39.6536,"lng":-104.90619,"kind":"restaurant","cuisine":"american"},{"name":"Pizza Hut + WingStreet","lat":39.66603,"lng":-104.91343,"kind":"restaurant","cuisine":"pizza"},{"name":"Sunny Gardens","lat":39.6669,"lng":-104.91512,"kind":"restaurant","cuisine":"chinese"},{"name":"Starbucks","lat":39.66624,"lng":-104.91448,"kind":"cafe","cuisine":"coffee shop"},{"name":"The Bagel Deli & Restaurant","lat":39.65416,"lng":-104.91405,"kind":"restaurant","cuisine":"international"},{"name":"Chili's","lat":39.65007,"lng":-104.91584,"kind":"restaurant","cuisine":"tex-mex"},{"name":"Santiago’s","lat":39.65408,"lng":-104.91598,"kind":"restaurant","cuisine":"mexican"},{"name":"Kung Fu Tea","lat":39.65398,"lng":-104.91584,"kind":"cafe","cuisine":"bubble tea"},{"name":"Peter's Chinese Cafe","lat":39.73536,"lng":-104.95606,"kind":"restaurant","cuisine":"chinese"},{"name":"LambShoppe","lat":39.73499,"lng":-104.94571,"kind":"cafe","cuisine":"coffee shop"},{"name":"Blue Pan Pizza","lat":39.73523,"lng":-104.94569,"kind":"restaurant","cuisine":"pizza"},{"name":"Starbucks","lat":39.74048,"lng":-104.95277,"kind":"cafe","cuisine":"coffee shop"},{"name":"Top Pho","lat":39.74052,"lng":-104.85216,"kind":"restaurant","cuisine":"vietnamese"},{"name":"Tex Mex Burrito","lat":39.72789,"lng":-104.94118,"kind":"restaurant","cuisine":"mexican"},{"name":"Falafel King","lat":39.72969,"lng":-104.94102,"kind":"restaurant","cuisine":"turkish"},{"name":"Erawan Cafe","lat":39.72937,"lng":-104.94124,"kind":"restaurant","cuisine":"thai"},{"name":"Anthony's Pizza & Pasta","lat":39.72767,"lng":-104.94015,"kind":"restaurant","cuisine":"italian"},{"name":"The Duffeyroll Cafe","lat":39.65236,"lng":-104.92913,"kind":"cafe","cuisine":"coffee shop"},{"name":"Starbucks","lat":39.65276,"lng":-104.92814,"kind":"cafe","cuisine":"coffee shop"},{"name":"Pudge Bros. Pizza","lat":39.72506,"lng":-104.87506,"kind":"restaurant","cuisine":"pizza"},{"name":"Asia Cafe","lat":39.72532,"lng":-104.87507,"kind":"restaurant","cuisine":"asian"},{"name":"Kassai Sushi","lat":39.72768,"lng":-104.90384,"kind":"restaurant","cuisine":"sushi"},{"name":"Moon Gate Asian Grill","lat":39.72784,"lng":-104.90383,"kind":"restaurant","cuisine":"asian"},{"name":"Starbucks","lat":39.72059,"lng":-104.90146,"kind":"cafe","cuisine":"coffee shop"},{"name":"El Gran Jardin","lat":39.70566,"lng":-104.8778,"kind":"restaurant","cuisine":"mexican"},{"name":"Syrup","lat":39.74633,"lng":-104.96009,"kind":"restaurant","cuisine":"american"},{"name":"Table 6","lat":39.72585,"lng":-104.97423,"kind":"restaurant","cuisine":"new american"},{"name":"Brothers BBQ","lat":39.72534,"lng":-104.97834,"kind":"restaurant","cuisine":"barbecue"},{"name":"Pablo's Coffee","lat":39.72549,"lng":-104.97893,"kind":"cafe","cuisine":"coffee shop"},{"name":"Angelo's Taverna","lat":39.72549,"lng":-104.97913,"kind":"restaurant","cuisine":"seafood"},{"name":"Supreme Chicken","lat":39.73986,"lng":-104.92426,"kind":"restaurant","cuisine":"mexican"},{"name":"Axum Ethiopian","lat":39.74036,"lng":-104.92315,"kind":"restaurant","cuisine":"international"},{"name":"Starbucks","lat":39.72063,"lng":-104.90315,"kind":"cafe","cuisine":"coffee shop"},{"name":"The Delectable Egg","lat":39.72129,"lng":-104.90317,"kind":"restaurant","cuisine":"american"},{"name":"Walter's303 Pizzeria & Publik House","lat":39.72011,"lng":-104.90243,"kind":"restaurant","cuisine":"pizza"},{"name":"Thirsty Lion Gastropub & Grill","lat":39.7523,"lng":-105.00087,"kind":"restaurant","cuisine":"gastropub"},{"name":"Syrup","lat":39.74902,"lng":-104.99166,"kind":"restaurant","cuisine":"breakfast"},{"name":"JWU Perk","lat":39.74633,"lng":-104.90484,"kind":"cafe","cuisine":"coffee shop"},{"name":"Outtakes","lat":39.74577,"lng":-104.90661,"kind":"restaurant","cuisine":"american"},{"name":"Campus Dining Center","lat":39.7467,"lng":-104.90617,"kind":"restaurant","cuisine":"american"},{"name":"Famous Philly Cheese Steak & Beer Garden","lat":39.75003,"lng":-104.90781,"kind":"restaurant","cuisine":"american"},{"name":"Spicy Thai II Asian Grill & Sushi","lat":39.75055,"lng":-104.90862,"kind":"restaurant","cuisine":"thai"},{"name":"Allegra's Pizza","lat":39.75049,"lng":-104.9078,"kind":"restaurant","cuisine":"pizza"},{"name":"Tokyo Joe's","lat":39.69627,"lng":-104.82516,"kind":"restaurant","cuisine":"japanese"},{"name":"Walter’s303 Pizzeria & Publik House","lat":39.62256,"lng":-105.03466,"kind":"restaurant","cuisine":"pizza"},{"name":"Walter’s303 Pizzeria & Publik House","lat":39.74634,"lng":-104.97971,"kind":"restaurant","cuisine":"pizza"},{"name":"Cochino Taco","lat":39.65338,"lng":-104.97397,"kind":"restaurant","cuisine":"tacos"},{"name":"Undici","lat":39.65296,"lng":-104.97332,"kind":"restaurant","cuisine":"italian"},{"name":"Bangkok Cafe","lat":39.65336,"lng":-104.97324,"kind":"restaurant","cuisine":"thai"},{"name":"Pino's Place","lat":39.65287,"lng":-104.97081,"kind":"restaurant","cuisine":"pizza"},{"name":"South Philly Cheese Steaks","lat":39.6527,"lng":-104.97101,"kind":"restaurant","cuisine":"american"},{"name":"Caribou Coffee","lat":39.65297,"lng":-104.9707,"kind":"cafe","cuisine":"coffee shop"},{"name":"Starbucks","lat":39.67717,"lng":-104.97232,"kind":"cafe","cuisine":"coffee shop"},{"name":"Taste of Thailand","lat":39.65301,"lng":-104.98147,"kind":"restaurant","cuisine":"thai"},{"name":"Pizza Hut","lat":39.64202,"lng":-104.98734,"kind":"restaurant","cuisine":"pizza"},{"name":"Starbucks","lat":39.64959,"lng":-105.00557,"kind":"cafe","cuisine":"coffee shop"},{"name":"Strawberries Catering & Cafe","lat":39.65246,"lng":-105.01035,"kind":"cafe","cuisine":"coffee shop"},{"name":"Pantaleone's","lat":39.67774,"lng":-104.92165,"kind":"restaurant","cuisine":"pizza"},{"name":"Kochi Cafe","lat":39.72911,"lng":-104.93926,"kind":"cafe","cuisine":"coffee shop"},{"name":"Sushi Harbor","lat":39.7291,"lng":-104.93856,"kind":"restaurant","cuisine":"sushi"},{"name":"The Broken Tee Grill","lat":39.64323,"lng":-105.01247,"kind":"restaurant","cuisine":"american"},{"name":"Tin Cup Bar & Grill","lat":39.71579,"lng":-104.84187,"kind":"restaurant","cuisine":"american"},{"name":"Peoria Cafe & BBQ","lat":39.76309,"lng":-104.84606,"kind":"restaurant","cuisine":"american"},{"name":"Starbucks","lat":39.74042,"lng":-104.81445,"kind":"cafe","cuisine":"coffee shop"},{"name":"Fire Wings","lat":39.6961,"lng":-104.82522,"kind":"restaurant","cuisine":"chicken"},{"name":"Pudge Bros. Pizza","lat":39.677,"lng":-104.91473,"kind":"restaurant","cuisine":"pizza"},{"name":"La Fogata","lat":39.67818,"lng":-104.92128,"kind":"restaurant","cuisine":"mexican"},{"name":"BJ's","lat":39.71227,"lng":-104.81991,"kind":"restaurant","cuisine":"american"},{"name":"Taco Mex","lat":39.67631,"lng":-104.80949,"kind":"restaurant","cuisine":"mexican"},{"name":"Pizza Hut","lat":39.76249,"lng":-104.94019,"kind":"restaurant","cuisine":"pizza"},{"name":"True Food Kitchen","lat":39.71926,"lng":-104.95443,"kind":"restaurant","cuisine":"american"},{"name":"Mama Louise Italian Restaurant","lat":39.61028,"lng":-104.80964,"kind":"restaurant","cuisine":"italian"},{"name":"Chai & Chai","lat":39.74375,"lng":-104.8413,"kind":"restaurant","cuisine":"indian"},{"name":"Dazbog Coffee","lat":39.74385,"lng":-104.84188,"kind":"cafe","cuisine":"coffee shop"},{"name":"Bookstore Brew","lat":39.74665,"lng":-104.83723,"kind":"cafe","cuisine":"coffee shop"},{"name":"Buffalo Wild Wings","lat":39.88689,"lng":-105.07471,"kind":"restaurant","cuisine":"wings"},{"name":"East Moon Asian Bistro & Sushi","lat":39.88661,"lng":-105.07515,"kind":"restaurant","cuisine":"asian"},{"name":"Etai's Bakery Cafe","lat":39.74547,"lng":-104.84045,"kind":"restaurant","cuisine":"sandwich"},{"name":"Courtyard Cafe","lat":39.74261,"lng":-104.84017,"kind":"restaurant","cuisine":"american"},{"name":"Dazbog Coffee","lat":39.74223,"lng":-104.84041,"kind":"cafe","cuisine":"coffee shop"},{"name":"Starbucks","lat":39.74519,"lng":-104.83493,"kind":"cafe","cuisine":"coffee shop"},{"name":"Rico Pollo","lat":39.74052,"lng":-104.88263,"kind":"restaurant","cuisine":"mexican"},{"name":"Sun Rise Chinese Food","lat":39.74044,"lng":-104.88191,"kind":"restaurant","cuisine":"chinese"},{"name":"Tacos y Salsas","lat":39.74032,"lng":-104.88212,"kind":"restaurant","cuisine":"mexican"},{"name":"Tacos Acapulco","lat":39.73992,"lng":-104.88482,"kind":"restaurant","cuisine":"mexican"},{"name":"Los Toritos","lat":39.7404,"lng":-104.8785,"kind":"restaurant","cuisine":"mexican"},{"name":"La Morena","lat":39.7399,"lng":-104.8754,"kind":"restaurant","cuisine":"mexican"},{"name":"LaMar's Donuts","lat":39.87701,"lng":-105.09389,"kind":"cafe","cuisine":"donut"},{"name":"Cedar Creek Pub","lat":39.74835,"lng":-104.8369,"kind":"restaurant","cuisine":"american"},{"name":"Intermission Cafe","lat":39.74553,"lng":-104.83508,"kind":"restaurant","cuisine":"american"},{"name":"Huckleberry Roasters","lat":39.72068,"lng":-104.98772,"kind":"cafe","cuisine":"coffee shop"},{"name":"The Bardo Coffee House","lat":39.71225,"lng":-104.98725,"kind":"cafe","cuisine":"coffee shop"},{"name":"Lobby Latte","lat":39.74246,"lng":-104.8398,"kind":"cafe","cuisine":"coffee shop"},{"name":"Garden View Cafe","lat":39.74266,"lng":-104.84208,"kind":"cafe","cuisine":"coffee shop"},{"name":"Caribou Coffee","lat":39.73995,"lng":-104.8279,"kind":"cafe","cuisine":"coffee shop"},{"name":"Noodles & Company","lat":39.73978,"lng":-104.82801,"kind":"restaurant","cuisine":"pasta"},{"name":"Mama Alvino's Pizzeria","lat":39.74148,"lng":-104.81117,"kind":"restaurant","cuisine":"italian"},{"name":"Carniceria Los Plebes","lat":39.74087,"lng":-104.82284,"kind":"restaurant","cuisine":"mexican"},{"name":"Jewel of India","lat":39.88244,"lng":-105.02738,"kind":"restaurant","cuisine":"indian"},{"name":"Nu Espresso & Tea Bar","lat":39.74913,"lng":-104.83778,"kind":"cafe","cuisine":"coffee shop"},{"name":"City Donuts","lat":39.72754,"lng":-104.84689,"kind":"cafe","cuisine":"coffee shop"},{"name":"China Chef","lat":39.72657,"lng":-104.84631,"kind":"restaurant","cuisine":"chinese"},{"name":"Sue of Siam","lat":39.72864,"lng":-104.84647,"kind":"restaurant","cuisine":"thai"},{"name":"Pho Duy","lat":39.72667,"lng":-104.8447,"kind":"restaurant","cuisine":"vietnamese"},{"name":"Las Tortugas","lat":39.72731,"lng":-104.84487,"kind":"restaurant","cuisine":"mexican"},{"name":"Copper Door Coffee","lat":39.72005,"lng":-104.89633,"kind":"cafe","cuisine":"coffee shop"},{"name":"Tokio","lat":39.75855,"lng":-104.99742,"kind":"restaurant","cuisine":"japanese"},{"name":"DaSauce","lat":39.75855,"lng":-104.99751,"kind":"restaurant","cuisine":"pizza"},{"name":"Starbucks","lat":39.76544,"lng":-104.99453,"kind":"cafe","cuisine":"coffee shop"},{"name":"Starbucks","lat":39.77846,"lng":-104.84745,"kind":"cafe","cuisine":"coffee shop"},{"name":"Arjuua!!","lat":39.77764,"lng":-104.84642,"kind":"restaurant","cuisine":"mexican"},{"name":"Obento","lat":39.74541,"lng":-104.99226,"kind":"restaurant","cuisine":"japanese"},{"name":"Mad Greens","lat":39.74571,"lng":-104.99262,"kind":"restaurant","cuisine":"salad"},{"name":"Mici Handcrafted Italian","lat":39.74553,"lng":-104.99371,"kind":"restaurant","cuisine":"italian"},{"name":"Mint Indian Restaurant & Lounge","lat":39.74544,"lng":-104.99384,"kind":"restaurant","cuisine":"indian"},{"name":"Ruth's Chris Steak House","lat":39.74444,"lng":-104.99339,"kind":"restaurant","cuisine":"american"},{"name":"Modern Market Eatery","lat":39.74653,"lng":-104.9942,"kind":"restaurant","cuisine":"american"},{"name":"Proto's Pizza","lat":39.75681,"lng":-105.00908,"kind":"restaurant","cuisine":"pizza"},{"name":"Jason's Deli","lat":39.74515,"lng":-104.99251,"kind":"restaurant","cuisine":"sandwich"},{"name":"ink! Coffee","lat":39.74469,"lng":-104.99178,"kind":"cafe","cuisine":"coffee shop"},{"name":"Comal Heritage Food Incubator","lat":39.77206,"lng":-104.98213,"kind":"restaurant","cuisine":"latin american"},{"name":"Acorn","lat":39.76862,"lng":-104.97988,"kind":"restaurant","cuisine":"american"},{"name":"Little Man Ice Cream","lat":39.75946,"lng":-105.01108,"kind":"restaurant","cuisine":"ice cream"},{"name":"Tamales by La Casita","lat":39.76648,"lng":-105.01158,"kind":"restaurant","cuisine":"mexican"},{"name":"Lechuga's Italian Restaurant and Lounge","lat":39.76698,"lng":-105.01144,"kind":"restaurant","cuisine":"italian"},{"name":"La Mexicana Taqueria","lat":39.76192,"lng":-105.01846,"kind":"restaurant","cuisine":"mexican"},{"name":"Patzcuaro's Mexican Restaurant","lat":39.76187,"lng":-105.01942,"kind":"restaurant","cuisine":"mexican"},{"name":"Park Burger Highlands","lat":39.76212,"lng":-105.02004,"kind":"restaurant","cuisine":"burger"},{"name":"Tacos Tijuana","lat":39.73896,"lng":-104.80962,"kind":"restaurant","cuisine":"mexican"},{"name":"Bastien's Restaurant","lat":39.74032,"lng":-104.94629,"kind":"restaurant","cuisine":"steak house"},{"name":"Mama Jo's Chicken, Biscuits, BBq","lat":39.74034,"lng":-104.94567,"kind":"restaurant","cuisine":"american"},{"name":"Little Ollie's Sushi","lat":39.72083,"lng":-104.95859,"kind":"restaurant","cuisine":"asian"},{"name":"Marquis Pizza","lat":39.7533,"lng":-104.99238,"kind":"restaurant","cuisine":"pizza"},{"name":"The Cheesecake Factory","lat":39.74922,"lng":-104.99713,"kind":"restaurant","cuisine":"american"},{"name":"Corner Bakery","lat":39.74831,"lng":-104.99592,"kind":"cafe","cuisine":"coffee shop"},{"name":"Starbucks","lat":39.74573,"lng":-104.99752,"kind":"cafe","cuisine":"coffee shop"},{"name":"Tokyo Joe's","lat":39.74793,"lng":-104.99524,"kind":"restaurant","cuisine":"asian"},{"name":"Backcountry Delicatessen","lat":39.75158,"lng":-104.9998,"kind":"restaurant","cuisine":"sandwich"},{"name":"The Whittier Pub","lat":39.75684,"lng":-104.96326,"kind":"restaurant","cuisine":"burger"},{"name":"Ohana Island Kitchen","lat":39.75817,"lng":-105.01127,"kind":"restaurant","cuisine":"regional"},{"name":"Work and Class","lat":39.75759,"lng":-104.98627,"kind":"restaurant","cuisine":"american"},{"name":"Cole Craft Coffee","lat":39.76464,"lng":-104.96031,"kind":"cafe","cuisine":"coffee"},{"name":"Los Chingones","lat":39.75759,"lng":-104.98683,"kind":"restaurant","cuisine":"mexican"},{"name":"Chen's Garden","lat":39.67676,"lng":-104.91466,"kind":"restaurant","cuisine":"chinese"},{"name":"Snowl Snow Bowl","lat":39.68154,"lng":-104.8649,"kind":"cafe","cuisine":"ice cream"},{"name":"TGI Fridays","lat":39.78517,"lng":-104.89359,"kind":"restaurant","cuisine":"american"},{"name":"The Lift Restaurant & Lounge","lat":39.62632,"lng":-104.9016,"kind":"restaurant","cuisine":"american"},{"name":"Front Range Trading Post","lat":39.62652,"lng":-104.90135,"kind":"cafe","cuisine":"coffee shop"},{"name":"Griffin Tavern","lat":39.62553,"lng":-104.89904,"kind":"restaurant","cuisine":"american"},{"name":"Caribou Coffee","lat":39.62527,"lng":-104.90004,"kind":"cafe","cuisine":"coffee shop"},{"name":"Shanahan's","lat":39.62444,"lng":-104.90032,"kind":"restaurant","cuisine":"steak house"},{"name":"Sandwich Board","lat":39.62738,"lng":-104.89783,"kind":"restaurant","cuisine":"sandwich"},{"name":"Mali Thai Cuisine","lat":39.62712,"lng":-104.89546,"kind":"restaurant","cuisine":"thai"},{"name":"House of Commons","lat":39.7569,"lng":-105.00896,"kind":"cafe","cuisine":"tea"},{"name":"Cart Driver","lat":39.75753,"lng":-104.98614,"kind":"restaurant","cuisine":"pizza"},{"name":"Rioja","lat":39.74787,"lng":-104.99938,"kind":"restaurant","cuisine":"mediterranean"},{"name":"Illegal Pete's","lat":39.75096,"lng":-104.99997,"kind":"restaurant","cuisine":"mexican"},{"name":"The Kitchen Denver","lat":39.75101,"lng":-105.00005,"kind":"restaurant","cuisine":"american"},{"name":"Sakura House","lat":39.7518,"lng":-104.99308,"kind":"restaurant","cuisine":"japanese"},{"name":"Luca Italian Restaurant","lat":39.72755,"lng":-104.98382,"kind":"restaurant","cuisine":"italian"},{"name":"Mizuna","lat":39.72743,"lng":-104.98414,"kind":"restaurant","cuisine":"american"},{"name":"Denny's","lat":39.76295,"lng":-104.79277,"kind":"restaurant","cuisine":"american"},{"name":"Gaetano's","lat":39.76912,"lng":-105.01102,"kind":"restaurant","cuisine":"italian"},{"name":"Claim Bar & Restaurant","lat":39.82379,"lng":-104.77556,"kind":"restaurant","cuisine":"american"},{"name":"Cafe Brazil","lat":39.77711,"lng":-105.03448,"kind":"restaurant","cuisine":"brazilian"},{"name":"Pizzaria Leopold","lat":39.74711,"lng":-105.08098,"kind":"restaurant","cuisine":"italian"},{"name":"GyroZ","lat":39.67461,"lng":-104.83059,"kind":"restaurant","cuisine":"kebab"},{"name":"Legends of Aurora Sports Grill","lat":39.67437,"lng":-104.83198,"kind":"restaurant","cuisine":"american"},{"name":"Dragon Boat","lat":39.67541,"lng":-104.83082,"kind":"restaurant","cuisine":"chinese"},{"name":"Maria Empanada","lat":39.69317,"lng":-104.98724,"kind":"restaurant","cuisine":"argentinian"},{"name":"Blue Island Oyster Bar","lat":39.71962,"lng":-104.9566,"kind":"restaurant","cuisine":"seafood"},{"name":"Da Lat Vietnamese Restaurant","lat":39.69959,"lng":-105.02483,"kind":"restaurant","cuisine":"vietnamese"},{"name":"El Angel","lat":39.76081,"lng":-104.84809,"kind":"restaurant","cuisine":"mexican"},{"name":"Pho 77","lat":39.76029,"lng":-104.84788,"kind":"restaurant","cuisine":"vietnamese"},{"name":"House of Ribs","lat":39.76116,"lng":-104.84814,"kind":"restaurant","cuisine":"american"},{"name":"Chez Thuy","lat":39.69828,"lng":-105.0247,"kind":"restaurant","cuisine":"vietnamese"},{"name":"Tacos El Paisa","lat":39.74693,"lng":-105.02486,"kind":"restaurant","cuisine":"mexican"},{"name":"The Walnut Room","lat":39.76457,"lng":-104.97981,"kind":"restaurant","cuisine":"pizza"},{"name":"Little India Restaurant & Bar Highlands","lat":39.76201,"lng":-105.03444,"kind":"restaurant","cuisine":"indian"},{"name":"Ubon Thai","lat":39.762,"lng":-105.03383,"kind":"restaurant","cuisine":"thai"},{"name":"High Point Creamery","lat":39.71287,"lng":-104.92244,"kind":"restaurant","cuisine":"ice cream"},{"name":"Parkburger","lat":39.71296,"lng":-104.92244,"kind":"restaurant","cuisine":"burger"},{"name":"Snarf's","lat":39.75719,"lng":-104.98773,"kind":"restaurant","cuisine":"sandwich"},{"name":"KT's Real Good BBQ","lat":39.77362,"lng":-104.94018,"kind":"restaurant","cuisine":"american"},{"name":"Starbucks","lat":39.77341,"lng":-104.9402,"kind":"cafe","cuisine":"coffee shop"},{"name":"Ho Mei","lat":39.7628,"lng":-104.94023,"kind":"restaurant","cuisine":"chinese"},{"name":"Starbucks","lat":39.7503,"lng":-105.05364,"kind":"cafe","cuisine":"coffee shop"},{"name":"Lakeview Lounge","lat":39.75096,"lng":-105.05361,"kind":"restaurant","cuisine":"american"},{"name":"Edgewater Inn","lat":39.75288,"lng":-105.05469,"kind":"restaurant","cuisine":"pizza"},{"name":"Cherry Bean Coffee","lat":39.77282,"lng":-105.01139,"kind":"cafe","cuisine":"coffee shop"},{"name":"Bar Red","lat":39.74023,"lng":-104.99408,"kind":"restaurant","cuisine":"italian"},{"name":"Cheddar's","lat":39.88263,"lng":-104.98167,"kind":"restaurant","cuisine":"american"},{"name":"Xiquita Restaurante y Bar","lat":39.74606,"lng":-104.98094,"kind":"restaurant","cuisine":"mexican"},{"name":"Starbucks","lat":39.74362,"lng":-104.98709,"kind":"cafe","cuisine":"coffee shop"},{"name":"Park & Company","lat":39.74345,"lng":-104.98131,"kind":"restaurant","cuisine":"burger"},{"name":"Nocturne Jazz & Supper Club","lat":39.75962,"lng":-104.98455,"kind":"restaurant","cuisine":"american"},{"name":"Mantra","lat":39.73494,"lng":-104.98765,"kind":"restaurant","cuisine":"indian"},{"name":"eiskaffee","lat":39.73399,"lng":-104.98721,"kind":"cafe","cuisine":"coffee shop"},{"name":"Sassafras American Eatery","lat":39.73987,"lng":-104.98289,"kind":"restaurant","cuisine":"southern"},{"name":"Columbine Steak House & Lounge","lat":39.72134,"lng":-105.02483,"kind":"restaurant","cuisine":"steak house"},{"name":"Restaurante La Pily Denver","lat":39.71078,"lng":-105.03272,"kind":"restaurant","cuisine":"mexican"},{"name":"Pizza and Grill","lat":39.73183,"lng":-104.98596,"kind":"restaurant","cuisine":"mexican"},{"name":"Wasabi","lat":39.70852,"lng":-105.07714,"kind":"restaurant","cuisine":"japanese"},{"name":"SubCulture","lat":39.73697,"lng":-104.98085,"kind":"restaurant","cuisine":"sandwich"},{"name":"Pablo's Coffee","lat":39.73717,"lng":-104.98085,"kind":"cafe","cuisine":"coffee shop"},{"name":"Thai Flavor Restaurant","lat":39.69893,"lng":-104.84616,"kind":"restaurant","cuisine":"thai"},{"name":"Village Inn","lat":39.78333,"lng":-104.99213,"kind":"restaurant","cuisine":"american"},{"name":"Jelly Cafe","lat":39.73673,"lng":-104.97973,"kind":"cafe","cuisine":"sandwich"},{"name":"Saffron Grill","lat":39.73064,"lng":-105.10923,"kind":"restaurant","cuisine":"kebab"},{"name":"Tacos DF","lat":39.67931,"lng":-104.87569,"kind":"restaurant","cuisine":"mexican"},{"name":"Gyros & Kabobs","lat":39.67963,"lng":-104.87612,"kind":"restaurant","cuisine":"kebab"},{"name":"Slice Works","lat":39.73983,"lng":-104.97861,"kind":"restaurant","cuisine":"pizza"},{"name":"Samarkand","lat":39.68347,"lng":-104.88089,"kind":"restaurant","cuisine":"russian"},{"name":"J's Noodles & New Thai","lat":39.68347,"lng":-104.88066,"kind":"restaurant","cuisine":"thai"},{"name":"Li's Chinese","lat":39.899,"lng":-105.05401,"kind":"restaurant","cuisine":"chinese"},{"name":"Osage Cafe","lat":39.73359,"lng":-105.00547,"kind":"restaurant","cuisine":"international"},{"name":"CAVA","lat":39.67978,"lng":-104.94122,"kind":"restaurant","cuisine":"mediterranean"},{"name":"Spicy Thai","lat":39.67881,"lng":-104.93876,"kind":"restaurant","cuisine":"thai"},{"name":"Salita","lat":39.72743,"lng":-104.98383,"kind":"cafe","cuisine":"coffee shop"},{"name":"El Jakalito Tacoss","lat":39.67497,"lng":-104.90281,"kind":"restaurant","cuisine":"mexican"},{"name":"Starbucks","lat":39.7309,"lng":-104.97398,"kind":"cafe","cuisine":"coffee shop"},{"name":"Alchemy Coffee & Bike Shop","lat":39.68115,"lng":-104.89875,"kind":"cafe","cuisine":"coffee shop"},{"name":"Pizza Hut","lat":39.72587,"lng":-104.98402,"kind":"restaurant","cuisine":"pizza"},{"name":"Gaia Masala & Burger","lat":39.72614,"lng":-104.98402,"kind":"restaurant","cuisine":"burger"},{"name":"Syrup Cap Hill","lat":39.72712,"lng":-104.98193,"kind":"restaurant","cuisine":"breakfast"},{"name":"Odyssey Italian Restaurant","lat":39.72577,"lng":-104.97973,"kind":"restaurant","cuisine":"italian"},{"name":"Fontana Sushi","lat":39.72574,"lng":-104.97859,"kind":"restaurant","cuisine":"sushi"},{"name":"Sam's No. 3 - Glendale","lat":39.70831,"lng":-104.93372,"kind":"restaurant","cuisine":"american"},{"name":"Ugly Rice","lat":39.67449,"lng":-104.88962,"kind":"restaurant","cuisine":"korean"},{"name":"5 Star Cafe","lat":39.67456,"lng":-104.88995,"kind":"restaurant","cuisine":"Ethiopian"},{"name":"Golden Flame Hot Wings","lat":39.65474,"lng":-104.76916,"kind":"restaurant","cuisine":"chicken"},{"name":"El Taco De Mexico","lat":39.72764,"lng":-104.99829,"kind":"restaurant","cuisine":"mexican"},{"name":"Aquarium Restaurant","lat":39.75176,"lng":-105.01341,"kind":"restaurant","cuisine":"seafood"},{"name":"Rocky Yama Sushi","lat":39.72924,"lng":-104.99883,"kind":"restaurant","cuisine":"sushi"},{"name":"Sizzling Hibachi","lat":39.72904,"lng":-104.9967,"kind":"restaurant","cuisine":"japanese"},{"name":"Swift's Breakfast House","lat":39.7312,"lng":-104.99849,"kind":"restaurant","cuisine":"breakfast"},{"name":"Starbucks","lat":39.73754,"lng":-104.99823,"kind":"cafe","cuisine":"coffee shop"},{"name":"Tacos Selene Denver","lat":39.73225,"lng":-104.99881,"kind":"restaurant","cuisine":"mexican"},{"name":"Greenwood Village Cafe","lat":39.63181,"lng":-104.88396,"kind":"cafe","cuisine":"coffee shop"},{"name":"Tablón Coffee","lat":39.69042,"lng":-104.92336,"kind":"cafe","cuisine":"coffee shop"},{"name":"Basil Doc's Pizza","lat":39.68983,"lng":-104.92362,"kind":"restaurant","cuisine":"pizza"},{"name":"Sojourners Coffee & Tea","lat":39.68926,"lng":-104.92275,"kind":"cafe","cuisine":"coffee shop"},{"name":"Domo Restaurant","lat":39.73827,"lng":-105.00549,"kind":"restaurant","cuisine":"japanese"},{"name":"Yak and Yeti Restaurant & Brewpub","lat":39.80233,"lng":-105.08417,"kind":"restaurant","cuisine":"indian"},{"name":"Illegal Pete's","lat":39.61916,"lng":-104.88934,"kind":"restaurant","cuisine":"mexican"},{"name":"Cicis","lat":39.69504,"lng":-104.82488,"kind":"restaurant","cuisine":"pizza"},{"name":"Taqueria Los Gordos","lat":39.69836,"lng":-104.81785,"kind":"restaurant","cuisine":"mexican"},{"name":"Hibachi Grill & Supreme Buffet","lat":39.69826,"lng":-104.81813,"kind":"restaurant","cuisine":"asian"},{"name":"The Armadillo","lat":39.69707,"lng":-104.81322,"kind":"restaurant","cuisine":"mexican"},{"name":"East Cafe","lat":39.69631,"lng":-104.81193,"kind":"restaurant","cuisine":"chinese"},{"name":"Tortisimas","lat":39.69729,"lng":-104.81313,"kind":"restaurant","cuisine":"mexican"},{"name":"Oasis Bar & Grill","lat":39.69571,"lng":-104.81241,"kind":"restaurant","cuisine":"american"},{"name":"Dazbog","lat":39.69538,"lng":-104.79165,"kind":"cafe","cuisine":"coffee shop"},{"name":"El Tarahumara","lat":39.69602,"lng":-104.80769,"kind":"restaurant","cuisine":"mexican"},{"name":"Village Inn","lat":39.67446,"lng":-104.81154,"kind":"restaurant","cuisine":"american"},{"name":"Dutch Bros. Coffee","lat":39.77196,"lng":-105.08187,"kind":"cafe","cuisine":"coffee shop"},{"name":"Athenian Restaurant","lat":39.67459,"lng":-104.80846,"kind":"restaurant","cuisine":"greek"},{"name":"The French Press","lat":39.67424,"lng":-104.81038,"kind":"cafe","cuisine":"coffee shop"},{"name":"Tacos & Salsas","lat":39.67595,"lng":-104.80837,"kind":"restaurant","cuisine":"mexican"},{"name":"Anthony's Pizza & Pasta","lat":39.61133,"lng":-104.75161,"kind":"restaurant","cuisine":"pizza"},{"name":"Shiso Sushi & Oyster Bar","lat":39.75053,"lng":-105.05369,"kind":"restaurant","cuisine":"sushi"},{"name":"Brothers BBQ","lat":39.74063,"lng":-105.04718,"kind":"restaurant","cuisine":"american"},{"name":"Frank's Bar-B-Que","lat":39.7402,"lng":-105.04775,"kind":"restaurant","cuisine":"american"},{"name":"The Taco House","lat":39.73738,"lng":-105.08183,"kind":"restaurant","cuisine":"mexican"},{"name":"Danny's Carnation Restaurant","lat":39.7381,"lng":-105.08187,"kind":"restaurant","cuisine":"american"},{"name":"Dickey's Barbecue Pit","lat":39.74086,"lng":-105.08182,"kind":"restaurant","cuisine":"barbecue"},{"name":"Big Daddy's Pizza","lat":39.73053,"lng":-105.08105,"kind":"restaurant","cuisine":"pizza"},{"name":"Starbucks","lat":39.73238,"lng":-105.08196,"kind":"cafe","cuisine":"coffee shop"},{"name":"Lookin' Good Restaurant & Lounge","lat":39.71793,"lng":-105.05289,"kind":"restaurant","cuisine":"american"},{"name":"Szechuan Chinese Restaurant","lat":39.72476,"lng":-105.09827,"kind":"restaurant","cuisine":"chinese"},{"name":"Ted's Montana Grill","lat":39.71043,"lng":-105.07663,"kind":"restaurant","cuisine":"american"},{"name":"Village Roaster","lat":39.7122,"lng":-105.1006,"kind":"cafe","cuisine":"coffee shop"},{"name":"Big Daddy's Burger Bar","lat":39.60627,"lng":-104.70908,"kind":"restaurant","cuisine":"burger"},{"name":"Poke-Men","lat":39.60627,"lng":-104.70939,"kind":"restaurant","cuisine":"hawaiian"},{"name":"Pho 97","lat":39.60627,"lng":-104.70835,"kind":"restaurant","cuisine":"vietnamese"},{"name":"Monsoon Indian Restaurant","lat":39.60482,"lng":-104.70774,"kind":"restaurant","cuisine":"indian"},{"name":"Pho 88","lat":39.88308,"lng":-105.02381,"kind":"restaurant","cuisine":"vietnamese"},{"name":"Sweet Bloom Coffee Roasters","lat":39.83783,"lng":-105.08349,"kind":"cafe","cuisine":"coffee shop"},{"name":"Jason's Deli","lat":39.61639,"lng":-104.81695,"kind":"restaurant","cuisine":"sandwich"},{"name":"Jabanero's Mexican Grill","lat":39.6161,"lng":-104.81402,"kind":"restaurant","cuisine":"mexican"},{"name":"Buffalo Wild Wings","lat":39.61616,"lng":-104.81399,"kind":"restaurant","cuisine":"wings"},{"name":"Mi Cocina","lat":39.62378,"lng":-105.00713,"kind":"restaurant","cuisine":"mexican"},{"name":"Starbucks","lat":39.72089,"lng":-104.95694,"kind":"cafe","cuisine":"coffee shop"},{"name":"Amante Coffee at the Oxford","lat":39.75227,"lng":-104.99922,"kind":"cafe","cuisine":"coffee shop"},{"name":"Fontana Sushi","lat":39.61504,"lng":-104.75752,"kind":"restaurant","cuisine":"sushi"},{"name":"Thai Panda","lat":39.61442,"lng":-104.75635,"kind":"restaurant","cuisine":"asian"},{"name":"Zoe's Coffee House","lat":39.90014,"lng":-105.02384,"kind":"cafe","cuisine":"coffee shop"},{"name":"Pizza Hut","lat":39.61403,"lng":-104.75465,"kind":"restaurant","cuisine":"pizza"},{"name":"IHOP","lat":39.70948,"lng":-105.08299,"kind":"restaurant","cuisine":"breakfast"},{"name":"The Rock","lat":39.70939,"lng":-105.07949,"kind":"restaurant","cuisine":"pizza"},{"name":"P.F. Chang's","lat":39.7107,"lng":-105.07718,"kind":"restaurant","cuisine":"asian"},{"name":"Phở-natic","lat":39.74023,"lng":-104.98414,"kind":"restaurant","cuisine":"vietnamese"},{"name":"Ros Siam","lat":39.75507,"lng":-105.02013,"kind":"restaurant","cuisine":"thai"},{"name":"Kalaka","lat":39.7789,"lng":-105.04382,"kind":"restaurant","cuisine":"mexican"},{"name":"Starbucks","lat":39.85809,"lng":-104.66753,"kind":"cafe","cuisine":"coffee shop"},{"name":"Starbucks","lat":39.77637,"lng":-105.02472,"kind":"cafe","cuisine":"coffee shop"},{"name":"Sushi Hai Japanese Steakhouse and Sushi Bar","lat":39.7619,"lng":-105.03476,"kind":"restaurant","cuisine":"sushi"},{"name":"Blue Pan Pizza","lat":39.76203,"lng":-105.03883,"kind":"restaurant","cuisine":"pizza"},{"name":"McCoy's Restaurant","lat":39.78488,"lng":-105.02578,"kind":"restaurant","cuisine":"american"},{"name":"iVibe","lat":39.9007,"lng":-105.05229,"kind":"cafe","cuisine":"coffee shop"},{"name":"Fire","lat":39.73549,"lng":-104.98767,"kind":"restaurant","cuisine":"american"},{"name":"Bacon Social House","lat":39.77624,"lng":-105.01686,"kind":"restaurant","cuisine":"american"},{"name":"Krave It","lat":39.75616,"lng":-104.99161,"kind":"restaurant","cuisine":"pizza"},{"name":"Los Chingones","lat":39.62458,"lng":-104.90718,"kind":"restaurant","cuisine":"mexican"},{"name":"Pie Society Pizza","lat":39.69699,"lng":-104.9336,"kind":"restaurant","cuisine":"pizza"},{"name":"The Donut House","lat":39.66007,"lng":-104.85079,"kind":"cafe","cuisine":"coffee shop"},{"name":"Las Tortugas","lat":39.65948,"lng":-104.84834,"kind":"restaurant","cuisine":"mexican"},{"name":"Masalaa","lat":39.65983,"lng":-104.8484,"kind":"restaurant","cuisine":"indian"},{"name":"Beau Jo's Pizza","lat":39.79309,"lng":-105.07882,"kind":"restaurant","cuisine":"pizza"},{"name":"La Costa","lat":39.74101,"lng":-104.81371,"kind":"restaurant","cuisine":"mexican"},{"name":"Garlic Knot","lat":39.73883,"lng":-104.91572,"kind":"restaurant","cuisine":"pizza"},{"name":"Caribou Coffee","lat":39.85407,"lng":-104.67356,"kind":"cafe","cuisine":"coffee shop"},{"name":"Lavazza","lat":39.85371,"lng":-104.67588,"kind":"cafe","cuisine":"coffee shop"},{"name":"Caribou Coffee","lat":39.85884,"lng":-104.6736,"kind":"cafe","cuisine":"coffee shop"},{"name":"Kabod Coffee","lat":39.85857,"lng":-104.67784,"kind":"cafe","cuisine":"coffee shop"},{"name":"Renegade Burrito","lat":39.85592,"lng":-105.07999,"kind":"restaurant","cuisine":"mexican"},{"name":"G's Tacos","lat":39.87764,"lng":-105.09904,"kind":"restaurant","cuisine":"tacos"},{"name":"Huckleberry Roasters","lat":39.77548,"lng":-105.00676,"kind":"cafe","cuisine":"coffee shop"},{"name":"Pig & the Sprout","lat":39.75669,"lng":-104.99963,"kind":"restaurant","cuisine":"american"},{"name":"Starbucks","lat":39.75735,"lng":-104.99854,"kind":"cafe","cuisine":"coffee shop"},{"name":"Village Inn","lat":39.78493,"lng":-105.02478,"kind":"restaurant","cuisine":"american"},{"name":"Starbucks","lat":39.89054,"lng":-105.06582,"kind":"cafe","cuisine":"coffee shop"},{"name":"Yampa Sandwich Co.","lat":39.62498,"lng":-104.90717,"kind":"restaurant","cuisine":"sandwich"},{"name":"Cuba Cuba DTC","lat":39.61867,"lng":-104.88944,"kind":"restaurant","cuisine":"caribbean"},{"name":"Corner Bakery","lat":39.74328,"lng":-104.99011,"kind":"cafe","cuisine":"coffee shop"},{"name":"Nozomi Sushi Temaki Bar","lat":39.77303,"lng":-105.01108,"kind":"restaurant","cuisine":"japanese"},{"name":"Cafe Ambrosia","lat":39.60854,"lng":-104.74253,"kind":"restaurant","cuisine":"chinese"},{"name":"Burnt End BBQ","lat":39.61841,"lng":-104.88937,"kind":"restaurant","cuisine":"barbecue"},{"name":"The Delectable Egg","lat":39.61938,"lng":-104.88934,"kind":"restaurant","cuisine":"breakfast"},{"name":"Grounds for Dismissal Coffee","lat":39.6733,"lng":-104.87,"kind":"cafe","cuisine":"breakfast"},{"name":"El Valle","lat":39.76959,"lng":-105.02375,"kind":"restaurant","cuisine":"mexican"},{"name":"BearLeek","lat":39.75948,"lng":-104.98615,"kind":"restaurant","cuisine":"american"},{"name":"Coperta","lat":39.74741,"lng":-104.98215,"kind":"restaurant","cuisine":"italian"},{"name":"Vietnamese Cafe","lat":39.88381,"lng":-104.9437,"kind":"restaurant","cuisine":"vietnamese"},{"name":"Starbucks","lat":39.88353,"lng":-104.94251,"kind":"cafe","cuisine":"coffee shop"},{"name":"Dickey's Barbecue Pit","lat":39.87341,"lng":-104.98185,"kind":"restaurant","cuisine":"barbecue"},{"name":"Rhein Haus Denver","lat":39.74834,"lng":-105.00055,"kind":"restaurant","cuisine":"sausage"},{"name":"Bryan’s Dumpling House","lat":39.62291,"lng":-104.89723,"kind":"restaurant","cuisine":"chinese"},{"name":"Fat Sully's Pizza","lat":39.77435,"lng":-105.04416,"kind":"restaurant","cuisine":"pizza"},{"name":"Savina's","lat":39.74473,"lng":-104.9879,"kind":"restaurant","cuisine":"mexican"},{"name":"Ambler","lat":39.75535,"lng":-104.99996,"kind":"restaurant","cuisine":"mediterranean"},{"name":"Starbucks","lat":39.75315,"lng":-105.00301,"kind":"cafe","cuisine":"coffee shop"},{"name":"West Saloon","lat":39.74404,"lng":-104.99044,"kind":"restaurant","cuisine":"american"},{"name":"Buffalo Wild Wings","lat":39.87869,"lng":-104.98311,"kind":"restaurant","cuisine":"wings"},{"name":"Hamburger Mary's","lat":39.74305,"lng":-104.96997,"kind":"restaurant","cuisine":"american"},{"name":"Moxie Eatery","lat":39.7179,"lng":-104.98729,"kind":"cafe","cuisine":"breakfast"},{"name":"Yum Yum Spice","lat":39.67948,"lng":-104.9597,"kind":"restaurant","cuisine":"chinese"},{"name":"Starbucks","lat":39.61007,"lng":-104.88939,"kind":"cafe","cuisine":"coffee shop"},{"name":"La Reyna Azteca & Breakfast","lat":39.6963,"lng":-104.99155,"kind":"restaurant","cuisine":"mexican"},{"name":"Rialto Cafe","lat":39.74689,"lng":-104.99473,"kind":"restaurant","cuisine":"italian"},{"name":"Brooklyn's Finest Pizza","lat":39.78772,"lng":-105.03507,"kind":"restaurant","cuisine":"pizza"},{"name":"Cuba Cuba Cafe & Bar","lat":39.73513,"lng":-104.9932,"kind":"restaurant","cuisine":"cuban"},{"name":"Denver Beer Company","lat":39.67241,"lng":-104.97385,"kind":"restaurant","cuisine":"burger"},{"name":"Tag Restaurant","lat":39.74802,"lng":-104.99919,"kind":"restaurant","cuisine":"seafood"},{"name":"Starbucks","lat":39.73873,"lng":-104.99688,"kind":"cafe","cuisine":"coffee shop"},{"name":"Encanto Cocina Cantina","lat":39.7542,"lng":-104.99074,"kind":"restaurant","cuisine":"mexican"},{"name":"Lazo Empanadas","lat":39.75519,"lng":-104.99041,"kind":"restaurant","cuisine":"mexican"},{"name":"Mexico City Lounge","lat":39.75423,"lng":-104.9912,"kind":"restaurant","cuisine":"mexican"},{"name":"Snooze","lat":39.75556,"lng":-104.98899,"kind":"restaurant","cuisine":"breakfast"},{"name":"Otra Vez Cantina","lat":39.74462,"lng":-104.99168,"kind":"restaurant","cuisine":"mexican"},{"name":"Colorado Campfire","lat":39.74601,"lng":-104.98207,"kind":"restaurant","cuisine":"american"},{"name":"Tupelo Honey Southern Kitchen & Bar","lat":39.75387,"lng":-105.00148,"kind":"restaurant","cuisine":"southern"},{"name":"Huck Coffee Roasters","lat":39.77236,"lng":-105.04386,"kind":"cafe","cuisine":"coffee shop"},{"name":"Okinawa Sushi","lat":39.77167,"lng":-105.04416,"kind":"restaurant","cuisine":"sushi"},{"name":"Ajax Downtown","lat":39.75327,"lng":-105.00228,"kind":"restaurant","cuisine":"american"},{"name":"Blue Sparrow Coffee","lat":39.76434,"lng":-104.98111,"kind":"cafe","cuisine":"coffee shop"},{"name":"Starbucks","lat":39.77602,"lng":-105.03667,"kind":"cafe","cuisine":"coffee shop"},{"name":"Lamar's Doughnuts","lat":39.61987,"lng":-105.01637,"kind":"cafe","cuisine":"donut"},{"name":"Mario’s Speakeasy Pizza","lat":39.74811,"lng":-105.00033,"kind":"restaurant","cuisine":"pizza"},{"name":"Sunrise Sunset","lat":39.72479,"lng":-105.09922,"kind":"restaurant","cuisine":"american"},{"name":"Garrison Street Grill","lat":39.72622,"lng":-105.0998,"kind":"restaurant","cuisine":"american"},{"name":"Pit Fiend Barbecue","lat":39.7605,"lng":-104.98221,"kind":"restaurant","cuisine":"barbecue"},{"name":"Caribou Coffee","lat":39.8492,"lng":-104.674,"kind":"cafe","cuisine":"coffee shop"},{"name":"Kabod Coffee","lat":39.84932,"lng":-104.674,"kind":"cafe","cuisine":"coffee shop"},{"name":"Cantina Grill","lat":39.85855,"lng":-104.67323,"kind":"restaurant","cuisine":"mexican"},{"name":"City Wok","lat":39.85859,"lng":-104.67415,"kind":"restaurant","cuisine":"chinese"},{"name":"Seoul BBQ & Sushi 2","lat":39.88664,"lng":-104.99021,"kind":"restaurant","cuisine":"korean"},{"name":"Starbucks","lat":39.85789,"lng":-104.66601,"kind":"cafe","cuisine":"coffee shop"},{"name":"Tamales by La Casita","lat":39.86268,"lng":-104.67383,"kind":"restaurant","cuisine":"mexican"},{"name":"Caribou Coffee","lat":39.86319,"lng":-104.67594,"kind":"cafe","cuisine":"coffee shop"},{"name":"The Coffee Bean & Tea Leaf","lat":39.86315,"lng":-104.67641,"kind":"cafe","cuisine":"coffee shop"},{"name":"Starbucks","lat":39.62368,"lng":-105.01926,"kind":"cafe","cuisine":"coffee shop"},{"name":"Pho Real","lat":39.61384,"lng":-105.01602,"kind":"restaurant","cuisine":"vietnamese"},{"name":"Menya Noodle Bar","lat":39.7468,"lng":-104.99404,"kind":"restaurant","cuisine":"ramen"},{"name":"Sapor Coffee & Concepts","lat":39.7569,"lng":-105.01805,"kind":"cafe","cuisine":"coffee shop"},{"name":"Rye Society","lat":39.76304,"lng":-104.97933,"kind":"restaurant","cuisine":"jewish"},{"name":"Bourbon Grill","lat":39.74017,"lng":-104.98005,"kind":"restaurant","cuisine":"chicken"},{"name":"Billy's Inn","lat":39.77696,"lng":-105.03501,"kind":"restaurant","cuisine":"mexican"},{"name":"Buffalo Bill's Wings & Things","lat":39.74,"lng":-104.90374,"kind":"restaurant","cuisine":"chicken"},{"name":"Lucy Ethiopian Restaurant & Bar","lat":39.74034,"lng":-104.90208,"kind":"restaurant","cuisine":"international"},{"name":"Marrakesh","lat":39.67507,"lng":-104.94029,"kind":"restaurant","cuisine":"moroccan"},{"name":"Spice Room","lat":39.76963,"lng":-105.029,"kind":"restaurant","cuisine":"indian"},{"name":"Chuladas Mexican Restaurant","lat":39.77178,"lng":-105.0256,"kind":"restaurant","cuisine":"mexican"},{"name":"Capital One Café","lat":39.75291,"lng":-105.00252,"kind":"cafe","cuisine":"coffee shop"},{"name":"Hacienda Colorado","lat":39.74226,"lng":-104.98878,"kind":"restaurant","cuisine":"mexican"},{"name":"Corsica Wine Bar","lat":39.76141,"lng":-104.98396,"kind":"restaurant","cuisine":"french"},{"name":"Frank's Place","lat":39.87123,"lng":-104.97629,"kind":"restaurant","cuisine":"pizza"},{"name":"Taste of Philly","lat":39.87127,"lng":-104.97623,"kind":"restaurant","cuisine":"american"},{"name":"Sabor Mexican Grill","lat":39.71307,"lng":-104.82133,"kind":"restaurant","cuisine":"mexican"},{"name":"Starbucks","lat":39.71547,"lng":-104.82105,"kind":"cafe","cuisine":"coffee shop"},{"name":"Pizza Republica","lat":39.70454,"lng":-104.93911,"kind":"restaurant","cuisine":"pizza"},{"name":"Jax Fish House & Oyster Bar","lat":39.70559,"lng":-104.93928,"kind":"restaurant","cuisine":"seafood"},{"name":"Great American Grill","lat":39.70558,"lng":-104.93981,"kind":"restaurant","cuisine":"american"},{"name":"Cafe Rio","lat":39.70562,"lng":-104.94018,"kind":"restaurant","cuisine":"mexican"},{"name":"Next Door American Eatery","lat":39.7055,"lng":-104.93873,"kind":"restaurant","cuisine":"american"},{"name":"Native Foods Cafe","lat":39.7047,"lng":-104.9395,"kind":"cafe","cuisine":"regional"},{"name":"Garbanzo Mediterranean Grill","lat":39.70534,"lng":-104.94021,"kind":"restaurant","cuisine":"kebab"},{"name":"Platform T","lat":39.70472,"lng":-104.93923,"kind":"cafe","cuisine":"coffee shop"},{"name":"Cuba Cuba","lat":39.70556,"lng":-104.93893,"kind":"restaurant","cuisine":"sandwich"},{"name":"Big Smoke Burger","lat":39.70564,"lng":-104.93907,"kind":"restaurant","cuisine":"burger"},{"name":"Kachina Southwestern Grill","lat":39.8906,"lng":-105.06618,"kind":"restaurant","cuisine":"western"},{"name":"The Wolf's Tailor","lat":39.77278,"lng":-105.0111,"kind":"restaurant","cuisine":"italian"},{"name":"Katsu Ramen","lat":39.68165,"lng":-104.86502,"kind":"restaurant","cuisine":"japanese"},{"name":"Angry Chicken","lat":39.6813,"lng":-104.86546,"kind":"restaurant","cuisine":"chicken"},{"name":"Dae Gee Korean BBQ","lat":39.68186,"lng":-104.86545,"kind":"restaurant","cuisine":"korean"},{"name":"Starbucks","lat":39.69173,"lng":-104.86535,"kind":"cafe","cuisine":"coffee shop"},{"name":"The Empress Seafood Restaurant","lat":39.71145,"lng":-105.02333,"kind":"restaurant","cuisine":"chinese"},{"name":"Little India","lat":39.70872,"lng":-105.07722,"kind":"restaurant","cuisine":"indian"},{"name":"Pete's Kitchen","lat":39.73986,"lng":-104.96365,"kind":"restaurant","cuisine":"greek"},{"name":"Phoenician Kabob","lat":39.74032,"lng":-104.92065,"kind":"restaurant","cuisine":"regional"},{"name":"Copper Door Coffee Roasters","lat":39.73113,"lng":-104.9191,"kind":"cafe","cuisine":"coffee shop"},{"name":"BluNozer Cafe","lat":39.73986,"lng":-104.92084,"kind":"cafe","cuisine":"coffee shop"},{"name":"Little Dragon","lat":39.73703,"lng":-104.9168,"kind":"restaurant","cuisine":"chinese"},{"name":"Super Mega Bien","lat":39.75739,"lng":-104.98653,"kind":"restaurant","cuisine":"latin american"},{"name":"Stoney’s Uptown Joint","lat":39.74341,"lng":-104.97361,"kind":"restaurant","cuisine":"grill"},{"name":"Grimaldi's Pizzeria","lat":39.74343,"lng":-104.99071,"kind":"restaurant","cuisine":"pizza"},{"name":"Henry's Tavern","lat":39.74429,"lng":-104.99135,"kind":"restaurant","cuisine":"american"},{"name":"Pizza Hut","lat":39.78142,"lng":-104.97832,"kind":"restaurant","cuisine":"pizza"},{"name":"(closed) 10 Barrel Brewing Company","lat":39.75947,"lng":-104.98564,"kind":"restaurant","cuisine":"pizza"},{"name":"Butcher Block Cafe","lat":39.78759,"lng":-104.97797,"kind":"restaurant","cuisine":"burger"},{"name":"Vibe Coffee & Wine","lat":39.74604,"lng":-104.996,"kind":"cafe","cuisine":"coffee shop"},{"name":"Mr. Tang","lat":39.66808,"lng":-104.86507,"kind":"restaurant","cuisine":"korean"},{"name":"Rolling Smoke BBQ","lat":39.76918,"lng":-105.07648,"kind":"restaurant","cuisine":"barbecue"},{"name":"Peet's Coffee","lat":39.71927,"lng":-104.95692,"kind":"cafe","cuisine":"coffee shop"},{"name":"FelFel Mediterranean","lat":39.63722,"lng":-104.89493,"kind":"restaurant","cuisine":"kebab"},{"name":"Starbucks","lat":39.88401,"lng":-104.97559,"kind":"cafe","cuisine":"coffee shop"},{"name":"Mi Tierra Mexican Food","lat":39.74469,"lng":-104.60231,"kind":"restaurant","cuisine":"mexican"},{"name":"Elway's","lat":39.7176,"lng":-104.95729,"kind":"restaurant","cuisine":"steak house"},{"name":"Pudge Bros Pizza","lat":39.63738,"lng":-104.89744,"kind":"restaurant","cuisine":"pizza"},{"name":"Shondiz","lat":39.63748,"lng":-104.89722,"kind":"restaurant","cuisine":"persian"},{"name":"Kona Grill","lat":39.71752,"lng":-104.95287,"kind":"restaurant","cuisine":"sushi"},{"name":"California Pizza Kitchen","lat":39.71744,"lng":-104.9525,"kind":"restaurant","cuisine":"pizza"},{"name":"Chianti","lat":39.6235,"lng":-104.88588,"kind":"restaurant","cuisine":"italian"},{"name":"Starbucks","lat":39.62639,"lng":-104.88457,"kind":"cafe","cuisine":"coffee shop"},{"name":"Denny's","lat":39.74303,"lng":-105.02566,"kind":"restaurant","cuisine":"american"},{"name":"The Sen Tea House","lat":39.62491,"lng":-104.88346,"kind":"cafe","cuisine":"bubble tea"},{"name":"Byblos Express Greek & Lebanese","lat":39.62508,"lng":-104.88335,"kind":"restaurant","cuisine":"greek"},{"name":"Ocean Prime","lat":39.62253,"lng":-104.89672,"kind":"restaurant","cuisine":"seafood"},{"name":"Pokeworks","lat":39.62245,"lng":-104.89563,"kind":"restaurant","cuisine":"asian"},{"name":"Enso Sushi & Grill","lat":39.62253,"lng":-104.89581,"kind":"restaurant","cuisine":"sushi"},{"name":"Sonder Coffee & Tea","lat":39.67536,"lng":-104.87515,"kind":"cafe","cuisine":"coffee shop"},{"name":"Tea+","lat":39.63182,"lng":-104.88468,"kind":"cafe","cuisine":"bubble tea"},{"name":"The French Press","lat":39.63231,"lng":-104.88466,"kind":"cafe","cuisine":"coffee shop"},{"name":"China Lee","lat":39.63247,"lng":-104.88445,"kind":"restaurant","cuisine":"chinese"},{"name":"Starbucks","lat":39.66648,"lng":-104.93715,"kind":"cafe","cuisine":"coffee shop"},{"name":"Sudan Cafe & Khairat Injera Bakery","lat":39.67528,"lng":-104.867,"kind":"restaurant","cuisine":"african"},{"name":"Starbucks","lat":39.82858,"lng":-105.05397,"kind":"cafe","cuisine":"coffee shop"},{"name":"By the Bucket","lat":39.60781,"lng":-104.95955,"kind":"restaurant","cuisine":"pasta"},{"name":"Chez Jose","lat":39.60809,"lng":-104.95956,"kind":"restaurant","cuisine":"mexican"},{"name":"Menya","lat":39.60839,"lng":-104.95779,"kind":"restaurant","cuisine":"japanese"},{"name":"Backcountry Delicatessen","lat":39.74449,"lng":-104.98916,"kind":"restaurant","cuisine":"sandwich"},{"name":"Fluid Coffee Bar","lat":39.74673,"lng":-104.99217,"kind":"cafe","cuisine":"coffee shop"},{"name":"SliceWorks","lat":39.75148,"lng":-104.99773,"kind":"restaurant","cuisine":"pizza"},{"name":"A5 Steakhouse","lat":39.75029,"lng":-105.00148,"kind":"restaurant","cuisine":"steak house"},{"name":"Miyabi Jr","lat":39.65217,"lng":-104.90321,"kind":"restaurant","cuisine":"japanese"},{"name":"Ruth's Chris Steak House","lat":39.6243,"lng":-104.90513,"kind":"restaurant","cuisine":"american"},{"name":"Perks","lat":39.63036,"lng":-104.89844,"kind":"cafe","cuisine":"coffee shop"},{"name":"Sansone's Bistro","lat":39.60856,"lng":-104.96055,"kind":"restaurant","cuisine":"italian"},{"name":"Cherry Crest Seafood Restaurant & Market","lat":39.60906,"lng":-104.96046,"kind":"restaurant","cuisine":"seafood"},{"name":"The Original Pancake House","lat":39.60935,"lng":-104.95885,"kind":"restaurant","cuisine":"breakfast"},{"name":"Texas de Brazil","lat":39.78387,"lng":-104.89088,"kind":"restaurant","cuisine":"brazilian"},{"name":"TeaLee’s Teahouse","lat":39.75044,"lng":-104.98426,"kind":"cafe","cuisine":"tea"},{"name":"Taqueria La Familia","lat":39.76186,"lng":-105.02015,"kind":"restaurant","cuisine":"mexican"},{"name":"Seoul K-BBQ & Hot Pot","lat":39.67873,"lng":-104.86519,"kind":"restaurant","cuisine":"korean"},{"name":"Tea Cloud","lat":39.74725,"lng":-104.99273,"kind":"cafe","cuisine":"bubble tea"},{"name":"Corner Bakery","lat":39.74704,"lng":-104.99097,"kind":"cafe","cuisine":"coffee shop"},{"name":"Fifth Coffee House","lat":39.75451,"lng":-104.97794,"kind":"cafe","cuisine":"coffee shop"},{"name":"Miya Moon","lat":39.71691,"lng":-104.98776,"kind":"restaurant","cuisine":"chinese"},{"name":"Starbucks","lat":39.82959,"lng":-105.02548,"kind":"cafe","cuisine":"coffee shop"},{"name":"Saigon Pho Grill","lat":39.82837,"lng":-105.02669,"kind":"restaurant","cuisine":"vietnamese"},{"name":"Fin N' Tonic","lat":39.75753,"lng":-104.98695,"kind":"restaurant","cuisine":"seafood"},{"name":"Sushi Rama","lat":39.6247,"lng":-104.90676,"kind":"restaurant","cuisine":"sushi"},{"name":"Roaming Buffalo Bar-B-Que","lat":39.67337,"lng":-104.9738,"kind":"restaurant","cuisine":"barbecue"},{"name":"Green Giraffe Bar","lat":39.6732,"lng":-104.97367,"kind":"cafe","cuisine":"juice"},{"name":"Mila's Cantina","lat":39.72543,"lng":-104.97804,"kind":"restaurant","cuisine":"mexican"},{"name":"Sun Wah","lat":39.69729,"lng":-104.90433,"kind":"restaurant","cuisine":"chinese"},{"name":"D.P. Dough","lat":39.73987,"lng":-104.97115,"kind":"restaurant","cuisine":"calzone"},{"name":"Izu Sushi","lat":39.73986,"lng":-104.96893,"kind":"restaurant","cuisine":"sushi"},{"name":"Illegal Pete's","lat":39.74018,"lng":-104.96331,"kind":"restaurant","cuisine":"mexican"},{"name":"Olive and Finch Eatery and Bakery","lat":39.74305,"lng":-104.96897,"kind":"restaurant","cuisine":"sandwich"},{"name":"Onefold","lat":39.74471,"lng":-104.96934,"kind":"restaurant","cuisine":"american"},{"name":"Hive Garden Bistro","lat":39.73188,"lng":-104.96287,"kind":"restaurant","cuisine":"burger"},{"name":"StevO's Pizza & Ribs","lat":39.70186,"lng":-104.86551,"kind":"restaurant","cuisine":"pizza"},{"name":"101 Asian Fusion","lat":39.718,"lng":-104.94655,"kind":"restaurant","cuisine":"asian"},{"name":"Kobe An","lat":39.72,"lng":-104.95243,"kind":"restaurant","cuisine":"japanese"},{"name":"Marg's Taco Bistro","lat":39.71983,"lng":-104.95318,"kind":"restaurant","cuisine":"mexican"},{"name":"Grace French Cafe","lat":39.65802,"lng":-104.83848,"kind":"cafe","cuisine":"french"},{"name":"Pho Bowlevard Vietnamese Grill","lat":39.60881,"lng":-105.03743,"kind":"restaurant","cuisine":"vietnamese"},{"name":"My Favorite Muffin","lat":39.60918,"lng":-105.03642,"kind":"cafe","cuisine":"coffee"},{"name":"Enchanted Grounds","lat":39.60997,"lng":-105.03488,"kind":"cafe","cuisine":"coffee shop"},{"name":"Pizza Hut","lat":39.88435,"lng":-104.94187,"kind":"restaurant","cuisine":"pizza"},{"name":"From The Ground Up","lat":39.67281,"lng":-104.94024,"kind":"cafe","cuisine":"coffee shop"},{"name":"Baghdad Restuarant","lat":39.67281,"lng":-104.94039,"kind":"restaurant","cuisine":"kebab"},{"name":"Pema","lat":39.75747,"lng":-104.98701,"kind":"restaurant","cuisine":"indian"},{"name":"Starbucks","lat":39.74705,"lng":-104.99005,"kind":"cafe","cuisine":"coffee shop"},{"name":"Hello Darling","lat":39.75492,"lng":-105.00434,"kind":"cafe","cuisine":"coffee shop"},{"name":"Brooklyn Pizza","lat":39.70141,"lng":-104.91155,"kind":"restaurant","cuisine":"pizza"},{"name":"Pho OK & Boba","lat":39.70154,"lng":-104.91165,"kind":"restaurant","cuisine":"vietnamese"},{"name":"The Garlic Knot","lat":39.69083,"lng":-104.88922,"kind":"restaurant","cuisine":"italian"},{"name":"Denver Poke Company","lat":39.75713,"lng":-105.00821,"kind":"restaurant","cuisine":"seafood"},{"name":"Betolla Bistro","lat":39.67541,"lng":-104.86875,"kind":"restaurant","cuisine":"italian"},{"name":"Dew Drop Inn","lat":39.74341,"lng":-104.97378,"kind":"restaurant","cuisine":"american"},{"name":"HiRa cafe","lat":39.67443,"lng":-104.8631,"kind":"cafe","cuisine":"ethiopian"},{"name":"The Alley","lat":39.61354,"lng":-105.01658,"kind":"restaurant","cuisine":"mexican"},{"name":"Russel’s Smoke House","lat":39.74757,"lng":-104.99913,"kind":"restaurant","cuisine":"barbecue"},{"name":"Morning Collective","lat":39.67726,"lng":-104.98707,"kind":"restaurant","cuisine":"american"},{"name":"Adelitas Cocina Y Cantina","lat":39.6933,"lng":-104.98722,"kind":"restaurant","cuisine":"mexican"},{"name":"Nicolo's Chicago Style Pizza","lat":39.68364,"lng":-105.08574,"kind":"restaurant","cuisine":"pizza"},{"name":"Chaka's","lat":39.67884,"lng":-104.91546,"kind":"restaurant","cuisine":"mexican"},{"name":"Safta","lat":39.7688,"lng":-104.98044,"kind":"restaurant","cuisine":"israeli"},{"name":"Smōk","lat":39.76868,"lng":-104.97943,"kind":"restaurant","cuisine":"israeli"},{"name":"Harbor Dim Sum & Cuisine","lat":39.71004,"lng":-105.01363,"kind":"restaurant","cuisine":"Cantonese"},{"name":"Chada Thai","lat":39.74339,"lng":-104.96319,"kind":"restaurant","cuisine":"thai"},{"name":"Stella's Coffee Haus","lat":39.68968,"lng":-104.98031,"kind":"cafe","cuisine":"breakfast"},{"name":"Homegrown Tap & Dough","lat":39.79929,"lng":-105.08167,"kind":"restaurant","cuisine":"pizza"},{"name":"Brew Culture Coffee","lat":39.74021,"lng":-105.03513,"kind":"cafe","cuisine":"coffee shop"},{"name":"Three Little Griddles","lat":39.60523,"lng":-104.71509,"kind":"restaurant","cuisine":"american"},{"name":"Tap & Burger","lat":39.62517,"lng":-104.90671,"kind":"restaurant","cuisine":"american"},{"name":"Uchi","lat":39.75699,"lng":-104.98539,"kind":"restaurant","cuisine":"japanese"},{"name":"Starbucks","lat":39.81799,"lng":-104.77253,"kind":"cafe","cuisine":"coffee shop"},{"name":"Nonnas Chicago Bistro","lat":39.70256,"lng":-104.91184,"kind":"restaurant","cuisine":"italian"},{"name":"Zocalito Latin Bistro","lat":39.7489,"lng":-104.9917,"kind":"restaurant","cuisine":"latin american"},{"name":"Jovanina’s Broken Italian","lat":39.74986,"lng":-104.99979,"kind":"restaurant","cuisine":"italian"},{"name":"Moonflower Coffee","lat":39.7401,"lng":-105.04206,"kind":"cafe","cuisine":"coffee shop"},{"name":"Monaco Inn","lat":39.69863,"lng":-104.91154,"kind":"restaurant","cuisine":"greek"},{"name":"El Zarape","lat":39.73413,"lng":-105.02542,"kind":"restaurant","cuisine":"mexican"},{"name":"Tacos El Pueblita 2","lat":39.77971,"lng":-104.95841,"kind":"restaurant","cuisine":"mexican"},{"name":"Lucile's Creole Cafe","lat":39.61241,"lng":-105.0244,"kind":"restaurant","cuisine":"breakfast"},{"name":"Queen City Collective Coffee","lat":39.71853,"lng":-104.99235,"kind":"cafe","cuisine":"coffee shop"},{"name":"The Nile","lat":39.68074,"lng":-104.86758,"kind":"restaurant","cuisine":"ethiopian"},{"name":"The Velvet Cellar","lat":39.75098,"lng":-105.00185,"kind":"restaurant","cuisine":"new american"},{"name":"Knockabout Burgers","lat":39.76229,"lng":-105.00605,"kind":"restaurant","cuisine":"spanish"},{"name":"Leven Deli","lat":39.7354,"lng":-104.98986,"kind":"restaurant","cuisine":"deli"},{"name":"Famous Dave's","lat":39.75638,"lng":-104.99524,"kind":"restaurant","cuisine":"barbecue"},{"name":"Maria Empanada","lat":39.75848,"lng":-105.00643,"kind":"restaurant","cuisine":"latin american"},{"name":"Ash’Kara","lat":39.76334,"lng":-105.01155,"kind":"restaurant","cuisine":"middle eastern"},{"name":"Fu Shing Chinese Restaurant","lat":39.88381,"lng":-104.99951,"kind":"restaurant","cuisine":"chinese"},{"name":"The Brunch House","lat":39.87946,"lng":-105.09682,"kind":"restaurant","cuisine":"breakfast"},{"name":"Century Ktu","lat":39.68853,"lng":-104.86771,"kind":"restaurant","cuisine":"asian"},{"name":"Maandeeq Restaurant & Cafe","lat":39.6889,"lng":-104.86708,"kind":"restaurant","cuisine":"east african"},{"name":"Noodles & Company","lat":39.6038,"lng":-104.70828,"kind":"restaurant","cuisine":"pasta"},{"name":"Starbucks","lat":39.60178,"lng":-104.70912,"kind":"cafe","cuisine":"coffee shop"},{"name":"Fortune Kitchen","lat":39.69539,"lng":-104.8465,"kind":"restaurant","cuisine":"asian"},{"name":"Coriander","lat":39.78697,"lng":-104.77163,"kind":"restaurant","cuisine":"indian"},{"name":"Gyros King","lat":39.65272,"lng":-104.81262,"kind":"restaurant","cuisine":"mediterranean"},{"name":"Einstein's Bagels","lat":39.79709,"lng":-105.07866,"kind":"cafe","cuisine":"coffee shop"},{"name":"Rheinlander Bakery","lat":39.80078,"lng":-105.08167,"kind":"restaurant","cuisine":"german"},{"name":"Grandview Tavern and Grill","lat":39.79952,"lng":-105.07996,"kind":"restaurant","cuisine":"american"},{"name":"Los 3 Garcias","lat":39.81987,"lng":-105.05168,"kind":"restaurant","cuisine":"mexican"},{"name":"Brothers Bar & Grill","lat":39.78116,"lng":-104.89234,"kind":"restaurant","cuisine":"burger"},{"name":"The Original Chubby's Mexican Food","lat":39.88651,"lng":-105.02568,"kind":"restaurant","cuisine":"mexican"},{"name":"Coco","lat":39.67437,"lng":-104.86674,"kind":"cafe","cuisine":"bubble tea"},{"name":"Ata Sushi and Sashimi","lat":39.67974,"lng":-104.86506,"kind":"restaurant","cuisine":"sushi"},{"name":"Yong Gung","lat":39.67915,"lng":-104.86491,"kind":"restaurant","cuisine":"korean"},{"name":"Pho 75","lat":39.67908,"lng":-104.86513,"kind":"restaurant","cuisine":"vietnamese"},{"name":"Milkroll Creamery (fall 2019)","lat":39.66733,"lng":-104.86456,"kind":"restaurant","cuisine":"ice cream"},{"name":"El Nopalito Mexican Restaurant","lat":39.7116,"lng":-104.98944,"kind":"restaurant","cuisine":"mexican"},{"name":"Starbucks","lat":39.70727,"lng":-104.98736,"kind":"cafe","cuisine":"coffee shop"},{"name":"Tofu Story","lat":39.6789,"lng":-104.86503,"kind":"restaurant","cuisine":"korean"},{"name":"Gyu-Kaku","lat":39.75552,"lng":-105.00113,"kind":"restaurant","cuisine":"japanese"},{"name":"The Donut Shop","lat":39.70823,"lng":-104.87644,"kind":"cafe","cuisine":"coffee shop"},{"name":"Cafe Ciboulette","lat":39.70823,"lng":-104.87677,"kind":"cafe","cuisine":"coffee shop"},{"name":"Nixtamale Tortilleria and Bakery","lat":39.69581,"lng":-104.84871,"kind":"restaurant","cuisine":"mexican"},{"name":"Menya Ramen & Poke","lat":39.67587,"lng":-104.86547,"kind":"restaurant","cuisine":"japanese"},{"name":"Las Margs at Reunion","lat":39.88401,"lng":-104.80606,"kind":"restaurant","cuisine":"mexican"},{"name":"Saigon Bistro","lat":39.69756,"lng":-104.84526,"kind":"restaurant","cuisine":"vietnamese"},{"name":"Cafe du Coco","lat":39.61264,"lng":-105.0195,"kind":"cafe","cuisine":"coffee shop"},{"name":"Poppies Restaurant","lat":39.67415,"lng":-104.94021,"kind":"restaurant","cuisine":"deli"},{"name":"Pearl of Siam","lat":39.65151,"lng":-104.77064,"kind":"restaurant","cuisine":"thai"},{"name":"Massino's Pizzeria","lat":39.84235,"lng":-105.10918,"kind":"restaurant","cuisine":"pizza"},{"name":"Fontana Sushi II","lat":39.61588,"lng":-105.09364,"kind":"restaurant","cuisine":"sushi"},{"name":"Mehak India's Aroma","lat":39.72043,"lng":-104.94954,"kind":"restaurant","cuisine":"indian"},{"name":"Hunter Bay Coffee Roasters","lat":39.79931,"lng":-105.08129,"kind":"cafe","cuisine":"coffee shop"},{"name":"Cafe Byblos","lat":39.72212,"lng":-104.97384,"kind":"restaurant","cuisine":"mediterranean"},{"name":"Cherry Thai Sushi","lat":39.63741,"lng":-104.82838,"kind":"restaurant","cuisine":"sushi"},{"name":"Starbucks","lat":39.79144,"lng":-105.02478,"kind":"cafe","cuisine":"coffee shop"},{"name":"Izakaya Den","lat":39.68971,"lng":-104.98078,"kind":"restaurant","cuisine":"sushi"},{"name":"Sushi Den","lat":39.68956,"lng":-104.98077,"kind":"restaurant","cuisine":"sushi"},{"name":"Tacos La Morenita Llc","lat":39.65342,"lng":-104.80761,"kind":"restaurant","cuisine":"mexican"},{"name":"Pupusas Paradise","lat":39.65228,"lng":-104.8079,"kind":"restaurant","cuisine":"salvadoran"},{"name":"Pho 75","lat":39.63747,"lng":-104.82747,"kind":"restaurant","cuisine":"vietnamese"},{"name":"Kallisto Grill","lat":39.74541,"lng":-104.99514,"kind":"restaurant","cuisine":"arab"},{"name":"Pho King Rapidos","lat":39.76228,"lng":-105.00597,"kind":"restaurant","cuisine":"spanish"},{"name":"Volcano Tea House","lat":39.66577,"lng":-104.86229,"kind":"cafe","cuisine":"tea"},{"name":"Starbucks","lat":39.7399,"lng":-104.84095,"kind":"cafe","cuisine":"coffee shop"},{"name":"IHOP","lat":39.73989,"lng":-104.82915,"kind":"restaurant","cuisine":"breakfast"},{"name":"Mezcal","lat":39.73998,"lng":-104.94876,"kind":"restaurant","cuisine":"mexican"},{"name":"Grabowski’s Pizzeria","lat":39.76863,"lng":-104.97936,"kind":"restaurant","cuisine":"pizza"},{"name":"The Pint Room","lat":39.62325,"lng":-105.01865,"kind":"restaurant","cuisine":"burger"},{"name":"Dirt Coffee","lat":39.61249,"lng":-105.01752,"kind":"cafe","cuisine":"coffee shop"},{"name":"Giordano's Pizzeria","lat":39.74518,"lng":-104.99193,"kind":"restaurant","cuisine":"pizza"},{"name":"Starbucks","lat":39.66151,"lng":-104.8448,"kind":"cafe","cuisine":"coffee shop"},{"name":"Uncle Maddio's Pizza Joint","lat":39.69368,"lng":-104.86414,"kind":"restaurant","cuisine":"pizza"},{"name":"Serene Cuisine of India","lat":39.67888,"lng":-104.95915,"kind":"restaurant","cuisine":"indian"},{"name":"Lechuga’s","lat":39.74061,"lng":-105.07995,"kind":"restaurant","cuisine":"italian"},{"name":"Mikes Famous Pizza","lat":39.6382,"lng":-105.03559,"kind":"restaurant","cuisine":"pizza"},{"name":"Meta Burger","lat":39.69565,"lng":-104.89569,"kind":"restaurant","cuisine":"burger"},{"name":"Yogi's Indian Restaurant","lat":39.74305,"lng":-104.968,"kind":"restaurant","cuisine":"indian"},{"name":"Starbucks","lat":39.69371,"lng":-104.99276,"kind":"cafe","cuisine":"coffee shop"},{"name":"First Watch","lat":39.67317,"lng":-104.86828,"kind":"restaurant","cuisine":"american"},{"name":"Casa Vallarta Restaurant & Tequila Bar","lat":39.64234,"lng":-104.82822,"kind":"restaurant","cuisine":"mexican"},{"name":"Zomo","lat":39.65385,"lng":-104.98784,"kind":"restaurant","cuisine":"asian"},{"name":"Starbucks","lat":39.65201,"lng":-104.91396,"kind":"cafe","cuisine":"coffee shop"},{"name":"Novo Coffee","lat":39.72543,"lng":-104.96693,"kind":"cafe","cuisine":"coffee shop"},{"name":"Starbucks","lat":39.72537,"lng":-104.98644,"kind":"cafe","cuisine":"coffee shop"},{"name":"Pizza Hut","lat":39.88234,"lng":-105.02649,"kind":"restaurant","cuisine":"pizza"},{"name":"Starbucks","lat":39.65688,"lng":-105.05358,"kind":"cafe","cuisine":"coffee shop"},{"name":"Rivers and Roads Coffee","lat":39.76472,"lng":-104.95644,"kind":"restaurant","cuisine":"sandwich"},{"name":"Red Rooster Cafe","lat":39.8015,"lng":-104.97872,"kind":"restaurant","cuisine":"american"},{"name":"El Puerto de Veracruz","lat":39.80142,"lng":-104.97888,"kind":"restaurant","cuisine":"mexican"},{"name":"Starbucks","lat":39.74468,"lng":-104.96801,"kind":"cafe","cuisine":"coffee shop"},{"name":"Cabrón Carbón - Taquería & Galería","lat":39.73292,"lng":-104.98764,"kind":"restaurant","cuisine":"mexican"},{"name":"Starbucks","lat":39.78532,"lng":-104.89502,"kind":"cafe","cuisine":"coffee shop"},{"name":"La Catrina","lat":39.67595,"lng":-104.84677,"kind":"restaurant","cuisine":"mexican"},{"name":"Uncle Zoe","lat":39.67594,"lng":-104.84609,"kind":"restaurant","cuisine":"mexican"},{"name":"Pho Kim","lat":39.67602,"lng":-104.84593,"kind":"restaurant","cuisine":"vietnamese"},{"name":"Las Islas Marias","lat":39.67603,"lng":-104.84564,"kind":"restaurant","cuisine":"mexican"},{"name":"Pizza Grill","lat":39.67593,"lng":-104.84549,"kind":"restaurant","cuisine":"pizza"},{"name":"Starbucks","lat":39.88073,"lng":-104.98401,"kind":"cafe","cuisine":"coffee shop"},{"name":"Starbucks","lat":39.89096,"lng":-104.97811,"kind":"cafe","cuisine":"coffee shop"},{"name":"Starbucks","lat":39.84944,"lng":-104.97894,"kind":"cafe","cuisine":"coffee shop"},{"name":"La Reyna Azteca Tacos Y Tortas","lat":39.63715,"lng":-104.79276,"kind":"restaurant","cuisine":"mexican"},{"name":"Starbucks","lat":39.86725,"lng":-105.05385,"kind":"cafe","cuisine":"coffee shop"},{"name":"Nine Mile Pho","lat":39.66065,"lng":-104.84561,"kind":"restaurant","cuisine":"vietnamese"},{"name":"Crazy Pho You","lat":39.61632,"lng":-105.08973,"kind":"restaurant","cuisine":"vietnamese"},{"name":"New Canton","lat":39.77969,"lng":-105.08079,"kind":"restaurant","cuisine":"chinese"},{"name":"Binge Hot Chicken","lat":39.77959,"lng":-105.0808,"kind":"restaurant","cuisine":"chicken"},{"name":"Vivi Pho","lat":39.70236,"lng":-104.93944,"kind":"restaurant","cuisine":"vietnamese"},{"name":"PokeCity","lat":39.69584,"lng":-104.93972,"kind":"restaurant","cuisine":"hawaiian"},{"name":"Starbucks","lat":39.75639,"lng":-104.90163,"kind":"cafe","cuisine":"coffee shop"},{"name":"Fuzzy's Taco Shop","lat":39.77368,"lng":-104.88223,"kind":"restaurant","cuisine":"mexican"},{"name":"Cheba Hut","lat":39.77319,"lng":-104.88227,"kind":"restaurant","cuisine":"sandwich"},{"name":"Sacred Beans Coffee","lat":39.68165,"lng":-104.90193,"kind":"cafe","cuisine":"coffee shop"},{"name":"Tokyo Joe's","lat":39.76909,"lng":-105.08185,"kind":"restaurant","cuisine":"noodle"},{"name":"Famous Pizza & Subs","lat":39.74,"lng":-104.92127,"kind":"restaurant","cuisine":"pizza"},{"name":"La Chiva Colombian Cuisine","lat":39.69031,"lng":-104.98727,"kind":"restaurant","cuisine":"colombian"},{"name":"Yolee J Filipino & Thai Restaurant","lat":39.7015,"lng":-104.79012,"kind":"restaurant","cuisine":"filipino"},{"name":"Mia's Pizza & Pasta","lat":39.63182,"lng":-104.88366,"kind":"restaurant","cuisine":"pizza"},{"name":"Pita Fresh","lat":39.67925,"lng":-104.95985,"kind":"restaurant","cuisine":"mediterranean"},{"name":"China Cafe 4","lat":39.67218,"lng":-104.79194,"kind":"restaurant","cuisine":"chinese"},{"name":"Joyce's Famous Pizza","lat":39.67783,"lng":-104.98717,"kind":"restaurant","cuisine":"pizza"},{"name":"Massino's Pizza and Pasta","lat":39.69425,"lng":-104.78919,"kind":"restaurant","cuisine":"pizza"},{"name":"Illegal Pete's","lat":39.67829,"lng":-104.96666,"kind":"restaurant","cuisine":"mexican"},{"name":"Dietrich's Chocolate & Coffee","lat":39.67829,"lng":-104.96686,"kind":"restaurant","cuisine":"coffee shop"},{"name":"Istanbul Cafe and Bakery","lat":39.70156,"lng":-104.91175,"kind":"cafe","cuisine":"turkish"},{"name":"Pizza Hut","lat":39.78638,"lng":-104.77164,"kind":"restaurant","cuisine":"pizza"},{"name":"Jet's Pizza","lat":39.63741,"lng":-104.82795,"kind":"restaurant","cuisine":"pizza"},{"name":"King Buffet","lat":39.79171,"lng":-105.07935,"kind":"restaurant","cuisine":"chinese"},{"name":"Umai Ya","lat":39.79011,"lng":-105.08078,"kind":"restaurant","cuisine":"japanese"},{"name":"First Watch","lat":39.78957,"lng":-105.08065,"kind":"restaurant","cuisine":"american"},{"name":"Tacos la Junta","lat":39.72236,"lng":-105.02543,"kind":"restaurant","cuisine":"mexican"},{"name":"Casa de Sanchez Panadería y Restaurante","lat":39.7798,"lng":-104.95485,"kind":"restaurant","cuisine":"mexican"},{"name":"la hoya Mexican food","lat":39.72553,"lng":-104.87532,"kind":"restaurant","cuisine":"mexican"},{"name":"Hanyanwang Jokbal","lat":39.67631,"lng":-104.86505,"kind":"restaurant","cuisine":"korean"},{"name":"Mango Mango Dessert","lat":39.69563,"lng":-104.93972,"kind":"cafe","cuisine":"asian"},{"name":"Ding Tea","lat":39.68597,"lng":-104.94136,"kind":"cafe","cuisine":"bubble tea"},{"name":"Noodles & Company","lat":39.76364,"lng":-104.77169,"kind":"restaurant","cuisine":"pasta"},{"name":"Starbucks","lat":39.76425,"lng":-104.77467,"kind":"cafe","cuisine":"coffee shop"},{"name":"Garibaldi","lat":39.76425,"lng":-104.7763,"kind":"restaurant","cuisine":"mexican"},{"name":"Mondo's Pizza","lat":39.76855,"lng":-104.7729,"kind":"restaurant","cuisine":"pizza"},{"name":"El Lucerito Jr.","lat":39.76801,"lng":-104.77291,"kind":"restaurant","cuisine":"mexican"},{"name":"Infinitus Pizza Pie (iPIE)","lat":39.76974,"lng":-105.06048,"kind":"restaurant","cuisine":"pizza"},{"name":"Happy Lemon","lat":39.74734,"lng":-105.05508,"kind":"cafe","cuisine":"bubble tea"},{"name":"Post Oak BBQ","lat":39.77182,"lng":-105.04387,"kind":"restaurant","cuisine":"barbecue"},{"name":"Colorado Cherry Co. Pie + Provisions","lat":39.77177,"lng":-105.04387,"kind":"restaurant","cuisine":"pie"},{"name":"K+ Hotpot","lat":39.63996,"lng":-104.73693,"kind":"restaurant","cuisine":"japanese"},{"name":"Viet's Restaurant","lat":39.71059,"lng":-105.02614,"kind":"restaurant","cuisine":"vietnamese"},{"name":"Starbucks","lat":39.71042,"lng":-104.98859,"kind":"cafe","cuisine":"coffee shop"},{"name":"The Cheesecake Factory","lat":39.61269,"lng":-105.0948,"kind":"restaurant","cuisine":"american"},{"name":"Starbucks","lat":39.61126,"lng":-105.10129,"kind":"cafe","cuisine":"coffee shop"},{"name":"Urban Burma","lat":39.73957,"lng":-104.86985,"kind":"restaurant","cuisine":"Burmese"},{"name":"Mad Greens","lat":39.60042,"lng":-104.70879,"kind":"restaurant","cuisine":"salad"},{"name":"Le French","lat":39.62508,"lng":-104.90717,"kind":"restaurant","cuisine":"french"},{"name":"Atlas Coffee","lat":39.60093,"lng":-104.98604,"kind":"cafe","cuisine":"coffee shop"},{"name":"The Post Chicken & Beer","lat":39.67653,"lng":-104.98732,"kind":"restaurant","cuisine":"chicken"},{"name":"Turtle Boat","lat":39.67628,"lng":-104.98782,"kind":"restaurant","cuisine":"seafood"},{"name":"Caitlin's","lat":39.69706,"lng":-104.93682,"kind":"restaurant","cuisine":"american"},{"name":"Pizza Hut","lat":39.69688,"lng":-104.94018,"kind":"restaurant","cuisine":"pizza"},{"name":"Crave Mediterranean Grill","lat":39.69806,"lng":-104.94009,"kind":"restaurant","cuisine":"mediterranean"},{"name":"Belmar Asia","lat":39.71161,"lng":-105.07768,"kind":"restaurant","cuisine":"vietnamese"},{"name":"Pizza Hut","lat":39.71871,"lng":-105.08199,"kind":"restaurant","cuisine":"pizza"},{"name":"Brothers BBQ","lat":39.71873,"lng":-105.08188,"kind":"restaurant","cuisine":"barbecue"},{"name":"Maria Elena Mexican Restaurant","lat":39.71873,"lng":-105.08213,"kind":"restaurant","cuisine":"mexican"},{"name":"Leroy's Bagels","lat":39.75838,"lng":-105.04474,"kind":"restaurant","cuisine":"bagel"},{"name":"Thai Garden","lat":39.64004,"lng":-104.79098,"kind":"restaurant","cuisine":"thai"},{"name":"Fuyu Sushi","lat":39.64021,"lng":-104.79099,"kind":"restaurant","cuisine":"sushi"},{"name":"Pho 95","lat":39.69099,"lng":-105.02549,"kind":"restaurant","cuisine":"vietnamese"},{"name":"Playa Azul","lat":39.69058,"lng":-105.02546,"kind":"restaurant","cuisine":"mexican"},{"name":"Torres Mexican Food","lat":39.68795,"lng":-105.02544,"kind":"restaurant","cuisine":"mexican"},{"name":"Black Rock Coffee","lat":39.62442,"lng":-105.02188,"kind":"cafe","cuisine":"coffee shop"},{"name":"Sharetea","lat":39.67223,"lng":-104.86686,"kind":"cafe","cuisine":"bubble tea"},{"name":"Happy Camper","lat":39.76221,"lng":-105.0069,"kind":"restaurant","cuisine":"pizza"},{"name":"The Wing Hut Aurora","lat":39.65381,"lng":-104.80767,"kind":"restaurant","cuisine":"american"},{"name":"Q House","lat":39.74034,"lng":-104.94717,"kind":"restaurant","cuisine":"asian"},{"name":"Honey Hill Cafe","lat":39.75093,"lng":-104.93306,"kind":"cafe","cuisine":"coffee shop"},{"name":"Los Chingones Central Park","lat":39.75982,"lng":-104.86921,"kind":"restaurant","cuisine":"mexican"},{"name":"Corner House","lat":39.71838,"lng":-105.03216,"kind":"restaurant","cuisine":"italian"},{"name":"Beyond Thai","lat":39.74735,"lng":-105.05546,"kind":"restaurant","cuisine":"thai"},{"name":"bb.q Chicken","lat":39.67215,"lng":-104.86668,"kind":"restaurant","cuisine":"chicken"},{"name":"Pizzeria Locale","lat":39.75855,"lng":-104.90032,"kind":"restaurant","cuisine":"pizza"},{"name":"Jalapeño Deluxe Restaurante","lat":39.73967,"lng":-104.80809,"kind":"restaurant","cuisine":"mexican"},{"name":"Hotpot Den","lat":39.60818,"lng":-105.10821,"kind":"restaurant","cuisine":"chinese"},