{"generated_at":"2026-07-22T11:05:13.306Z","city":"dal","source":"OpenStreetMap","count":1818,"eats":[{"name":"The Original Pancake House","lat":32.80494,"lng":-96.79689,"kind":"restaurant","cuisine":"breakfast"},{"name":"Bangkok City Restaurant","lat":32.7993,"lng":-96.77945,"kind":"restaurant","cuisine":"asian"},{"name":"Vietnam Restaurant Bar & Grill","lat":32.79895,"lng":-96.77917,"kind":"restaurant","cuisine":"vietnamese"},{"name":"H Buffet","lat":32.83588,"lng":-96.99724,"kind":"restaurant","cuisine":"chinese"},{"name":"Cicis","lat":32.85338,"lng":-96.99399,"kind":"restaurant","cuisine":"pizza"},{"name":"On The Border","lat":32.83968,"lng":-96.99292,"kind":"restaurant","cuisine":"tex-mex"},{"name":"Hooters","lat":32.84111,"lng":-96.99277,"kind":"restaurant","cuisine":"burger"},{"name":"Uno 1 China Super Buffet","lat":32.84369,"lng":-96.99356,"kind":"restaurant","cuisine":"chinese"},{"name":"Pizza Hut","lat":32.9764,"lng":-96.73747,"kind":"restaurant","cuisine":"pizza"},{"name":"Starbucks","lat":32.83731,"lng":-96.77666,"kind":"cafe","cuisine":"coffee shop"},{"name":"Bonchon Chicken","lat":32.83724,"lng":-96.78029,"kind":"restaurant","cuisine":"chicken"},{"name":"Chaucer's Sushi and Grill","lat":32.9544,"lng":-96.82404,"kind":"restaurant","cuisine":"japanese"},{"name":"Starbucks","lat":32.93272,"lng":-96.80321,"kind":"cafe","cuisine":"coffee shop"},{"name":"Besa's Pizza & Pasta","lat":32.95079,"lng":-96.80259,"kind":"restaurant","cuisine":"pizza"},{"name":"Starbucks","lat":32.93324,"lng":-96.81894,"kind":"cafe","cuisine":"coffee shop"},{"name":"Kuai Asian Kitchen","lat":32.93341,"lng":-96.8207,"kind":"restaurant","cuisine":"asian"},{"name":"Pizza Hut","lat":32.88449,"lng":-96.96469,"kind":"restaurant","cuisine":"pizza"},{"name":"Starbucks","lat":32.89207,"lng":-96.9604,"kind":"cafe","cuisine":"coffee shop"},{"name":"Taco Diner 114","lat":32.89184,"lng":-96.96029,"kind":"restaurant","cuisine":"mexican"},{"name":"Hunky's Old Fashioned Hamburgers","lat":32.74793,"lng":-96.82848,"kind":"restaurant","cuisine":"burger"},{"name":"Eno's","lat":32.74842,"lng":-96.82845,"kind":"restaurant","cuisine":"pizza"},{"name":"Hattie's","lat":32.74883,"lng":-96.82819,"kind":"restaurant","cuisine":"american"},{"name":"Veracruz Cafe","lat":32.74817,"lng":-96.82819,"kind":"cafe","cuisine":"international"},{"name":"Jason's Deli","lat":32.94823,"lng":-96.76843,"kind":"restaurant","cuisine":"sandwich"},{"name":"Starbucks","lat":32.89513,"lng":-96.73942,"kind":"cafe","cuisine":"coffee shop"},{"name":"Starbucks","lat":32.97498,"lng":-96.71722,"kind":"cafe","cuisine":"coffee shop"},{"name":"Sonny Bryan's Smokehouse","lat":32.97769,"lng":-96.76239,"kind":"restaurant","cuisine":"regional"},{"name":"Olive Oil's Pizzeria","lat":32.9767,"lng":-96.73962,"kind":"restaurant","cuisine":"pizza"},{"name":"Mori Teriyaki Wok & Sushi Rolls","lat":32.9768,"lng":-96.73961,"kind":"restaurant","cuisine":"japanese"},{"name":"Akaya Sushi, Izakaya & Ramen","lat":32.9791,"lng":-96.76491,"kind":"restaurant","cuisine":"sushi"},{"name":"Corner Bakery","lat":32.97991,"lng":-96.76875,"kind":"cafe","cuisine":"coffee shop"},{"name":"Rockfish","lat":32.97904,"lng":-96.76853,"kind":"restaurant","cuisine":"fish"},{"name":"String Bean","lat":32.97908,"lng":-96.76445,"kind":"restaurant","cuisine":"american"},{"name":"Manny's Tex-Mex Restaurant","lat":32.97862,"lng":-96.76982,"kind":"restaurant","cuisine":"mexican"},{"name":"Chili's","lat":32.9807,"lng":-96.76864,"kind":"restaurant","cuisine":"tex-mex"},{"name":"PHO' OK! Restaurant","lat":32.97596,"lng":-96.70875,"kind":"restaurant","cuisine":"vietnamese"},{"name":"Chiloso","lat":33.00699,"lng":-96.55005,"kind":"restaurant","cuisine":"mexican"},{"name":"Pizza Hut","lat":33.01432,"lng":-96.53517,"kind":"restaurant","cuisine":"pizza"},{"name":"Ballard Street Cafe & Grill","lat":33.01469,"lng":-96.53874,"kind":"cafe","cuisine":"american"},{"name":"Mijas Taqueria","lat":33.01439,"lng":-96.53494,"kind":"restaurant","cuisine":"mexican"},{"name":"Shoemaker & Hardt","lat":33.01437,"lng":-96.53909,"kind":"cafe","cuisine":"coffee shop"},{"name":"Dickey's Barbecue Pit","lat":33.0009,"lng":-96.5559,"kind":"restaurant","cuisine":"barbecue"},{"name":"Fuzzy's Taco Shop","lat":33.02279,"lng":-96.88438,"kind":"restaurant","cuisine":"mexican"},{"name":"Ardy's Mediterranean Grill","lat":32.9618,"lng":-96.82611,"kind":"restaurant","cuisine":"mediterranean"},{"name":"Antonio Ristorante","lat":32.96158,"lng":-96.8264,"kind":"restaurant","cuisine":"italian"},{"name":"Jason's Deli","lat":32.95346,"lng":-96.82335,"kind":"restaurant","cuisine":"sandwich"},{"name":"Starbucks","lat":32.95346,"lng":-96.82446,"kind":"cafe","cuisine":"coffee shop"},{"name":"Buffalo Wild Wings","lat":32.95342,"lng":-96.82547,"kind":"restaurant","cuisine":"american"},{"name":"Shuck the Jive","lat":32.95346,"lng":-96.82417,"kind":"restaurant","cuisine":"seafood"},{"name":"Bonchon Chicken","lat":32.95368,"lng":-96.82685,"kind":"restaurant","cuisine":"chicken"},{"name":"Dickies BBQ","lat":32.88213,"lng":-96.96265,"kind":"restaurant","cuisine":"barbecue"},{"name":"Brooklyn Pizzeria","lat":32.99698,"lng":-96.83127,"kind":"restaurant","cuisine":"pizza"},{"name":"Peggy's Country Cafe","lat":32.73364,"lng":-96.63606,"kind":"restaurant","cuisine":"regional"},{"name":"Rio Verde Mexican Restaurant","lat":32.73448,"lng":-96.63707,"kind":"restaurant","cuisine":"mexican"},{"name":"Houndstooth Coffee","lat":32.81155,"lng":-96.77454,"kind":"cafe","cuisine":"coffee shop"},{"name":"Opening Bell Coffee","lat":32.76733,"lng":-96.79605,"kind":"cafe","cuisine":"coffee shop"},{"name":"Lucky Chan","lat":32.98803,"lng":-96.57511,"kind":"restaurant","cuisine":"chinese"},{"name":"Chamberlain's Steak and Chop House","lat":32.95368,"lng":-96.81477,"kind":"restaurant","cuisine":"steak house"},{"name":"Nem Spring Roll Bar","lat":32.95353,"lng":-96.81669,"kind":"restaurant","cuisine":"vietnamese"},{"name":"Nando's","lat":32.95179,"lng":-96.81984,"kind":"restaurant","cuisine":"chicken"},{"name":"Flying Fish","lat":32.95182,"lng":-96.81934,"kind":"restaurant","cuisine":"seafood"},{"name":"Corner Bakery","lat":32.9551,"lng":-96.81767,"kind":"cafe","cuisine":"coffee shop"},{"name":"MoMo's Pasta","lat":32.91043,"lng":-96.80184,"kind":"restaurant","cuisine":"italian"},{"name":"Gloria's Latin Cuisine","lat":32.95182,"lng":-96.82202,"kind":"restaurant","cuisine":"mexican"},{"name":"Brentwood Restaurant","lat":32.95368,"lng":-96.81615,"kind":"restaurant","cuisine":"american"},{"name":"Porta di Roma","lat":32.78119,"lng":-96.79729,"kind":"restaurant","cuisine":"italian"},{"name":"Sapa House","lat":32.78142,"lng":-96.79736,"kind":"restaurant","cuisine":"vietnamese"},{"name":"Country Burger","lat":33.01354,"lng":-96.61217,"kind":"restaurant","cuisine":"burger"},{"name":"Niki's Italian Restaurant","lat":33.00978,"lng":-96.61173,"kind":"restaurant","cuisine":"italian"},{"name":"Oddfellows","lat":32.74883,"lng":-96.82744,"kind":"restaurant","cuisine":"american"},{"name":"Astoria Caffe and Wine Bar","lat":32.96284,"lng":-96.8261,"kind":"cafe","cuisine":"breakfast"},{"name":"El Rincon","lat":32.96145,"lng":-96.82529,"kind":"restaurant","cuisine":"mexican"},{"name":"Goodfellas","lat":32.9614,"lng":-96.82459,"kind":"restaurant","cuisine":"pizza"},{"name":"Cristina's Fine Mexican","lat":32.95516,"lng":-96.61713,"kind":"restaurant","cuisine":"mexican"},{"name":"Pizza Hut","lat":32.97893,"lng":-96.59054,"kind":"restaurant","cuisine":"pizza"},{"name":"Starbucks","lat":32.98183,"lng":-96.61292,"kind":"cafe","cuisine":"coffee shop"},{"name":"Venezia's Pizza Cafe","lat":32.99962,"lng":-96.61385,"kind":"restaurant","cuisine":"pizza"},{"name":"Starbucks","lat":33.00104,"lng":-96.64523,"kind":"cafe","cuisine":"coffee shop"},{"name":"Starbucks","lat":32.96069,"lng":-96.66623,"kind":"cafe","cuisine":"coffee shop"},{"name":"Starbucks","lat":32.91839,"lng":-96.9592,"kind":"cafe","cuisine":"coffee shop"},{"name":"Just Fried Rice","lat":32.97747,"lng":-96.8309,"kind":"restaurant","cuisine":"regional"},{"name":"May Dragon","lat":32.9532,"lng":-96.82927,"kind":"restaurant","cuisine":"chinese"},{"name":"Little Caesars Pizza","lat":32.95327,"lng":-96.88956,"kind":"restaurant","cuisine":"pizza"},{"name":"Secret Recipe","lat":33.02103,"lng":-96.92817,"kind":"restaurant","cuisine":"chinese"},{"name":"Wing Town","lat":33.02099,"lng":-96.91738,"kind":"restaurant","cuisine":"regional"},{"name":"Italian Express","lat":32.95515,"lng":-96.95854,"kind":"restaurant","cuisine":"pizza"},{"name":"Bangkok Dee Thai Cuisine","lat":32.88576,"lng":-96.77084,"kind":"restaurant","cuisine":"thai"},{"name":"Chef House","lat":32.81181,"lng":-96.81176,"kind":"restaurant","cuisine":"chinese"},{"name":"Sabaidee Lao & Thai Street Food","lat":32.93983,"lng":-96.81573,"kind":"restaurant","cuisine":"thai"},{"name":"Mimi's Pizzeria","lat":32.86604,"lng":-96.78841,"kind":"restaurant","cuisine":"pizza"},{"name":"Ralph's Pizza","lat":32.99664,"lng":-96.86715,"kind":"restaurant","cuisine":"pizza"},{"name":"Sport Wings","lat":32.98816,"lng":-96.8409,"kind":"restaurant","cuisine":"chicken"},{"name":"Yama Izakaya & Sushi","lat":32.9102,"lng":-96.74986,"kind":"restaurant","cuisine":"japanese"},{"name":"Sali's Pizza & Pasta","lat":32.94377,"lng":-96.64541,"kind":"restaurant","cuisine":"pizza"},{"name":"Dragon Express","lat":32.92001,"lng":-96.99495,"kind":"restaurant","cuisine":"chinese"},{"name":"Gyro Oasis Deli and Grill","lat":32.92012,"lng":-96.99499,"kind":"restaurant","cuisine":"regional"},{"name":"Rice Pot Express Lewisville","lat":32.99278,"lng":-96.97744,"kind":"restaurant","cuisine":"chinese"},{"name":"Pearl Chinese Restaurant","lat":32.82635,"lng":-96.65011,"kind":"restaurant","cuisine":"chinese"},{"name":"Sayaka Steak & Sushi","lat":33.00018,"lng":-96.76493,"kind":"restaurant","cuisine":"sushi"},{"name":"Oriental Express","lat":32.9688,"lng":-96.69913,"kind":"restaurant","cuisine":"chinese"},{"name":"Frattelo","lat":32.94719,"lng":-96.73035,"kind":"restaurant","cuisine":"pizza"},{"name":"Spice 'N' Rice","lat":32.95183,"lng":-96.72769,"kind":"restaurant","cuisine":"indian"},{"name":"The China Express","lat":32.96206,"lng":-96.75067,"kind":"restaurant","cuisine":"chinese"},{"name":"Panda Chef","lat":32.98763,"lng":-96.57516,"kind":"restaurant","cuisine":"chinese"},{"name":"Princi Italia","lat":32.89505,"lng":-96.80452,"kind":"restaurant","cuisine":"italian"},{"name":"Starbucks","lat":32.89623,"lng":-96.80355,"kind":"cafe","cuisine":"coffee shop"},{"name":"Starbucks","lat":32.91137,"lng":-96.80422,"kind":"cafe","cuisine":"coffee shop"},{"name":"Mustang Donuts","lat":32.84706,"lng":-96.78704,"kind":"restaurant","cuisine":"donut"},{"name":"Celebration","lat":32.85153,"lng":-96.83339,"kind":"restaurant","cuisine":"american"},{"name":"La Madeleine Country French Café","lat":32.83723,"lng":-96.78134,"kind":"restaurant","cuisine":"french"},{"name":"East Hampton Sandwich Co.","lat":32.8497,"lng":-96.7877,"kind":"restaurant","cuisine":"sandwich"},{"name":"Short Stop Food to Go","lat":32.84987,"lng":-96.78771,"kind":"restaurant","cuisine":"sandwich"},{"name":"Burger House","lat":32.84976,"lng":-96.78704,"kind":"restaurant","cuisine":"burger"},{"name":"Blue Ocean Sushi & Habachi Grill","lat":32.99351,"lng":-96.97547,"kind":"restaurant","cuisine":"asian"},{"name":"Dos Arroyos Comida Casera","lat":32.99135,"lng":-96.72813,"kind":"restaurant","cuisine":"mexican"},{"name":"Shady's Burgers & Brewhaha","lat":32.99216,"lng":-96.72733,"kind":"restaurant","cuisine":"burger"},{"name":"Sushi Robata","lat":32.99937,"lng":-96.82627,"kind":"restaurant","cuisine":"japanese"},{"name":"Cicis","lat":32.9983,"lng":-96.84512,"kind":"restaurant","cuisine":"pizza"},{"name":"Sí Tapas","lat":32.79599,"lng":-96.79669,"kind":"restaurant","cuisine":"tapas"},{"name":"Pagoda Asian Grill by P.F. Chang's","lat":32.84582,"lng":-96.84955,"kind":"restaurant","cuisine":"asian"},{"name":"Jason's Deli","lat":32.91176,"lng":-96.95958,"kind":"restaurant","cuisine":"sandwich"},{"name":"Starbucks","lat":32.90813,"lng":-96.57568,"kind":"cafe","cuisine":"coffee shop"},{"name":"Moak's Family Texas BBQ","lat":32.78084,"lng":-96.80638,"kind":"restaurant","cuisine":"barbecue"},{"name":"Dallas Diner","lat":32.86458,"lng":-96.70321,"kind":"restaurant","cuisine":"american"},{"name":"Chili's","lat":32.8325,"lng":-96.70037,"kind":"restaurant","cuisine":"tex-mex"},{"name":"Fish n Tails","lat":32.83468,"lng":-96.70268,"kind":"restaurant","cuisine":"seafood"},{"name":"Starbucks","lat":32.83293,"lng":-96.70267,"kind":"cafe","cuisine":"coffee shop"},{"name":"Lovers Egg Roll","lat":32.88171,"lng":-96.96262,"kind":"restaurant","cuisine":"asian"},{"name":"Henk's Deli and Black Forest Bakery","lat":32.86719,"lng":-96.7649,"kind":"restaurant","cuisine":"european"},{"name":"Chop House Burger","lat":32.78074,"lng":-96.79944,"kind":"restaurant","cuisine":"burger"},{"name":"CAVA","lat":32.87049,"lng":-96.76891,"kind":"restaurant","cuisine":"mediterranean"},{"name":"Starbucks","lat":32.97114,"lng":-96.99263,"kind":"cafe","cuisine":"coffee shop"},{"name":"The Cheesecake Factory","lat":32.86417,"lng":-96.77303,"kind":"restaurant","cuisine":"american"},{"name":"Corner Bakery","lat":32.86625,"lng":-96.94328,"kind":"cafe","cuisine":"coffee shop"},{"name":"Classic Chicago Gourmet Pizza","lat":32.86583,"lng":-96.94435,"kind":"restaurant","cuisine":"pizza"},{"name":"Zeytin Mediterranean Grill","lat":32.86605,"lng":-96.94468,"kind":"restaurant","cuisine":"greek"},{"name":"Coal Vines","lat":32.77535,"lng":-96.80343,"kind":"restaurant","cuisine":"italian"},{"name":"Biergarten","lat":32.77557,"lng":-96.80355,"kind":"restaurant","cuisine":"german"},{"name":"Buffalo Wild Wings","lat":32.96224,"lng":-96.63909,"kind":"restaurant","cuisine":"wings"},{"name":"Snuffers","lat":32.97625,"lng":-96.72177,"kind":"restaurant","cuisine":"burger"},{"name":"SPIN! Pizza","lat":32.97587,"lng":-96.72301,"kind":"restaurant","cuisine":"pizza"},{"name":"Snappy Salads","lat":32.97623,"lng":-96.72241,"kind":"restaurant","cuisine":"salad"},{"name":"First Watch","lat":32.97622,"lng":-96.7203,"kind":"restaurant","cuisine":"american"},{"name":"Tara's Big and Juicy Burgers","lat":32.66336,"lng":-96.90895,"kind":"restaurant","cuisine":"burger"},{"name":"Italian Cafe","lat":32.86513,"lng":-96.93654,"kind":"restaurant","cuisine":"italian"},{"name":"Tillman's Roadhouse","lat":32.74883,"lng":-96.82771,"kind":"restaurant","cuisine":"regional"},{"name":"Comet Pi","lat":32.98996,"lng":-96.75446,"kind":"restaurant","cuisine":"pizza"},{"name":"Bookstore Coffee Shop","lat":32.98677,"lng":-96.74747,"kind":"cafe","cuisine":"coffee shop"},{"name":"Bookstore Coffee Shop","lat":32.98459,"lng":-96.7498,"kind":"cafe","cuisine":"coffee shop"},{"name":"Starbucks","lat":32.98717,"lng":-96.74875,"kind":"cafe","cuisine":"coffee shop"},{"name":"Crave","lat":32.98668,"lng":-96.74921,"kind":"restaurant","cuisine":"vietnamese"},{"name":"Sun's Kitchen","lat":32.96029,"lng":-96.71255,"kind":"restaurant","cuisine":"vietnamese"},{"name":"Alfonso's Italian Restaurant","lat":32.84654,"lng":-96.7112,"kind":"restaurant","cuisine":"italian"},{"name":"Pho 88","lat":32.74878,"lng":-96.82735,"kind":"restaurant","cuisine":"vietnamese"},{"name":"Café Brazil","lat":32.74978,"lng":-96.82827,"kind":"cafe","cuisine":"breakfast"},{"name":"Chan Thai Restaurant","lat":32.74867,"lng":-96.82736,"kind":"restaurant","cuisine":"thai"},{"name":"Dallas Grilled Cheese Company","lat":32.74858,"lng":-96.82737,"kind":"restaurant","cuisine":"sandwich"},{"name":"Birrieria Aguinaga Taqueria","lat":32.74928,"lng":-96.82771,"kind":"restaurant","cuisine":"mexican"},{"name":"MO'S TO GO","lat":33.00253,"lng":-96.64279,"kind":"restaurant","cuisine":"mexican"},{"name":"Las Mananitas","lat":32.71898,"lng":-96.89316,"kind":"restaurant","cuisine":"mexican"},{"name":"Franki's Pizza & Pasta","lat":32.9082,"lng":-96.85568,"kind":"restaurant","cuisine":"pizza"},{"name":"Gloria's Latin Cuisine","lat":32.80714,"lng":-96.80014,"kind":"restaurant","cuisine":"tex-mex"},{"name":"Starbucks","lat":32.80833,"lng":-96.79804,"kind":"cafe","cuisine":"coffee shop"},{"name":"Starbucks","lat":32.8004,"lng":-96.80117,"kind":"cafe","cuisine":"coffee shop"},{"name":"Pei Wei","lat":32.79274,"lng":-96.802,"kind":"restaurant","cuisine":"asian"},{"name":"Del Frisco's Double Eagle Steakhouse","lat":32.79147,"lng":-96.8036,"kind":"restaurant","cuisine":"steak house"},{"name":"Zense Thai","lat":32.92403,"lng":-96.95377,"kind":"restaurant","cuisine":"thai"},{"name":"Corner Bakery","lat":32.7808,"lng":-96.80681,"kind":"cafe","cuisine":"coffee shop"},{"name":"Mogio's Gourmet Pizza","lat":33.0102,"lng":-96.61621,"kind":"restaurant","cuisine":"pizza"},{"name":"La Casita Bakeshop","lat":32.86604,"lng":-96.76438,"kind":"cafe","cuisine":"coffee shop"},{"name":"Mr. Jim's Pizza","lat":32.64184,"lng":-96.9234,"kind":"restaurant","cuisine":"pizza"},{"name":"Harvey B's","lat":32.79186,"lng":-96.76714,"kind":"restaurant","cuisine":"burger"},{"name":"Sweetwaters Coffee & Tea","lat":33.00195,"lng":-96.68745,"kind":"cafe","cuisine":"coffee shop"},{"name":"Rice Pot","lat":32.65139,"lng":-96.9082,"kind":"restaurant","cuisine":"asian"},{"name":"Starbucks","lat":33.01892,"lng":-96.73334,"kind":"cafe","cuisine":"coffee shop"},{"name":"Houlihan's","lat":32.95483,"lng":-96.81732,"kind":"restaurant","cuisine":"american"},{"name":"Taco Joint","lat":32.95203,"lng":-96.80411,"kind":"restaurant","cuisine":"mexican"},{"name":"Starbucks","lat":32.84601,"lng":-96.85128,"kind":"cafe","cuisine":"coffee shop"},{"name":"Starbucks","lat":32.84599,"lng":-96.84837,"kind":"cafe","cuisine":"coffee shop"},{"name":"Masami","lat":32.95052,"lng":-96.73874,"kind":"restaurant","cuisine":"japanese"},{"name":"Bangkok @ Beltline","lat":32.95053,"lng":-96.73855,"kind":"restaurant","cuisine":"thai"},{"name":"El Tesoro del Inca","lat":32.85406,"lng":-96.99264,"kind":"restaurant","cuisine":"peruvian"},{"name":"Chopped Halal Grill","lat":32.9935,"lng":-96.75026,"kind":"restaurant","cuisine":"mediterranean"},{"name":"Dickey's Barbecue Pit","lat":33.01814,"lng":-96.76739,"kind":"restaurant","cuisine":"barbecue"},{"name":"Tejano BBQ & More","lat":32.98912,"lng":-96.76876,"kind":"restaurant","cuisine":"barbecue"},{"name":"Cicis","lat":32.79424,"lng":-96.76332,"kind":"restaurant","cuisine":"pizza"},{"name":"Mike's Chicken","lat":32.90919,"lng":-96.77325,"kind":"restaurant","cuisine":"chicken"},{"name":"Cicis","lat":32.86117,"lng":-96.75401,"kind":"restaurant","cuisine":"pizza"},{"name":"Cane Rosso","lat":32.7826,"lng":-96.78554,"kind":"restaurant","cuisine":"pizza"},{"name":"Pho is for Lovers","lat":32.85357,"lng":-96.7698,"kind":"restaurant","cuisine":"vietnamese"},{"name":"Asian Mint Fresh Asian Fusion","lat":32.90851,"lng":-96.77154,"kind":"restaurant","cuisine":"asian"},{"name":"I Luv Pho","lat":32.90997,"lng":-96.77033,"kind":"restaurant","cuisine":"vietnamese"},{"name":"Flying Fish","lat":32.86342,"lng":-96.80538,"kind":"restaurant","cuisine":"seafood"},{"name":"Hopdoddy Burger Bar","lat":32.86341,"lng":-96.80683,"kind":"restaurant","cuisine":"burger"},{"name":"Cindi's Restaurant & N.Y. Deli","lat":32.90081,"lng":-96.76979,"kind":"restaurant","cuisine":"american"},{"name":"Amigo's Restaurant","lat":32.94695,"lng":-96.71177,"kind":"restaurant","cuisine":"mexican"},{"name":"PRIME Restaurant Doner & Cagkebab","lat":33.01962,"lng":-96.71242,"kind":"restaurant","cuisine":"mediterranean"},{"name":"Dimassi's Mediterranean Buffet","lat":32.8971,"lng":-96.96087,"kind":"restaurant","cuisine":"mediterranean"},{"name":"Buffalo Wild Wings","lat":32.97623,"lng":-96.72108,"kind":"restaurant","cuisine":"wings"},{"name":"iFratelli Pizza","lat":32.97623,"lng":-96.7209,"kind":"restaurant","cuisine":"pizza"},{"name":"Mumtaz Indian Restaurant","lat":32.97622,"lng":-96.72064,"kind":"restaurant","cuisine":"indian"},{"name":"Starbucks","lat":32.81188,"lng":-96.73028,"kind":"cafe","cuisine":"coffee shop"},{"name":"Jia Asian Bistro","lat":32.81183,"lng":-96.73017,"kind":"restaurant","cuisine":"asian"},{"name":"Cigarz Pizza","lat":32.81249,"lng":-96.73212,"kind":"restaurant","cuisine":"pizza"},{"name":"Pho Chao","lat":32.8216,"lng":-96.85667,"kind":"restaurant","cuisine":"vietnamese"},{"name":"Luigi's","lat":32.82162,"lng":-96.85688,"kind":"restaurant","cuisine":"italian"},{"name":"Sushi Time","lat":32.82161,"lng":-96.85678,"kind":"restaurant","cuisine":"sushi"},{"name":"Smokey John's BBQ","lat":32.82153,"lng":-96.85435,"kind":"restaurant","cuisine":"american"},{"name":"La Hechizera","lat":32.82063,"lng":-96.83602,"kind":"restaurant","cuisine":"mexican"},{"name":"Starbucks","lat":33.01005,"lng":-96.9693,"kind":"cafe","cuisine":"coffee shop"},{"name":"Starbucks","lat":33.01245,"lng":-96.97063,"kind":"cafe","cuisine":"coffee shop"},{"name":"Jörg's Cafe Vienna","lat":33.0198,"lng":-96.69956,"kind":"restaurant","cuisine":"austrian"},{"name":"Ken Japanese Bistro","lat":32.97418,"lng":-96.70027,"kind":"restaurant","cuisine":"japanese"},{"name":"Pei Wei","lat":32.90971,"lng":-96.95769,"kind":"restaurant","cuisine":"asian"},{"name":"Dickey's Barbecue Pit","lat":32.95617,"lng":-96.61647,"kind":"restaurant","cuisine":"barbecue"},{"name":"Starbucks","lat":32.95664,"lng":-96.61615,"kind":"cafe","cuisine":"coffee shop"},{"name":"Eddie's Napolis Italian Bistro","lat":32.9565,"lng":-96.61584,"kind":"restaurant","cuisine":"italian"},{"name":"Flying Fish","lat":32.95692,"lng":-96.61558,"kind":"restaurant","cuisine":"seafood"},{"name":"Benny's Bagels","lat":32.97595,"lng":-96.70904,"kind":"cafe","cuisine":"bagel"},{"name":"Masala Twist","lat":32.97596,"lng":-96.70885,"kind":"restaurant","cuisine":"indian"},{"name":"El Fenix","lat":33.01147,"lng":-96.70726,"kind":"restaurant","cuisine":"mexican"},{"name":"Vickery Park","lat":33.01979,"lng":-96.70044,"kind":"restaurant","cuisine":"american"},{"name":"Piada Italian Street Food","lat":32.99804,"lng":-96.69663,"kind":"restaurant","cuisine":"italian"},{"name":"Liberty Burger","lat":32.96912,"lng":-96.82039,"kind":"restaurant","cuisine":"chicken"},{"name":"Ying Cafe","lat":32.97844,"lng":-96.66416,"kind":"restaurant","cuisine":"chinese"},{"name":"The Urband Grill","lat":32.97826,"lng":-96.66418,"kind":"restaurant","cuisine":"burger"},{"name":"Cici's Pizza","lat":32.95934,"lng":-96.68204,"kind":"restaurant","cuisine":"pizza"},{"name":"Shiny Wok","lat":32.90651,"lng":-96.56719,"kind":"restaurant","cuisine":"chinese"},{"name":"Ming's Kithcen","lat":32.89479,"lng":-96.63123,"kind":"restaurant","cuisine":"chinese"},{"name":"Uncle Wing","lat":32.91288,"lng":-96.63111,"kind":"restaurant","cuisine":"chinese"},{"name":"China Harbor","lat":32.91523,"lng":-96.61414,"kind":"restaurant","cuisine":"chinese"},{"name":"TK's Comedy","lat":32.95062,"lng":-96.81769,"kind":"restaurant","cuisine":"american"},{"name":"Dickey's Barbecue Pit","lat":32.8133,"lng":-96.8305,"kind":"restaurant","cuisine":"barbecue"},{"name":"Good Union Urban BBQ","lat":33.00143,"lng":-96.70188,"kind":"restaurant","cuisine":"barbecue"},{"name":"Sweet Mix","lat":32.9742,"lng":-96.71456,"kind":"cafe","cuisine":"smoothie"},{"name":"Twisted Root","lat":32.97476,"lng":-96.71441,"kind":"restaurant","cuisine":"burger"},{"name":"Shin","lat":32.97439,"lng":-96.71503,"kind":"restaurant","cuisine":"sushi"},{"name":"First Watch","lat":32.97487,"lng":-96.70858,"kind":"restaurant","cuisine":"american"},{"name":"Teriyaki Sensei","lat":32.97488,"lng":-96.70867,"kind":"restaurant","cuisine":"japanese"},{"name":"Taco Ocho","lat":32.97488,"lng":-96.70904,"kind":"restaurant","cuisine":"mexican"},{"name":"Dog Haus","lat":32.94315,"lng":-96.74309,"kind":"restaurant","cuisine":"american"},{"name":"Thai Soon","lat":32.95007,"lng":-96.76847,"kind":"restaurant","cuisine":"thai"},{"name":"Tacos Y Mas","lat":32.95024,"lng":-96.76846,"kind":"restaurant","cuisine":"mexican"},{"name":"Kebab N Kurry","lat":32.95402,"lng":-96.73325,"kind":"restaurant","cuisine":"indian"},{"name":"Starbucks","lat":32.99769,"lng":-96.69893,"kind":"cafe","cuisine":"coffee shop"},{"name":"McAlister's Deli","lat":33.00984,"lng":-96.709,"kind":"restaurant","cuisine":"sandwich"},{"name":"Tricky Fish","lat":33.0015,"lng":-96.70062,"kind":"restaurant","cuisine":"seafood"},{"name":"Fish City Grill","lat":32.99862,"lng":-96.69775,"kind":"restaurant","cuisine":"seafood"},{"name":"Bonchon Chicken","lat":32.99831,"lng":-96.69666,"kind":"restaurant","cuisine":"chicken"},{"name":"Pho is For Lovers","lat":32.99822,"lng":-96.69666,"kind":"restaurant","cuisine":"vietnamese"},{"name":"Edoko Sushi & Robata","lat":33.00109,"lng":-96.70023,"kind":"restaurant","cuisine":"japanese"},{"name":"Hot Pancakes","lat":33.00148,"lng":-96.68289,"kind":"restaurant","cuisine":"american"},{"name":"Dante's Pizza & Pasta Italian Eatery","lat":32.91316,"lng":-96.74609,"kind":"restaurant","cuisine":"italian"},{"name":"Selda","lat":32.95074,"lng":-96.7673,"kind":"restaurant","cuisine":"sandwich"},{"name":"Sky Rocket Burger","lat":32.99816,"lng":-96.76887,"kind":"restaurant","cuisine":"burger"},{"name":"Ten 50 BBQ","lat":32.96343,"lng":-96.7236,"kind":"restaurant","cuisine":"barbecue"},{"name":"Tacodeli","lat":32.88059,"lng":-96.76803,"kind":"restaurant","cuisine":"tex-mex"},{"name":"Norma's Cafe","lat":32.87242,"lng":-96.7688,"kind":"restaurant","cuisine":"regional"},{"name":"Starbucks","lat":32.86096,"lng":-96.85746,"kind":"cafe","cuisine":"coffee shop"},{"name":"La Madeline","lat":32.86452,"lng":-96.83626,"kind":"restaurant","cuisine":"french"},{"name":"1418 Coffeehouse","lat":33.01923,"lng":-96.69907,"kind":"cafe","cuisine":"coffee shop"},{"name":"Backyard","lat":32.7856,"lng":-96.78942,"kind":"restaurant","cuisine":"american"},{"name":"Palomino Ranch","lat":32.78587,"lng":-96.78907,"kind":"restaurant","cuisine":"regional"},{"name":"Joe's Coffee Shop","lat":32.81429,"lng":-96.95077,"kind":"restaurant","cuisine":"diner"},{"name":"Restaurant Latina","lat":32.80838,"lng":-96.9489,"kind":"restaurant","cuisine":"mexican"},{"name":"Wild Salsa","lat":32.78119,"lng":-96.79584,"kind":"restaurant","cuisine":"mexican"},{"name":"Pizza Hut","lat":32.64873,"lng":-96.5478,"kind":"restaurant","cuisine":"pizza"},{"name":"Magic Cup","lat":32.95863,"lng":-96.6831,"kind":"cafe","cuisine":"tea"},{"name":"Commissary","lat":32.78039,"lng":-96.80111,"kind":"restaurant","cuisine":"coffee shop"},{"name":"Pho Xpress","lat":33.00404,"lng":-96.98431,"kind":"restaurant","cuisine":"vietnamese"},{"name":"Angel Chicken Kitchen","lat":32.97721,"lng":-96.76886,"kind":"restaurant","cuisine":"chicken"},{"name":"Tupinamba Cafe","lat":32.87851,"lng":-96.77136,"kind":"restaurant","cuisine":"mexican"},{"name":"Pizza Hut","lat":32.77705,"lng":-96.62121,"kind":"restaurant","cuisine":"pizza"},{"name":"Curry Bliss","lat":32.94823,"lng":-96.76785,"kind":"restaurant","cuisine":"indian"},{"name":"Boi Na Braza","lat":32.87325,"lng":-96.94404,"kind":"restaurant","cuisine":"steak house"},{"name":"Grimaldi's Pizzeria","lat":32.87399,"lng":-96.94411,"kind":"restaurant","cuisine":"pizza"},{"name":"Freshii","lat":32.87387,"lng":-96.94411,"kind":"restaurant","cuisine":"salad"},{"name":"Top Round Roast Beef","lat":32.87366,"lng":-96.9441,"kind":"restaurant","cuisine":"sandwich"},{"name":"La Torteria","lat":32.7804,"lng":-96.62271,"kind":"restaurant","cuisine":"mexican"},{"name":"Yard House","lat":32.87449,"lng":-96.94413,"kind":"restaurant","cuisine":"american"},{"name":"Gabriela & Sofia's Tex-Mex Restaurant","lat":32.88934,"lng":-96.77166,"kind":"restaurant","cuisine":"tex-mex"},{"name":"Haystack Burgers and Barley","lat":32.94912,"lng":-96.73831,"kind":"restaurant","cuisine":"american"},{"name":"Lockhart Smokehouse","lat":33.01956,"lng":-96.69954,"kind":"restaurant","cuisine":"barbecue"},{"name":"Brix","lat":33.01898,"lng":-96.69909,"kind":"restaurant","cuisine":"american"},{"name":"Eno's Pizza Tavern","lat":32.74748,"lng":-96.47232,"kind":"restaurant","cuisine":"pizza"},{"name":"Starbucks","lat":32.99878,"lng":-96.79438,"kind":"cafe","cuisine":"coffee shop"},{"name":"Swadeshi","lat":32.98825,"lng":-96.77559,"kind":"restaurant","cuisine":"indian"},{"name":"Pizza Hut","lat":32.68612,"lng":-96.8261,"kind":"restaurant","cuisine":"pizza"},{"name":"Wingstop","lat":32.68691,"lng":-96.82647,"kind":"restaurant","cuisine":"wings"},{"name":"Taqueria Los Angeles","lat":33.01958,"lng":-96.68164,"kind":"restaurant","cuisine":"mexican"},{"name":"Carnitas Ahualulco","lat":32.76718,"lng":-96.62335,"kind":"restaurant","cuisine":"mexican"},{"name":"Moom Muum","lat":32.87236,"lng":-96.7688,"kind":"restaurant","cuisine":"thai"},{"name":"Angry Dog","lat":32.78291,"lng":-96.7836,"kind":"restaurant","cuisine":"american"},{"name":"Starbucks","lat":32.7914,"lng":-96.80409,"kind":"cafe","cuisine":"coffee shop"},{"name":"Goji Cafe","lat":32.8952,"lng":-96.90069,"kind":"restaurant","cuisine":"asian"},{"name":"El Rincon de D.F.","lat":32.88013,"lng":-96.88041,"kind":"restaurant","cuisine":"mexican"},{"name":"Starbucks","lat":32.97778,"lng":-96.76651,"kind":"cafe","cuisine":"coffee shop"},{"name":"Starbucks","lat":32.94962,"lng":-96.7694,"kind":"cafe","cuisine":"coffee shop"},{"name":"Pizza Hut","lat":32.95328,"lng":-96.76938,"kind":"restaurant","cuisine":"pizza"},{"name":"Cucina Romana","lat":32.95109,"lng":-96.77092,"kind":"restaurant","cuisine":"italian"},{"name":"Lalo's","lat":33.00182,"lng":-96.79515,"kind":"restaurant","cuisine":"mexican"},{"name":"Dickey's Barbecue Pit","lat":32.98051,"lng":-96.76753,"kind":"restaurant","cuisine":"barbecue"},{"name":"Pakpao","lat":32.79708,"lng":-96.81897,"kind":"restaurant","cuisine":"thai"},{"name":"Beto & Son","lat":32.77923,"lng":-96.8285,"kind":"restaurant","cuisine":"mexican"},{"name":"C-Rolls Sushi","lat":32.99873,"lng":-96.79918,"kind":"restaurant","cuisine":"sushi"},{"name":"Black Sheep Coffee","lat":33.01913,"lng":-96.79583,"kind":"cafe","cuisine":"coffee shop"},{"name":"Pinto Thai Urban Diner","lat":32.9935,"lng":-96.75035,"kind":"restaurant","cuisine":"thai"},{"name":"Bindaas Bar & Restaurant","lat":32.99349,"lng":-96.74909,"kind":"restaurant","cuisine":"indian"},{"name":"Lezzet Cafe","lat":32.99812,"lng":-96.78501,"kind":"restaurant","cuisine":"turkish"},{"name":"Ka Thai","lat":32.88279,"lng":-96.76567,"kind":"restaurant","cuisine":"thai"},{"name":"Grandy's","lat":32.84548,"lng":-96.99298,"kind":"restaurant","cuisine":"american"},{"name":"Balch Springs Tacos","lat":32.70326,"lng":-96.607,"kind":"restaurant","cuisine":"mexican"},{"name":"Mattito's","lat":32.8091,"lng":-96.80837,"kind":"restaurant","cuisine":"mexican"},{"name":"Mille Lire","lat":32.80867,"lng":-96.80764,"kind":"restaurant","cuisine":"italian"},{"name":"Gloria's Latin Cuisine","lat":32.95198,"lng":-96.61261,"kind":"restaurant","cuisine":"mexican"},{"name":"Cici's Pizza","lat":32.76377,"lng":-96.58433,"kind":"restaurant","cuisine":"pizza"},{"name":"BoomerJack's Grill & Bar","lat":32.76344,"lng":-96.58301,"kind":"restaurant","cuisine":"american"},{"name":"Tucker's Pizza","lat":32.76011,"lng":-96.584,"kind":"restaurant","cuisine":"pizza"},{"name":"China City","lat":32.74729,"lng":-96.59721,"kind":"restaurant","cuisine":"chinese"},{"name":"Starbucks","lat":32.99907,"lng":-96.96153,"kind":"cafe","cuisine":"coffee shop"},{"name":"Osaka Hibachi Sushi & Bar","lat":32.96829,"lng":-96.60507,"kind":"restaurant","cuisine":"sushi"},{"name":"Burgerim Gourmet Burgers","lat":32.87562,"lng":-96.94433,"kind":"restaurant","cuisine":"burger"},{"name":"la Madeleine","lat":32.91135,"lng":-96.80325,"kind":"cafe","cuisine":"french"},{"name":"Al's Pizzeria","lat":32.86203,"lng":-96.85852,"kind":"restaurant","cuisine":"pizza"},{"name":"Seafood Shack","lat":32.86121,"lng":-96.85655,"kind":"restaurant","cuisine":"seafood"},{"name":"Campisi's","lat":32.89067,"lng":-96.48022,"kind":"restaurant","cuisine":"italian"},{"name":"Maple Landing","lat":32.82251,"lng":-96.83847,"kind":"restaurant","cuisine":"barbecue"},{"name":"Social Pie","lat":32.82227,"lng":-96.83813,"kind":"restaurant","cuisine":"pizza"},{"name":"La Picosa","lat":32.93983,"lng":-96.81545,"kind":"restaurant","cuisine":"mexican"},{"name":"Carmine's Pizzeria","lat":32.93983,"lng":-96.81523,"kind":"restaurant","cuisine":"pizza"},{"name":"Hinodeya","lat":32.81531,"lng":-96.77063,"kind":"restaurant","cuisine":"japanese"},{"name":"OMG Tacos","lat":32.94304,"lng":-96.74315,"kind":"restaurant","cuisine":"mexican"},{"name":"Pizza Hut","lat":32.86804,"lng":-96.86566,"kind":"restaurant","cuisine":"pizza"},{"name":"Joey","lat":32.86688,"lng":-96.77363,"kind":"restaurant","cuisine":"regional"},{"name":"P.F. Chang's","lat":32.86691,"lng":-96.7732,"kind":"restaurant","cuisine":"asian"},{"name":"Maggiano's Little Italy","lat":32.86698,"lng":-96.77274,"kind":"restaurant","cuisine":"italian"},{"name":"Starbucks","lat":32.86865,"lng":-96.77225,"kind":"cafe","cuisine":"coffee shop"},{"name":"E Bar Tex-Mex","lat":32.80136,"lng":-96.78572,"kind":"restaurant","cuisine":"tex-mex"},{"name":"Petra and the Beast","lat":32.79212,"lng":-96.77507,"kind":"restaurant","cuisine":"barbecue"},{"name":"Twisted Root Burger Co.","lat":32.78293,"lng":-96.78548,"kind":"restaurant","cuisine":"burger"},{"name":"TeaCo","lat":32.98668,"lng":-96.74883,"kind":"cafe","cuisine":"bubble tea"},{"name":"Kalachandji's","lat":32.98673,"lng":-96.74921,"kind":"restaurant","cuisine":"indian"},{"name":"Jeng Chi","lat":32.95337,"lng":-96.72769,"kind":"restaurant","cuisine":"chinese"},{"name":"Cindi's N.Y. Delicatessen & Bakery","lat":32.97753,"lng":-96.77043,"kind":"restaurant","cuisine":"american"},{"name":"Two Mules Cantina at Texican Court","lat":32.87707,"lng":-96.94193,"kind":"restaurant","cuisine":"tex-mex"},{"name":"Jimmy's Big Burger","lat":33.01472,"lng":-96.66382,"kind":"restaurant","cuisine":"burger"},{"name":"Chili’s","lat":32.84614,"lng":-96.85082,"kind":"restaurant","cuisine":"tex-mex"},{"name":"Ding Tea","lat":32.9769,"lng":-96.73962,"kind":"cafe","cuisine":"bubble tea"},{"name":"Russo's Coal-Fired Italian Kitchen","lat":32.9749,"lng":-96.71535,"kind":"restaurant","cuisine":"italian"},{"name":"El Fenix","lat":32.82941,"lng":-96.82528,"kind":"restaurant","cuisine":"mexican"},{"name":"Urban Eatz","lat":32.97429,"lng":-96.71478,"kind":"restaurant","cuisine":"american"},{"name":"Eddie's Tex-Mex Cocina","lat":32.8145,"lng":-96.76996,"kind":"restaurant","cuisine":"mexican"},{"name":"Holy Frijoles","lat":32.96381,"lng":-96.73785,"kind":"restaurant","cuisine":"tex-mex"},{"name":"la Madeleine","lat":32.84589,"lng":-96.84834,"kind":"cafe","cuisine":"french"},{"name":"Cantina Larado","lat":32.84611,"lng":-96.84834,"kind":"restaurant","cuisine":"mexican"},{"name":"McAlister's Deli","lat":32.9568,"lng":-96.81798,"kind":"restaurant","cuisine":"sandwich"},{"name":"McAlister's Deli","lat":33.01078,"lng":-96.58979,"kind":"restaurant","cuisine":"sandwich"},{"name":"Lemma Coffee Roasters","lat":32.98579,"lng":-96.74765,"kind":"cafe","cuisine":"coffee shop"},{"name":"Pho Empire","lat":32.85645,"lng":-96.99396,"kind":"restaurant","cuisine":"vietnamese"},{"name":"Himalayan Aroma","lat":32.85665,"lng":-96.9931,"kind":"restaurant","cuisine":"nepalese"},{"name":"The Original Chicken-N-Rice","lat":32.85624,"lng":-96.99289,"kind":"restaurant","cuisine":"fast food"},{"name":"Cadot Restaurant","lat":32.99938,"lng":-96.79768,"kind":"restaurant","cuisine":"french"},{"name":"Cristina's Fine Mexican Restaurant","lat":33.00403,"lng":-96.98233,"kind":"restaurant","cuisine":"tex-mex"},{"name":"Starbucks","lat":32.89663,"lng":-96.47573,"kind":"cafe","cuisine":"coffee shop"},{"name":"Starbucks","lat":32.87753,"lng":-96.73445,"kind":"cafe","cuisine":"coffee shop"},{"name":"Lovers Seafood and Fish Market","lat":32.85102,"lng":-96.82219,"kind":"restaurant","cuisine":"seafood"},{"name":"Bopjoa","lat":32.96841,"lng":-96.60485,"kind":"restaurant","cuisine":"korean"},{"name":"Hon Sushi","lat":32.95327,"lng":-96.88963,"kind":"restaurant","cuisine":"sushi"},{"name":"Babe's Chicken Dinner House","lat":32.95285,"lng":-96.90773,"kind":"restaurant","cuisine":"fried chicken"},{"name":"Twisted Root Burger","lat":32.95262,"lng":-96.90651,"kind":"restaurant","cuisine":"american"},{"name":"El Rincon Mexican Restaurant & Tequila Bar","lat":32.95163,"lng":-96.90844,"kind":"restaurant","cuisine":"mexican"},{"name":"Edohana Sushi","lat":32.9077,"lng":-96.96075,"kind":"restaurant","cuisine":"sushi"},{"name":"Pho Express Noodles & Grill","lat":32.95332,"lng":-96.88507,"kind":"restaurant","cuisine":"vietnamese"},{"name":"Starbucks","lat":32.99372,"lng":-96.74747,"kind":"cafe","cuisine":"coffee shop"},{"name":"Madres Cocina","lat":32.75418,"lng":-96.47112,"kind":"restaurant","cuisine":"mexican"},{"name":"Cici's Pizza","lat":32.74943,"lng":-96.47033,"kind":"restaurant","cuisine":"pizza"},{"name":"Don Arturo's Cocina y Cantina","lat":32.94779,"lng":-96.61737,"kind":"restaurant","cuisine":"mexican"},{"name":"Fish Daddy's Seafood Grill","lat":32.82914,"lng":-96.59645,"kind":"restaurant","cuisine":"seafood"},{"name":"King Crab Shack","lat":32.73227,"lng":-96.61753,"kind":"restaurant","cuisine":"seafood"},{"name":"Jason's Deli","lat":32.81087,"lng":-96.62537,"kind":"restaurant","cuisine":"sandwich"},{"name":"Cicis","lat":32.90621,"lng":-96.56767,"kind":"restaurant","cuisine":"pizza"},{"name":"Nick's Sports Grill","lat":32.90711,"lng":-96.56703,"kind":"restaurant","cuisine":"american"},{"name":"Native Coffee Co.","lat":32.93341,"lng":-96.83542,"kind":"cafe","cuisine":"coffee shop"},{"name":"Ascension Coffee","lat":32.943,"lng":-96.83947,"kind":"cafe","cuisine":"coffee shop"},{"name":"Tony's Pizza & Pasta","lat":32.86463,"lng":-96.70947,"kind":"restaurant","cuisine":"italian"},{"name":"Shady's Burgers & Brewhaha","lat":32.8782,"lng":-96.71884,"kind":"restaurant","cuisine":"burger"},{"name":"First Watch","lat":32.87797,"lng":-96.73367,"kind":"restaurant","cuisine":"american"},{"name":"Cane Rosso","lat":32.87699,"lng":-96.7336,"kind":"restaurant","cuisine":"pizza"},{"name":"Mi Cocina","lat":32.88022,"lng":-96.73539,"kind":"restaurant","cuisine":"mexican"},{"name":"Fireside Pies","lat":32.86594,"lng":-96.74301,"kind":"restaurant","cuisine":"pizza"},{"name":"McAlister's Deli","lat":32.86105,"lng":-96.75408,"kind":"restaurant","cuisine":"sandwich"},{"name":"Moon Wok","lat":32.89558,"lng":-96.72143,"kind":"restaurant","cuisine":"asian"},{"name":"Civil Pour","lat":32.88193,"lng":-96.7674,"kind":"cafe","cuisine":"coffee shop"},{"name":"Bellagreen","lat":32.88127,"lng":-96.76796,"kind":"restaurant","cuisine":"american"},{"name":"Pokéworks","lat":32.88137,"lng":-96.7682,"kind":"restaurant","cuisine":"hawaiian"},{"name":"Olive Oil's Pizzeria","lat":32.83785,"lng":-96.59722,"kind":"restaurant","cuisine":"pizza"},{"name":"Dickey's Barbecue Pit","lat":32.87804,"lng":-96.51747,"kind":"restaurant","cuisine":"barbecue"},{"name":"Alejandro'sGrill & Cantina","lat":32.87883,"lng":-96.51782,"kind":"restaurant","cuisine":"mexican"},{"name":"Sharetea","lat":32.8978,"lng":-96.46429,"kind":"cafe","cuisine":"bubble tea"},{"name":"Zaap Kitchen","lat":32.83441,"lng":-96.70204,"kind":"restaurant","cuisine":"laoatian"},{"name":"Chiloso Mexican Bistro","lat":32.83432,"lng":-96.70199,"kind":"restaurant","cuisine":"mexican"},{"name":"Blue Sushi Sake Grill","lat":32.88128,"lng":-96.77292,"kind":"restaurant","cuisine":"sushi"},{"name":"Merit Coffee","lat":32.88183,"lng":-96.7711,"kind":"cafe","cuisine":"coffee shop"},{"name":"Grimaldi's Pizzeria","lat":32.87058,"lng":-96.76856,"kind":"restaurant","cuisine":"pizza"},{"name":"Kome Dallas","lat":32.88167,"lng":-96.76813,"kind":"restaurant","cuisine":"sushi"},{"name":"Snooze","lat":32.88156,"lng":-96.76766,"kind":"restaurant","cuisine":"breakfast"},{"name":"Cholula Restaurant","lat":32.87111,"lng":-96.76238,"kind":"restaurant","cuisine":"mexican"},{"name":"Arif Cafe","lat":32.87128,"lng":-96.76059,"kind":"restaurant","cuisine":"ethiopian"},{"name":"Shebelle","lat":32.98418,"lng":-96.80258,"kind":"restaurant","cuisine":"ethiopian"},{"name":"Donna's Kitchen","lat":32.81501,"lng":-96.63489,"kind":"restaurant","cuisine":"american"},{"name":"Mr Teriyaki II","lat":32.81229,"lng":-96.63431,"kind":"restaurant","cuisine":"asian"},{"name":"Pho 544","lat":33.01196,"lng":-96.60942,"kind":"restaurant","cuisine":"vietnamese"},{"name":"Boba-Lush","lat":33.01198,"lng":-96.60052,"kind":"cafe","cuisine":"bubble tea"},{"name":"Fine Asian","lat":33.01188,"lng":-96.60608,"kind":"restaurant","cuisine":"asian"},{"name":"CAVA","lat":33.01183,"lng":-96.60371,"kind":"restaurant","cuisine":"mediterranean"},{"name":"La Flor Mexican Grlill & Cantina","lat":33.01182,"lng":-96.6035,"kind":"restaurant","cuisine":"mexican"},{"name":"Pizza Twist","lat":33.01183,"lng":-96.60342,"kind":"restaurant","cuisine":"pizza"},{"name":"Sticky Rice Restaraunt","lat":33.01314,"lng":-96.60544,"kind":"restaurant","cuisine":"thai"},{"name":"Mehfil Indian Cuisine","lat":33.01386,"lng":-96.6133,"kind":"restaurant","cuisine":"indian"},{"name":"Casa Don Luis","lat":32.99954,"lng":-96.82444,"kind":"restaurant","cuisine":"tex-mex"},{"name":"WnB Factory","lat":32.99967,"lng":-96.82509,"kind":"restaurant","cuisine":"burger"},{"name":"Vindu Indian Cuisine","lat":32.99932,"lng":-96.82637,"kind":"restaurant","cuisine":"indian"},{"name":"Anaya's Seafood","lat":32.96073,"lng":-96.81944,"kind":"restaurant","cuisine":"seafood"},{"name":"Starbucks","lat":32.99948,"lng":-96.82592,"kind":"cafe","cuisine":"coffee shop"},{"name":"Best Thai","lat":32.99948,"lng":-96.82843,"kind":"restaurant","cuisine":"thai"},{"name":"Red Claws Crab Shack","lat":32.99958,"lng":-96.82561,"kind":"restaurant","cuisine":"seafood"},{"name":"Starbucks","lat":32.99804,"lng":-96.7298,"kind":"cafe","cuisine":"coffee shop"},{"name":"ToCoToCo Tea","lat":33.00018,"lng":-96.76479,"kind":"cafe","cuisine":"bubble tea"},{"name":"Zorba's Greek Cafe","lat":33.0183,"lng":-96.7964,"kind":"restaurant","cuisine":"greek"},{"name":"Canton Express","lat":33.01847,"lng":-96.7964,"kind":"restaurant","cuisine":"chinese"},{"name":"Kabayan Filipino Store & Cafe","lat":33.00717,"lng":-96.79617,"kind":"restaurant","cuisine":"filipino"},{"name":"Lavendou Bistro","lat":33.00676,"lng":-96.79643,"kind":"restaurant","cuisine":"french"},{"name":"Sushi Yokohama","lat":33.00642,"lng":-96.79644,"kind":"restaurant","cuisine":"sushi"},{"name":"Bit of Grub","lat":33.00834,"lng":-96.79604,"kind":"restaurant","cuisine":"american"},{"name":"Zato Thai Cuisine and Sushi Bar","lat":33.00867,"lng":-96.79604,"kind":"restaurant","cuisine":"thai"},{"name":"CAVA","lat":32.96767,"lng":-96.99304,"kind":"restaurant","cuisine":"mediterranean"},{"name":"Cajun King Crab","lat":33.01346,"lng":-96.6117,"kind":"restaurant","cuisine":"seafood"},{"name":"Starbucks","lat":33.01984,"lng":-96.91366,"kind":"cafe","cuisine":"coffee shop"},{"name":"Hebron Donuts","lat":33.01019,"lng":-96.96968,"kind":"restaurant","cuisine":"donut"},{"name":"Azusa Sushi & Izakaya","lat":33.00996,"lng":-96.9694,"kind":"restaurant","cuisine":"japanese"},{"name":"Mom's Kitchen","lat":33.02038,"lng":-96.91379,"kind":"restaurant","cuisine":"korean"},{"name":"Starbucks","lat":32.99909,"lng":-96.91052,"kind":"cafe","cuisine":"coffee shop"},{"name":"LA Burger","lat":32.98483,"lng":-96.90823,"kind":"restaurant","cuisine":"burger"},{"name":"Shawarma Press","lat":32.89622,"lng":-96.94025,"kind":"restaurant","cuisine":"mediterranean"},{"name":"Premier Desi District","lat":32.89705,"lng":-96.93947,"kind":"restaurant","cuisine":"indian"},{"name":"Haute Sweets Patisserie","lat":32.86387,"lng":-96.70949,"kind":"restaurant","cuisine":"cake"},{"name":"ONE90 Smoked Meats","lat":32.86387,"lng":-96.70936,"kind":"restaurant","cuisine":"barbecue"},{"name":"MyDonut","lat":32.86387,"lng":-96.70994,"kind":"cafe","cuisine":"coffee shop"},{"name":"First Watch","lat":32.85775,"lng":-96.74927,"kind":"restaurant","cuisine":"american"},{"name":"Latin Deli","lat":32.85595,"lng":-96.74918,"kind":"restaurant","cuisine":"sandwich"},{"name":"India Palace","lat":32.92328,"lng":-96.80442,"kind":"restaurant","cuisine":"indian"},{"name":"Maple Leaf Diner","lat":32.92332,"lng":-96.8053,"kind":"restaurant","cuisine":"canadian"},{"name":"Spring Creek Barbeque","lat":32.92446,"lng":-96.80418,"kind":"restaurant","cuisine":"barbecue"},{"name":"Chiloso","lat":32.95054,"lng":-96.73835,"kind":"restaurant","cuisine":"mexican"},{"name":"Chelle's Seafood Kitchen","lat":32.94887,"lng":-96.7382,"kind":"restaurant","cuisine":"seafood"},{"name":"Foxtrot Market","lat":32.84655,"lng":-96.78776,"kind":"cafe","cuisine":"coffee shop"},{"name":"Starbucks","lat":32.84835,"lng":-96.78714,"kind":"cafe","cuisine":"coffee shop"},{"name":"Craft Boba Tea","lat":32.85977,"lng":-96.76851,"kind":"cafe","cuisine":"bubble tea"},{"name":"Starbucks","lat":32.94389,"lng":-96.69934,"kind":"cafe","cuisine":"coffee shop"},{"name":"White Rock Coffee","lat":32.81255,"lng":-96.75403,"kind":"cafe","cuisine":"coffee shop"},{"name":"Ramen Hakata","lat":32.95266,"lng":-96.85439,"kind":"restaurant","cuisine":"noodle"},{"name":"New New Buffet","lat":32.95068,"lng":-96.85077,"kind":"restaurant","cuisine":"chinese"},{"name":"Little Katana Sushi Bar","lat":32.93043,"lng":-96.81919,"kind":"restaurant","cuisine":"sushi"},{"name":"Starbucks","lat":32.93072,"lng":-96.81957,"kind":"cafe","cuisine":"coffee shop"},{"name":"Mario Bros Tacos","lat":32.89407,"lng":-96.73905,"kind":"restaurant","cuisine":"mexican"},{"name":"Urban Crust","lat":33.01954,"lng":-96.70021,"kind":"restaurant","cuisine":"pizza"},{"name":"Wu Wei Din Chinese Cuisine","lat":33.0201,"lng":-96.75142,"kind":"restaurant","cuisine":"taiwanese"},{"name":"Royal Sweets & Fast Food","lat":32.95164,"lng":-96.73735,"kind":"restaurant","cuisine":"indian"},{"name":"Ricky's Hot Chicken","lat":32.94907,"lng":-96.73831,"kind":"restaurant","cuisine":"fried chicken"},{"name":"Red Hot Indo Chinese & Indian Kitchen","lat":32.94294,"lng":-96.74327,"kind":"restaurant","cuisine":"asian"},{"name":"Texadelphia","lat":32.94283,"lng":-96.7434,"kind":"restaurant","cuisine":"sandwich"},{"name":"Pokeworks","lat":32.94274,"lng":-96.74351,"kind":"restaurant","cuisine":"sushi"},{"name":"Fish & Fizz","lat":32.95667,"lng":-96.76823,"kind":"restaurant","cuisine":"seafood"},{"name":"Lucky Bamboo","lat":32.95708,"lng":-96.76752,"kind":"restaurant","cuisine":"chinese"},{"name":"The Brasa Bar & Grill","lat":32.9573,"lng":-96.76752,"kind":"restaurant","cuisine":"peruvian"},{"name":"Shahrzad Mediterranean Market & Grill","lat":32.96086,"lng":-96.76775,"kind":"restaurant","cuisine":"persian"},{"name":"José","lat":32.85152,"lng":-96.82557,"kind":"restaurant","cuisine":"mexican"},{"name":"Little Greek Fresh Grill","lat":32.97731,"lng":-96.76766,"kind":"restaurant","cuisine":"greek"},{"name":"Pho Que Huong","lat":33.02006,"lng":-96.74654,"kind":"restaurant","cuisine":"vietnamese"},{"name":"Cicis","lat":32.94121,"lng":-96.76991,"kind":"restaurant","cuisine":"pizza"},{"name":"Del's Charcoal Burgers","lat":32.94819,"lng":-96.73139,"kind":"restaurant","cuisine":"american"},{"name":"Mudhook Bar","lat":32.65149,"lng":-96.9082,"kind":"restaurant","cuisine":"burger"},{"name":"Roma's Italian Bistro","lat":32.65158,"lng":-96.90819,"kind":"restaurant","cuisine":"italian"},{"name":"Swagath Birynais","lat":32.92387,"lng":-96.95362,"kind":"restaurant","cuisine":"indian"},{"name":"Mythri's Indian Cuisine","lat":32.92178,"lng":-96.95611,"kind":"restaurant","cuisine":"indian"},{"name":"Mythri's Indian Cuisine Pickup","lat":32.92167,"lng":-96.95622,"kind":"restaurant","cuisine":"indian"},{"name":"King and Cardinal","lat":32.92156,"lng":-96.95636,"kind":"restaurant","cuisine":"indian"},{"name":"Land of a Thousand Hills","lat":32.78248,"lng":-96.78114,"kind":"cafe","cuisine":"coffee shop"},{"name":"The Free Man","lat":32.78272,"lng":-96.78497,"kind":"restaurant","cuisine":"cajun"},{"name":"Sum Dang Good Chinese","lat":32.77924,"lng":-96.82874,"kind":"restaurant","cuisine":"chinese"},{"name":"Holy Crust","lat":32.77924,"lng":-96.82891,"kind":"restaurant","cuisine":"pizza"},{"name":"Sweet Irene Crawfish & Seafood","lat":32.79206,"lng":-96.87425,"kind":"restaurant","cuisine":"seafood"},{"name":"Dutch Bros. Coffee","lat":32.96225,"lng":-96.74862,"kind":"cafe","cuisine":"coffee shop"},{"name":"Bowl Mami","lat":32.98815,"lng":-96.91039,"kind":"restaurant","cuisine":"sandwich"},{"name":"BCD Tofu House","lat":32.98233,"lng":-96.90841,"kind":"restaurant","cuisine":"korean"},{"name":"Pho Pasteur","lat":32.95511,"lng":-96.88833,"kind":"restaurant","cuisine":"vietnamese"},{"name":"My Thai and Vegan","lat":32.89903,"lng":-96.95797,"kind":"restaurant","cuisine":"thai"},{"name":"True Food Kitchen","lat":32.86411,"lng":-96.80335,"kind":"restaurant","cuisine":"american"},{"name":"CAVA","lat":32.95372,"lng":-96.82082,"kind":"restaurant","cuisine":"mediterranean"},{"name":"Al-Amir Lebanese Restaurant and Club","lat":32.95353,"lng":-96.84984,"kind":"restaurant","cuisine":"lebanese"},{"name":"Paparazzi Pizza","lat":32.97437,"lng":-96.8906,"kind":"restaurant","cuisine":"pizza"},{"name":"Babb Bros. BBQ & Blues","lat":32.77993,"lng":-96.82841,"kind":"restaurant","cuisine":"barbecue"},{"name":"Soulman's Bar-B-Que","lat":32.89685,"lng":-96.46815,"kind":"restaurant","cuisine":"barbecue"},{"name":"Salsa Verde","lat":32.95327,"lng":-96.88785,"kind":"restaurant","cuisine":"mexican"},{"name":"Namaste Grill & Bar Irving","lat":32.86519,"lng":-96.97632,"kind":"restaurant","cuisine":"indian restaurant"},{"name":"Urban Taco","lat":32.83777,"lng":-96.77559,"kind":"restaurant","cuisine":"mexican"},{"name":"Kurobuta","lat":32.98515,"lng":-96.91098,"kind":"restaurant","cuisine":"ramen"},{"name":"New China Town","lat":32.74911,"lng":-96.8682,"kind":"restaurant","cuisine":"chinese"},{"name":"Fruitealicious Boba Tea","lat":32.97433,"lng":-96.88899,"kind":"cafe","cuisine":"bubble tea"},{"name":"Mr Jims Pizza","lat":32.97519,"lng":-96.88784,"kind":"restaurant","cuisine":"pizza"},{"name":"Burger Wing City","lat":32.97434,"lng":-96.88795,"kind":"restaurant","cuisine":"burger"},{"name":"Kyodai Handroll & Seafood Bar","lat":32.98816,"lng":-96.89014,"kind":"restaurant","cuisine":"sushi"},{"name":"85°C Bakery Cafe","lat":32.9809,"lng":-96.90789,"kind":"cafe","cuisine":"coffee shop"},{"name":"The Kickin Crab","lat":32.98104,"lng":-96.90788,"kind":"restaurant","cuisine":"cajun"},{"name":"7 Leaves Cafe","lat":32.98142,"lng":-96.90788,"kind":"cafe","cuisine":"coffee shop"},{"name":"Gen Korean BBQ","lat":32.9818,"lng":-96.90789,"kind":"restaurant","cuisine":"korean"},{"name":"DAQ","lat":32.98201,"lng":-96.90788,"kind":"restaurant","cuisine":"korean"},{"name":"Too Thai Street Eats","lat":32.98206,"lng":-96.90788,"kind":"restaurant","cuisine":"thai"},{"name":"District One Saigon Street Food","lat":32.98222,"lng":-96.90788,"kind":"restaurant","cuisine":"vietnamese"},{"name":"Frank Seoul Korean Fried Snack Cafe","lat":32.9823,"lng":-96.90788,"kind":"restaurant","cuisine":"korean"},{"name":"Fred's Downtown Philly","lat":32.98407,"lng":-96.8905,"kind":"restaurant","cuisine":"american"},{"name":"Cheesesteak House","lat":32.7499,"lng":-96.85147,"kind":"restaurant","cuisine":"american"},{"name":"Starbucks","lat":32.74284,"lng":-96.85818,"kind":"cafe","cuisine":"coffee shop"},{"name":"Banh Mi Station","lat":32.76829,"lng":-96.83543,"kind":"restaurant","cuisine":"vietnamese"},{"name":"Win Buffet","lat":32.71908,"lng":-96.87819,"kind":"restaurant","cuisine":"chinese"},{"name":"Royal Sichuan","lat":32.95383,"lng":-96.72763,"kind":"restaurant","cuisine":"chinese"},{"name":"Old Hag's Pizza and Pasta","lat":32.7497,"lng":-96.84354,"kind":"restaurant","cuisine":"pizza"},{"name":"La Hechizera Tortas","lat":32.74337,"lng":-96.83958,"kind":"restaurant","cuisine":"mexican"},{"name":"Tepa","lat":32.74163,"lng":-96.85606,"kind":"restaurant","cuisine":"mexican"},{"name":"El Catrin","lat":32.74339,"lng":-96.83745,"kind":"restaurant","cuisine":"mexican"},{"name":"Charco Broiler","lat":32.74339,"lng":-96.82897,"kind":"restaurant","cuisine":"steak house"},{"name":"Sssame Express","lat":32.73646,"lng":-96.85635,"kind":"restaurant","cuisine":"chinese"},{"name":"Sal's Pizza Restaurant","lat":32.81046,"lng":-96.81966,"kind":"restaurant","cuisine":"pizza"},{"name":"Oishi Sushi & Pan-Asian Cuisine","lat":32.8104,"lng":-96.81978,"kind":"restaurant","cuisine":"sushi"},{"name":"Dickey's Barbecue Pit","lat":32.81104,"lng":-96.81902,"kind":"restaurant","cuisine":"barbecue"},{"name":"Kirin Court Chinese Restaurant","lat":32.94885,"lng":-96.73454,"kind":"restaurant","cuisine":"chinese"},{"name":"First Chinese BBQ-Richardson","lat":32.94778,"lng":-96.7297,"kind":"restaurant","cuisine":"chinese"},{"name":"Mi Cocina","lat":32.80395,"lng":-96.79933,"kind":"restaurant","cuisine":"mexican"},{"name":"Alondra’s Cuisine","lat":32.86298,"lng":-96.64515,"kind":"restaurant","cuisine":"mexican"},{"name":"Ba Le 1 Vietnamese Cuisine","lat":32.85042,"lng":-96.66532,"kind":"restaurant","cuisine":"vietnamese"},{"name":"Mi Cocina","lat":32.78964,"lng":-96.80177,"kind":"restaurant","cuisine":"mexican"},{"name":"Stop -N- Go Gyros","lat":33.00084,"lng":-96.96349,"kind":"restaurant","cuisine":"greek"},{"name":"Primo's MX Kitchen Uptown","lat":32.80482,"lng":-96.79926,"kind":"restaurant","cuisine":"mexican"},{"name":"Ka Thai","lat":32.8034,"lng":-96.79978,"kind":"restaurant","cuisine":"thai"},{"name":"Taco Joint","lat":32.8635,"lng":-96.80603,"kind":"restaurant","cuisine":"mexican"},{"name":"Fat Straws Bubble Tea Co.","lat":32.97768,"lng":-96.76225,"kind":"cafe","cuisine":"bubble tea"},{"name":"Roy G's","lat":32.81103,"lng":-96.81146,"kind":"restaurant","cuisine":"american"},{"name":"Craft Boba Tea","lat":32.77845,"lng":-96.82913,"kind":"cafe","cuisine":"bubble tea"},{"name":"The Biscuit Bar","lat":32.78495,"lng":-96.78815,"kind":"restaurant","cuisine":"southern"},{"name":"Uno Mas","lat":32.78093,"lng":-96.79851,"kind":"restaurant","cuisine":"tex-mex"},{"name":"Campisi's","lat":32.7814,"lng":-96.79866,"kind":"restaurant","cuisine":"italian"},{"name":"Partenope","lat":32.78153,"lng":-96.79563,"kind":"restaurant","cuisine":"italian"},{"name":"Mariscos La Marea Mexican & Seafood","lat":32.83379,"lng":-96.6715,"kind":"restaurant","cuisine":"mexican"},{"name":"Brother's Pizza & Pasta","lat":32.8878,"lng":-96.77186,"kind":"restaurant","cuisine":"pizza"},{"name":"Feng Cha","lat":32.99176,"lng":-96.72795,"kind":"cafe","cuisine":"bubble tea"},{"name":"Zalat Pizza","lat":32.81241,"lng":-96.78392,"kind":"restaurant","cuisine":"pizza"},{"name":"Starbucks","lat":32.81497,"lng":-96.82644,"kind":"cafe","cuisine":"coffee shop"},{"name":"Ravenna Italian Grille and Bar","lat":32.78009,"lng":-96.80108,"kind":"restaurant","cuisine":"italian"},{"name":"Twisted Trompo","lat":32.77956,"lng":-96.80137,"kind":"restaurant","cuisine":"mexican"},{"name":"Bread Zeppelin","lat":32.78016,"lng":-96.80074,"kind":"restaurant","cuisine":"salad"},{"name":"Neon Kitten","lat":32.78414,"lng":-96.78309,"kind":"restaurant","cuisine":"sushi"},{"name":"Crab Station","lat":32.78352,"lng":-96.78261,"kind":"restaurant","cuisine":"seafood"},{"name":"Zatar Lebanese Tapas & Bar","lat":32.78357,"lng":-96.78219,"kind":"restaurant","cuisine":"lebanese"},{"name":"Twin Peaks","lat":33.00105,"lng":-96.96344,"kind":"restaurant","cuisine":"american"},{"name":"Tradecraft Coffee + Tea Bar","lat":32.98488,"lng":-96.74653,"kind":"cafe","cuisine":"coffee shop"},{"name":"India 101","lat":32.92116,"lng":-96.98985,"kind":"restaurant","cuisine":"indian"},{"name":"Pax & Beneficia Coffee","lat":33.00814,"lng":-96.71728,"kind":"cafe","cuisine":"coffee shop"},{"name":"Taco Joint","lat":33.00826,"lng":-96.71751,"kind":"restaurant","cuisine":"tex-mex"},{"name":"Cicis","lat":32.79954,"lng":-96.97595,"kind":"restaurant","cuisine":"pizza"},{"name":"Pizza Hut","lat":32.80061,"lng":-96.97677,"kind":"restaurant","cuisine":"pizza"},{"name":"The Catch","lat":32.84682,"lng":-96.99139,"kind":"restaurant","cuisine":"seafood"},{"name":"La Margarita","lat":32.84585,"lng":-96.99143,"kind":"restaurant","cuisine":"mexican"},{"name":"Dickey's Barbecue Pit","lat":32.84547,"lng":-96.99141,"kind":"restaurant","cuisine":"barbecue"},{"name":"Fast and Furious Japanese Grill","lat":32.89639,"lng":-96.96176,"kind":"restaurant","cuisine":"asian"},{"name":"Southern Spice","lat":32.89634,"lng":-96.96109,"kind":"restaurant","cuisine":"indian"},{"name":"Pizza Twist","lat":32.89635,"lng":-96.961,"kind":"restaurant","cuisine":"pizza"},{"name":"ZAAP Kitchen","lat":32.89732,"lng":-96.9581,"kind":"restaurant","cuisine":"sandwich"},{"name":"O'Desi Aroma","lat":32.89725,"lng":-96.95811,"kind":"restaurant","cuisine":"indian"},{"name":"La Madeline","lat":32.89651,"lng":-96.95814,"kind":"restaurant","cuisine":"french"},{"name":"Little Katana","lat":32.89642,"lng":-96.95774,"kind":"restaurant","cuisine":"asian"},{"name":"Thai Tea","lat":32.91904,"lng":-96.9943,"kind":"cafe","cuisine":"bubble tea"},{"name":"Fish City Grill","lat":32.91281,"lng":-96.95636,"kind":"restaurant","cuisine":"seafood"},{"name":"Mi Cocina","lat":32.9127,"lng":-96.95649,"kind":"restaurant","cuisine":"mexican"},{"name":"Salata","lat":32.91002,"lng":-96.95936,"kind":"restaurant","cuisine":"salad"},{"name":"Pizza Hut","lat":32.8547,"lng":-96.99256,"kind":"restaurant","cuisine":"pizza"},{"name":"Fito's","lat":32.84276,"lng":-96.99189,"kind":"restaurant","cuisine":"mexican"},{"name":"Empress of China","lat":32.84262,"lng":-96.99188,"kind":"restaurant","cuisine":"asian"},{"name":"McAlister's Deli","lat":32.86443,"lng":-96.83786,"kind":"restaurant","cuisine":"sandwich"},{"name":"El Fenix","lat":32.86606,"lng":-96.78828,"kind":"restaurant","cuisine":"mexican"},{"name":"Thai Wok In N Go","lat":32.90896,"lng":-96.85568,"kind":"restaurant","cuisine":"asian"},{"name":"Casa Navarro","lat":32.90886,"lng":-96.85568,"kind":"restaurant","cuisine":"mexican"},{"name":"Fat Straws","lat":32.91003,"lng":-96.80352,"kind":"cafe","cuisine":"bubble tea"},{"name":"Pizza Hut","lat":32.90994,"lng":-96.80281,"kind":"restaurant","cuisine":"pizza"},{"name":"K-Pop Ramen","lat":32.82486,"lng":-96.82006,"kind":"restaurant","cuisine":"asian"},{"name":"Cicis","lat":32.86298,"lng":-96.6434,"kind":"restaurant","cuisine":"pizza"},{"name":"Sweetwater's Coffee & Tea","lat":33.01273,"lng":-96.61201,"kind":"cafe","cuisine":"coffee shop"},{"name":"New York Pizza & Pasta","lat":32.94174,"lng":-96.95278,"kind":"restaurant","cuisine":"pizza"},{"name":"Cicis","lat":32.89389,"lng":-96.47186,"kind":"restaurant","cuisine":"pizza"},{"name":"CJ's Bulgogi & Grill","lat":32.92141,"lng":-96.9092,"kind":"restaurant","cuisine":"korean"},{"name":"Crab King","lat":32.9215,"lng":-96.9092,"kind":"restaurant","cuisine":"cajun"},{"name":"Parma Pasta & Pizza","lat":33.0047,"lng":-96.98612,"kind":"restaurant","cuisine":"pizza"},{"name":"Pho Que Huong Vietnamese Restaurant","lat":33.00457,"lng":-96.98652,"kind":"restaurant","cuisine":"vietnamese"},{"name":"Velvet Taco","lat":32.7839,"lng":-96.78676,"kind":"restaurant","cuisine":"mexican"},{"name":"Sushi Mocki","lat":32.83806,"lng":-96.77569,"kind":"restaurant","cuisine":"sushi"},{"name":"Go Fish Poke","lat":32.86954,"lng":-96.93806,"kind":"restaurant","cuisine":"sushi"},{"name":"Sweetgreen","lat":32.80751,"lng":-96.79709,"kind":"restaurant","cuisine":"salad"},{"name":"Yely","lat":32.8671,"lng":-96.74108,"kind":"cafe","cuisine":"bubble tea"},{"name":"Lockhart Smokehouse BBQ","lat":32.74934,"lng":-96.82846,"kind":"restaurant","cuisine":"barbecue"},{"name":"Greek Cafe & Bakery","lat":32.74934,"lng":-96.82805,"kind":"restaurant","cuisine":"greek"},{"name":"No.1 Plus Chicken","lat":32.98435,"lng":-96.91047,"kind":"restaurant","cuisine":"korean"},{"name":"Ari Korean BBQ","lat":32.98426,"lng":-96.91047,"kind":"restaurant","cuisine":"korean"},{"name":"Sharetea","lat":32.98448,"lng":-96.91048,"kind":"cafe","cuisine":"bubble tea"},{"name":"Edmond's Burgers & More","lat":33.02058,"lng":-96.75145,"kind":"restaurant","cuisine":"american"},{"name":"The Biscuit Bar","lat":32.96903,"lng":-96.99316,"kind":"restaurant","cuisine":"american"},{"name":"Chilicious Thai","lat":32.96888,"lng":-96.9923,"kind":"restaurant","cuisine":"thai"},{"name":"Cicis","lat":32.96881,"lng":-96.9923,"kind":"restaurant","cuisine":"pizza"},{"name":"Starbucks","lat":32.90934,"lng":-96.87184,"kind":"cafe","cuisine":"coffee shop"},{"name":"Squishies Bubble Tea","lat":32.8786,"lng":-96.71568,"kind":"cafe","cuisine":"bubble tea"},{"name":"Rockyano's Pizza","lat":32.87831,"lng":-96.70102,"kind":"restaurant","cuisine":"pizza"},{"name":"Tukta Thai","lat":32.87843,"lng":-96.70103,"kind":"restaurant","cuisine":"thai"},{"name":"ZiZi Ramen & Sushi","lat":32.87956,"lng":-96.70156,"kind":"restaurant","cuisine":"noodle"},{"name":"El Ranchito","lat":32.83936,"lng":-96.6975,"kind":"restaurant","cuisine":"mexican"},{"name":"Hello Dumpling","lat":32.8396,"lng":-96.69682,"kind":"restaurant","cuisine":"asian"},{"name":"John's Cafe","lat":32.81187,"lng":-96.77059,"kind":"restaurant","cuisine":"american"},{"name":"Olivella's Pizza and Wine","lat":32.83701,"lng":-96.75115,"kind":"restaurant","cuisine":"pizza"},{"name":"Taco Joint","lat":32.83553,"lng":-96.75166,"kind":"restaurant","cuisine":"mexican"},{"name":"Crisp & Green","lat":32.83797,"lng":-96.75331,"kind":"restaurant","cuisine":"sandwich"},{"name":"Meso Maya","lat":32.83589,"lng":-96.75381,"kind":"restaurant","cuisine":"mexican"},{"name":"Yummy Thai","lat":32.92566,"lng":-96.9956,"kind":"restaurant","cuisine":"thai"},{"name":"Starbucks","lat":32.86381,"lng":-96.80227,"kind":"cafe","cuisine":"coffee shop"},{"name":"Saint Taco","lat":32.91843,"lng":-96.92618,"kind":"restaurant","cuisine":"mexican"},{"name":"Armando's Tacos","lat":32.94625,"lng":-96.99297,"kind":"restaurant","cuisine":"mexican"},{"name":"Dickey's Barbecue Pit","lat":32.9503,"lng":-96.994,"kind":"restaurant","cuisine":"barbecue"},{"name":"Gas Coffee","lat":32.94986,"lng":-96.99398,"kind":"cafe","cuisine":"coffee shop"},{"name":"CAVA","lat":32.9012,"lng":-96.95945,"kind":"restaurant","cuisine":"mediterranean"},{"name":"Swamp Café","lat":32.99057,"lng":-96.83147,"kind":"restaurant","cuisine":"cajun"},{"name":"Jinbeh","lat":33.005,"lng":-96.96519,"kind":"restaurant","cuisine":"japanese"},{"name":"Bistro B","lat":32.92181,"lng":-96.71973,"kind":"restaurant","cuisine":"asian"},{"name":"Eddie's Napoli's Italian Restaurant","lat":32.86013,"lng":-96.64449,"kind":"restaurant","cuisine":"italian"},{"name":"Mi Casa","lat":32.8341,"lng":-96.63471,"kind":"restaurant","cuisine":"mexican"},{"name":"Primo Brother's Pizza","lat":32.90778,"lng":-96.73691,"kind":"restaurant","cuisine":"pizza"},{"name":"Famous Joe's Pizza","lat":32.91843,"lng":-96.92643,"kind":"restaurant","cuisine":"pizza"},{"name":"Stop-N-Go Gyros","lat":32.91842,"lng":-96.9265,"kind":"restaurant","cuisine":"mediterranean"},{"name":"Red Stix Street Food & Bar","lat":32.92329,"lng":-96.89543,"kind":"restaurant","cuisine":"asian"},{"name":"Politano's Pizza & Pasta","lat":32.92482,"lng":-96.99031,"kind":"restaurant","cuisine":"italian"},{"name":"F&F Express","lat":32.92503,"lng":-96.99021,"kind":"restaurant","cuisine":"asian"},{"name":"Starbucks","lat":32.79161,"lng":-96.59722,"kind":"cafe","cuisine":"coffee shop"},{"name":"Cameleón Seafood  Restaurant","lat":33.0131,"lng":-96.99379,"kind":"restaurant","cuisine":"seafood"},{"name":"Phở One","lat":33.0131,"lng":-96.99345,"kind":"restaurant","cuisine":"vietnamese"},{"name":"Taqueria Taxco","lat":32.78305,"lng":-96.60071,"kind":"restaurant","cuisine":"mexican"},{"name":"Gino's Pizza Pasta","lat":32.96667,"lng":-96.99273,"kind":"restaurant","cuisine":"american"},{"name":"Victor's Wood Grill","lat":32.96626,"lng":-96.99277,"kind":"restaurant","cuisine":"grill"},{"name":"Starwood Breakfast Lunch Diner","lat":32.9991,"lng":-96.96146,"kind":"cafe","cuisine":"american"},{"name":"Texadelphia","lat":32.8271,"lng":-96.84617,"kind":"restaurant","cuisine":"american"},{"name":"Sushi Poki","lat":32.9215,"lng":-96.99582,"kind":"restaurant","cuisine":"sushi"},{"name":"What The Biryani","lat":32.92107,"lng":-96.99594,"kind":"restaurant","cuisine":"indian"},{"name":"Sheesh Kitchen","lat":32.92141,"lng":-96.99585,"kind":"restaurant","cuisine":"mediterranean"},{"name":"Cavalli Pizza","lat":32.9211,"lng":-96.99634,"kind":"restaurant","cuisine":"pizza"},{"name":"Black Sesame","lat":32.92013,"lng":-96.99485,"kind":"restaurant","cuisine":"asian"},{"name":"Taco Lingo","lat":32.78925,"lng":-96.80603,"kind":"restaurant","cuisine":"mexican"},{"name":"North Italia","lat":32.78897,"lng":-96.80593,"kind":"restaurant","cuisine":"italian"},{"name":"Rancho Restaurant","lat":32.80989,"lng":-96.93159,"kind":"restaurant","cuisine":"mexican"},{"name":"Sushi Kushi","lat":32.98724,"lng":-96.90912,"kind":"restaurant","cuisine":"sushi"},{"name":"Tokyo Teriyaki","lat":32.93763,"lng":-96.92458,"kind":"restaurant","cuisine":"japanese"},{"name":"La Duni Baking Studio","lat":32.80111,"lng":-96.842,"kind":"restaurant","cuisine":"dessert"},{"name":"Triumphs Espresso & Whiskey","lat":32.79423,"lng":-96.83089,"kind":"cafe","cuisine":"coffee shop"},{"name":"Wayward Coffee Co.","lat":32.79487,"lng":-96.82941,"kind":"cafe","cuisine":"coffee shop"},{"name":"Taqueria Taxco","lat":32.80981,"lng":-96.85138,"kind":"restaurant","cuisine":"mexican"},{"name":"Ale Tacos","lat":33.01233,"lng":-96.96317,"kind":"restaurant","cuisine":"tex-mex"},{"name":"Anamia's Tex-Mex","lat":32.97042,"lng":-96.9943,"kind":"restaurant","cuisine":"tex-mex"},{"name":"San Daniele","lat":32.97036,"lng":-96.99474,"kind":"restaurant","cuisine":"italian"},{"name":"America's Best Wings","lat":33.01365,"lng":-96.99257,"kind":"restaurant","cuisine":"american"},{"name":"Denny's","lat":33.00844,"lng":-96.97646,"kind":"restaurant","cuisine":"american"},{"name":"PJ's Coffee","lat":32.87172,"lng":-96.99454,"kind":"cafe","cuisine":"coffee shop"},{"name":"Cicis","lat":32.90858,"lng":-96.87177,"kind":"restaurant","cuisine":"pizza"},{"name":"La Ventana","lat":32.77785,"lng":-96.78981,"kind":"restaurant","cuisine":"mexican"},{"name":"Thai Palm Dallas","lat":32.84539,"lng":-96.95041,"kind":"restaurant","cuisine":"thai"},{"name":"Rey's Sports Bar","lat":32.84571,"lng":-96.95024,"kind":"restaurant","cuisine":"latin american"},{"name":"Ka-Tip","lat":32.77707,"lng":-96.7891,"kind":"restaurant","cuisine":"thai"},{"name":"Rex's Seafood and Market","lat":32.77766,"lng":-96.78964,"kind":"restaurant","cuisine":"seafood"},{"name":"Nammi","lat":32.77742,"lng":-96.79038,"kind":"restaurant","cuisine":"vietnamese"},{"name":"Palmieri Cafe","lat":32.77746,"lng":-96.79043,"kind":"cafe","cuisine":"coffee shop"},{"name":"8 Cloves","lat":32.77732,"lng":-96.79025,"kind":"restaurant","cuisine":"indian"},{"name":"Sabaidee Lao & Thai Street Food","lat":32.90999,"lng":-96.55811,"kind":"restaurant","cuisine":"thai"},{"name":"Atheneos Greek Village Cafe","lat":32.78285,"lng":-96.62771,"kind":"restaurant","cuisine":"greek"},{"name":"Panda Pho & Boba House","lat":32.92053,"lng":-96.51726,"kind":"restaurant","cuisine":"vietnamese"},{"name":"Burger Island","lat":32.91962,"lng":-96.51543,"kind":"restaurant","cuisine":"burger"},{"name":"Zuko's Pizza Pasta","lat":32.88344,"lng":-96.5691,"kind":"restaurant","cuisine":"italian"},{"name":"Sofrano's Restaurant & Sport Bar","lat":32.86399,"lng":-96.54167,"kind":"restaurant","cuisine":"greek"},{"name":"HOPE Coffee","lat":32.79243,"lng":-96.56174,"kind":"cafe","cuisine":"coffee shop"},{"name":"La Bella Italian Grill","lat":32.8633,"lng":-96.60436,"kind":"restaurant","cuisine":"italian"},{"name":"Opa! Greek Taverna","lat":32.90814,"lng":-96.56458,"kind":"restaurant","cuisine":"greek"},{"name":"Super Shack","lat":32.90815,"lng":-96.56446,"kind":"restaurant","cuisine":"seafood"},{"name":"Oh My Curry","lat":32.76563,"lng":-96.58753,"kind":"restaurant","cuisine":"indian"},{"name":"Sabor Café","lat":32.95327,"lng":-96.88932,"kind":"restaurant","cuisine":"cuban"},{"name":"Belgian Bites","lat":32.81497,"lng":-96.77002,"kind":"restaurant","cuisine":"belgian"},{"name":"Dickey's Barbecue Pit","lat":32.78061,"lng":-96.80173,"kind":"restaurant","cuisine":"barbecue"},{"name":"Chef Wang","lat":32.78047,"lng":-96.80288,"kind":"restaurant","cuisine":"chinese"},{"name":"Wicked Butcher","lat":32.78145,"lng":-96.79602,"kind":"restaurant","cuisine":"steak house"},{"name":"Barrel & Bones","lat":32.90542,"lng":-96.91311,"kind":"restaurant","cuisine":"barbecue"},{"name":"Pizza Hut","lat":32.90928,"lng":-96.85868,"kind":"restaurant","cuisine":"pizza"},{"name":"Pho Bac","lat":32.94691,"lng":-96.70083,"kind":"restaurant","cuisine":"vietnamese"},{"name":"Happy Lemon","lat":32.94715,"lng":-96.70067,"kind":"cafe","cuisine":"bubble tea"},{"name":"White Rhino Coffee","lat":32.7812,"lng":-96.80106,"kind":"cafe","cuisine":"coffee shop"},{"name":"Shivas Bar & Grill","lat":32.78283,"lng":-96.80437,"kind":"restaurant","cuisine":"indian"},{"name":"Starbucks","lat":33.02022,"lng":-96.93143,"kind":"cafe","cuisine":"coffee shop"},{"name":"Yorienn","lat":33.01961,"lng":-96.93182,"kind":"restaurant","cuisine":"korean"},{"name":"Dami","lat":33.01952,"lng":-96.9319,"kind":"restaurant","cuisine":"korean"},{"name":"Sushi Nekko","lat":33.02122,"lng":-96.93064,"kind":"restaurant","cuisine":"japanese"},{"name":"SUBEN Sushi","lat":33.01954,"lng":-96.91728,"kind":"restaurant","cuisine":"sushi"},{"name":"TeaLatte Bar","lat":32.99844,"lng":-96.90936,"kind":"cafe","cuisine":"tea"},{"name":"Sushi Kadan","lat":32.99828,"lng":-96.90936,"kind":"restaurant","cuisine":"sushi"},{"name":"Sunview Cafe","lat":33.00526,"lng":-96.98148,"kind":"cafe","cuisine":"coffee shop"},{"name":"Mumbai Grill","lat":32.98858,"lng":-96.8012,"kind":"restaurant","cuisine":"indian"},{"name":"Banana Leaf Thai Cuisine","lat":32.98896,"lng":-96.80174,"kind":"restaurant","cuisine":"thai"},{"name":"Starbucks","lat":33.02362,"lng":-96.79586,"kind":"cafe","cuisine":"coffee shop"},{"name":"Asian Mint","lat":32.97625,"lng":-96.72193,"kind":"restaurant","cuisine":"asian"},{"name":"Hot Pizza","lat":32.98324,"lng":-96.80079,"kind":"restaurant","cuisine":"pizza"},{"name":"Palateria Nuevo Leon","lat":32.97754,"lng":-96.71595,"kind":"restaurant","cuisine":"mexican"},{"name":"India Chaat Cafe","lat":32.99893,"lng":-96.79875,"kind":"restaurant","cuisine":"indian"},{"name":"Tom Yum Thai","lat":32.94564,"lng":-96.67868,"kind":"restaurant","cuisine":"thai"},{"name":"Zio Al's Pizza & Pasta","lat":33.00725,"lng":-96.7958,"kind":"restaurant","cuisine":"pizza"},{"name":"Pane Vino Osteria","lat":32.9535,"lng":-96.82485,"kind":"restaurant","cuisine":"italian"},{"name":"Masala Wok","lat":32.9791,"lng":-96.76481,"kind":"restaurant","cuisine":"indian"},{"name":"Mi Cocina","lat":32.83573,"lng":-96.80605,"kind":"restaurant","cuisine":"tex-mex"},{"name":"The Honor Bar","lat":32.83548,"lng":-96.80672,"kind":"restaurant","cuisine":"american"},{"name":"Milano's Pizza","lat":32.93973,"lng":-96.73412,"kind":"restaurant","cuisine":"pizza"},{"name":"Local Tap & Table","lat":32.7961,"lng":-96.81377,"kind":"restaurant","cuisine":"cajun"},{"name":"Ellen's","lat":32.78189,"lng":-96.80767,"kind":"restaurant","cuisine":"brunch"},{"name":"SNOWFOX","lat":32.96889,"lng":-96.60412,"kind":"restaurant","cuisine":"sushi"},{"name":"Mister Charles","lat":32.82345,"lng":-96.79015,"kind":"restaurant","cuisine":"french"},{"name":"The Charles","lat":32.79297,"lng":-96.82181,"kind":"restaurant","cuisine":"seafood"},{"name":"El Carlos Elegante","lat":32.79022,"lng":-96.82001,"kind":"restaurant","cuisine":"mexican food"},{"name":"Dang Sung Sa","lat":32.89662,"lng":-96.89961,"kind":"restaurant","cuisine":"korean"},{"name":"Pizza Hut","lat":33.01183,"lng":-96.99151,"kind":"restaurant","cuisine":"pizza"},{"name":"Tequila Social","lat":32.79876,"lng":-96.81144,"kind":"restaurant","cuisine":"tex-mex"},{"name":"Pei Wei","lat":33.01052,"lng":-96.57389,"kind":"restaurant","cuisine":"asian"},{"name":"Taco Joint","lat":33.01051,"lng":-96.57413,"kind":"restaurant","cuisine":"mexican"},{"name":"Addison Sushi","lat":32.96175,"lng":-96.82622,"kind":"restaurant","cuisine":"sushi"},{"name":"Andalous Mediterranean Grill","lat":32.89714,"lng":-96.95811,"kind":"restaurant","cuisine":"mediterranean"},{"name":"Bread Zeppelin","lat":32.89692,"lng":-96.95811,"kind":"restaurant","cuisine":"salad"},{"name":"Thai Orchid","lat":32.9532,"lng":-96.82801,"kind":"restaurant","cuisine":"thai"},{"name":"Bushi Bushi Dim Sum","lat":32.95321,"lng":-96.82738,"kind":"restaurant","cuisine":"chinese"},{"name":"Hong Dumpling House","lat":32.89608,"lng":-96.91381,"kind":"restaurant","cuisine":"korean"},{"name":"Black Agave","lat":32.90527,"lng":-96.9131,"kind":"restaurant","cuisine":"mexican"},{"name":"Dallas Cowboys Club","lat":32.84564,"lng":-96.85005,"kind":"restaurant","cuisine":"american"},{"name":"Mike's Chicken","lat":32.80838,"lng":-96.81872,"kind":"restaurant","cuisine":"chicken"},{"name":"Pizza Hut","lat":32.79613,"lng":-96.68635,"kind":"restaurant","cuisine":"pizza"},{"name":"IHOP","lat":32.81229,"lng":-96.73069,"kind":"restaurant","cuisine":"breakfast"},{"name":"Poke Bop","lat":32.83601,"lng":-96.75251,"kind":"restaurant","cuisine":"japanese"},{"name":"Lover's Pizza and Pasta","lat":32.83554,"lng":-96.75191,"kind":"restaurant","cuisine":"pizza"},{"name":"Merit Coffee","lat":32.83584,"lng":-96.75252,"kind":"cafe","cuisine":"coffee shop"},{"name":"LDU Coffee","lat":32.81446,"lng":-96.78563,"kind":"cafe","cuisine":"coffee shop"},{"name":"Emilio's Mexican Kitchen","lat":32.86225,"lng":-96.7529,"kind":"restaurant","cuisine":"mexican"},{"name":"Ssong’s Hotdog and R&B Tea","lat":32.95198,"lng":-96.81938,"kind":"restaurant","cuisine":"korean"},{"name":"Postino","lat":32.95374,"lng":-96.81888,"kind":"restaurant","cuisine":"mexican"},{"name":"Zalat Pizza","lat":32.95374,"lng":-96.82657,"kind":"restaurant","cuisine":"pizza"},{"name":"Good Hand Tacos & Pupusas","lat":32.92616,"lng":-96.76947,"kind":"restaurant","cuisine":"mexican"},{"name":"Dallul e. African","lat":32.92594,"lng":-96.77012,"kind":"restaurant","cuisine":"ethiopan"},{"name":"Logie's on Beltline","lat":32.95217,"lng":-96.81835,"kind":"restaurant","cuisine":"american"},{"name":"Asian Mint","lat":32.95338,"lng":-96.81669,"kind":"restaurant","cuisine":"asian"},{"name":"Gyu-Kaku","lat":32.95344,"lng":-96.81669,"kind":"restaurant","cuisine":"japanese"},{"name":"Snooze","lat":32.95225,"lng":-96.82121,"kind":"restaurant","cuisine":"breakfast"},{"name":"Burning Rice","lat":32.95352,"lng":-96.82479,"kind":"restaurant","cuisine":"korean"},{"name":"Benihana","lat":32.95351,"lng":-96.82395,"kind":"restaurant","cuisine":"japanese"},{"name":"Spatch Kitchen & Cocktails","lat":32.95348,"lng":-96.82319,"kind":"restaurant","cuisine":"american"},{"name":"Tasty Tails","lat":32.95328,"lng":-96.82714,"kind":"restaurant","cuisine":"seafood"},{"name":"The Melting Pot","lat":32.9537,"lng":-96.82801,"kind":"restaurant","cuisine":"fondue"},{"name":"Pie Tap Pizza Workshop + Bar","lat":32.95224,"lng":-96.82039,"kind":"restaurant","cuisine":"pizza"},{"name":"Kenny's Italian Kitchen","lat":32.95224,"lng":-96.81969,"kind":"restaurant","cuisine":"italian"},{"name":"Neighborhood Services","lat":32.95178,"lng":-96.82031,"kind":"restaurant","cuisine":"american"},{"name":"Vidorra","lat":32.95121,"lng":-96.81975,"kind":"restaurant","cuisine":"mexican"},{"name":"Hawkers Asian Street Food","lat":32.95085,"lng":-96.81975,"kind":"restaurant","cuisine":"asian"},{"name":"Stirr","lat":32.95133,"lng":-96.82036,"kind":"restaurant","cuisine":"breakfast"},{"name":"Lazy Dog","lat":32.9513,"lng":-96.82106,"kind":"restaurant","cuisine":"american"},{"name":"Lake Highlands Cafe","lat":32.86717,"lng":-96.74361,"kind":"cafe","cuisine":"breakfast"},{"name":"MJ's Chicken & Rice","lat":32.86724,"lng":-96.74359,"kind":"restaurant","cuisine":"chinese"},{"name":"Kerala Express India Food and Grocery","lat":32.81729,"lng":-96.97575,"kind":"restaurant","cuisine":"indian"},{"name":"GoGogiri","lat":32.99062,"lng":-96.80301,"kind":"restaurant","cuisine":"asian"},{"name":"Sushi | Bar Dallas","lat":32.78115,"lng":-96.7916,"kind":"restaurant","cuisine":"sushi"},{"name":"Piada Italian Street Food","lat":32.83676,"lng":-96.75462,"kind":"restaurant","cuisine":"italian"},{"name":"Starbucks","lat":32.83686,"lng":-96.75461,"kind":"cafe","cuisine":"coffee shop"},{"name":"Table 13","lat":32.95371,"lng":-96.82932,"kind":"restaurant","cuisine":"american"},{"name":"Mr. Sushi","lat":32.9532,"lng":-96.82904,"kind":"restaurant","cuisine":"sushi"},{"name":"Pho Que Huong","lat":32.9532,"lng":-96.82962,"kind":"restaurant","cuisine":"vietnamese"},{"name":"Starbucks","lat":32.86546,"lng":-96.74509,"kind":"cafe","cuisine":"coffee shop"},{"name":"Sushi Sakana","lat":32.79946,"lng":-96.80115,"kind":"restaurant","cuisine":"sushi"},{"name":"Sushi Sakana","lat":32.97292,"lng":-96.99419,"kind":"restaurant","cuisine":"sushi"},{"name":"Black Rock Coffee","lat":32.99285,"lng":-96.57184,"kind":"cafe","cuisine":"coffee shop"},{"name":"Kung Fu Tea","lat":32.97708,"lng":-96.71608,"kind":"cafe","cuisine":"bubble tea"},{"name":"Taqueria & Tamaleria Nuevo León","lat":32.97745,"lng":-96.71598,"kind":"restaurant","cuisine":"mexican"},{"name":"Okaeri Cafe","lat":32.95122,"lng":-96.72866,"kind":"cafe","cuisine":"japanese"},{"name":"Hudson House","lat":32.9545,"lng":-96.82741,"kind":"restaurant","cuisine":"seafood"},{"name":"Family Thais Asian Bistro","lat":32.7806,"lng":-96.80618,"kind":"restaurant","cuisine":"thai"},{"name":"Cane Rosso","lat":32.96268,"lng":-96.78906,"kind":"restaurant","cuisine":"pizza"},{"name":"Snuffer's","lat":32.95385,"lng":-96.83965,"kind":"restaurant","cuisine":"burger"},{"name":"Taqueria La Ventana","lat":32.95382,"lng":-96.83981,"kind":"restaurant","cuisine":"mexican"},{"name":"TeaLatte Bar","lat":32.97916,"lng":-96.77115,"kind":"cafe","cuisine":"bubble tea"},{"name":"Andiamo Italian Grill","lat":32.9547,"lng":-96.83968,"kind":"restaurant","cuisine":"italian"},{"name":"Queen of Sheba","lat":32.951,"lng":-96.83013,"kind":"restaurant","cuisine":"ethiopian"},{"name":"Krak Boba","lat":32.95363,"lng":-96.85314,"kind":"cafe","cuisine":"bubble tea"},{"name":"Dickey's Barbecue Pit","lat":32.95363,"lng":-96.8532,"kind":"restaurant","cuisine":"barbecue"},{"name":"F&F Japanese Grill","lat":32.95363,"lng":-96.8533,"kind":"restaurant","cuisine":"japanese"},{"name":"Sigree Indian Cuisine","lat":32.95479,"lng":-96.83997,"kind":"restaurant","cuisine":"indian"},{"name":"Boba Tea & Treats","lat":32.95483,"lng":-96.84132,"kind":"cafe","cuisine":"bubble tea"},{"name":"Best Thai","lat":32.95483,"lng":-96.84138,"kind":"restaurant","cuisine":"thai"},{"name":"Higuma Ramen & Izakaya","lat":32.95479,"lng":-96.84187,"kind":"restaurant","cuisine":"japanese"},{"name":"Lefty's Lobster and Chowder House","lat":32.95527,"lng":-96.84469,"kind":"restaurant","cuisine":"seafood"},{"name":"Jasmine Uniquely Chinese","lat":32.95337,"lng":-96.84716,"kind":"restaurant","cuisine":"chinese"},{"name":"Las Palmas","lat":32.95402,"lng":-96.84765,"kind":"restaurant","cuisine":"columbian"},{"name":"Kalachandji's","lat":32.79411,"lng":-96.75017,"kind":"restaurant","cuisine":"indian"},{"name":"El Tiburon","lat":32.80043,"lng":-96.75666,"kind":"restaurant","cuisine":"mexican"},{"name":"Snooze","lat":32.8102,"lng":-96.80842,"kind":"restaurant","cuisine":"breakfast"},{"name":"Gravity Tex-Mex Grill & Lounge","lat":32.99085,"lng":-96.80279,"kind":"restaurant","cuisine":"tex-mex"},{"name":"The Pizza Dude","lat":32.99068,"lng":-96.80087,"kind":"restaurant","cuisine":"pizza"},{"name":"Todo Paspalos","lat":32.98974,"lng":-96.80088,"kind":"restaurant","cuisine":"venezuelan"},{"name":"Tre Stelle Coffee Co.","lat":32.98957,"lng":-96.8009,"kind":"cafe","cuisine":"coffee shop"},{"name":"Thai's Thumbz Urban Kitchen","lat":33.00106,"lng":-96.68451,"kind":"restaurant","cuisine":"thai"},{"name":"El Hoyo","lat":32.79922,"lng":-96.76974,"kind":"restaurant","cuisine":"mexican"},{"name":"Palmer's Hot Chicken","lat":32.83781,"lng":-96.75206,"kind":"restaurant","cuisine":"chicken"},{"name":"Ohayo Sushi Seafood & Japanese Fusion","lat":33.00439,"lng":-96.96976,"kind":"restaurant","cuisine":"japanese"},{"name":"Dickey's Barbecue Pit","lat":32.8887,"lng":-96.47285,"kind":"restaurant","cuisine":"barbecue"},{"name":"Pizza Hut","lat":32.88929,"lng":-96.46979,"kind":"restaurant","cuisine":"pizza"},{"name":"Basil Cafe","lat":32.88937,"lng":-96.46989,"kind":"restaurant","cuisine":"sushi"},{"name":"Feng Cha","lat":32.8897,"lng":-96.4734,"kind":"restaurant","cuisine":"bubble tea"},{"name":"McAlister's Deli","lat":33.00271,"lng":-96.97758,"kind":"restaurant","cuisine":"sandwich"},{"name":"Ramen Hakata","lat":33.00283,"lng":-96.97725,"kind":"restaurant","cuisine":"ramen"},{"name":"Pei Wei","lat":32.99768,"lng":-96.69729,"kind":"restaurant","cuisine":"asian"},{"name":"Haystack Burgers & Barley","lat":32.96279,"lng":-96.78989,"kind":"restaurant","cuisine":"burger"},{"name":"Starbucks","lat":32.89593,"lng":-96.46953,"kind":"cafe","cuisine":"coffee shop"},{"name":"Shibam Coffee","lat":32.93934,"lng":-96.73431,"kind":"cafe","cuisine":"coffee shop"},{"name":"Campisi's Restaurant","lat":32.97721,"lng":-96.76879,"kind":"restaurant","cuisine":"italian"},{"name":"The Catch","lat":32.97767,"lng":-96.77079,"kind":"restaurant","cuisine":"seafood"},{"name":"30 Brunch House","lat":32.90049,"lng":-96.46586,"kind":"restaurant","cuisine":"breakfast"},{"name":"Parks Coffee Roastery & Cafe","lat":32.98437,"lng":-96.92081,"kind":"cafe","cuisine":"coffee shop"},{"name":"NEONY Pizza Works","lat":32.74961,"lng":-96.83704,"kind":"restaurant","cuisine":"pizza"},{"name":"Tea Town","lat":33.02004,"lng":-96.74692,"kind":"cafe","cuisine":"bubble tea"},{"name":"Katy Coffee Lab","lat":32.79434,"lng":-96.813,"kind":"cafe","cuisine":"coffee shop"},{"name":"Don Pepe's Rancho Mexican Grill","lat":32.96317,"lng":-96.78911,"kind":"restaurant","cuisine":"mexican"},{"name":"Crisp & Green","lat":32.8909,"lng":-96.47128,"kind":"restaurant","cuisine":"salad"},{"name":"La Salsa Verde","lat":32.8768,"lng":-96.66228,"kind":"restaurant","cuisine":"mexican"},{"name":"Inspired Brew","lat":33.00729,"lng":-96.7961,"kind":"cafe","cuisine":"coffee shop"},{"name":"Malai Kitchen","lat":32.86344,"lng":-96.80523,"kind":"restaurant","cuisine":"thai"},{"name":"Sclafani's New York Bagels & Sandwiches","lat":32.8638,"lng":-96.80465,"kind":"cafe","cuisine":"bagel"},{"name":"Mesero","lat":32.9545,"lng":-96.81124,"kind":"restaurant","cuisine":"mexican"},{"name":"101 Parantha","lat":32.92114,"lng":-96.98958,"kind":"restaurant","cuisine":"indian"},{"name":"The Blue Japanese Bistro","lat":32.87499,"lng":-96.94416,"kind":"restaurant","cuisine":"japanese"},{"name":"DoubleDave's","lat":32.8121,"lng":-96.75327,"kind":"restaurant","cuisine":"pizza"},{"name":"Wing Castle","lat":33.01764,"lng":-96.98476,"kind":"restaurant","cuisine":"wings"},{"name":"Slow and Steady Coffee","lat":32.728,"lng":-96.84471,"kind":"cafe","cuisine":"coffee shop"},{"name":"Starbucks","lat":32.92513,"lng":-96.77007,"kind":"cafe","cuisine":"coffee shop"},{"name":"Barrel & Bones Craft Bar and Smokehouse","lat":32.95293,"lng":-96.90646,"kind":"restaurant","cuisine":"barbecue"},{"name":"Amici","lat":32.95272,"lng":-96.90836,"kind":"restaurant","cuisine":"italian"},{"name":"Boba Heaven","lat":32.81042,"lng":-96.61381,"kind":"cafe","cuisine":"bubble tea"},{"name":"Roti Grill","lat":32.82081,"lng":-96.78747,"kind":"restaurant","cuisine":"indian"},{"name":"Adamos Pizzas","lat":33.00239,"lng":-96.79513,"kind":"restaurant","cuisine":"pizza"},{"name":"Monaco","lat":32.86909,"lng":-96.93862,"kind":"restaurant","cuisine":"italian"},{"name":"I ♥️ Pho","lat":32.95125,"lng":-96.80296,"kind":"restaurant","cuisine":"vietnamese"},{"name":"Spices of India Kitchen","lat":32.80125,"lng":-96.93644,"kind":"restaurant","cuisine":"indian"},{"name":"BOCADO","lat":32.79537,"lng":-96.78889,"kind":"restaurant","cuisine":"steak house"},{"name":"Taquerias Gervantez","lat":33.02003,"lng":-96.74688,"kind":"restaurant","cuisine":"mexican"},{"name":"Mauro's Grill & Cafe","lat":33.02004,"lng":-96.74665,"kind":"restaurant","cuisine":"asian"},{"name":"Jinmi Korean Cuisine","lat":33.02004,"lng":-96.74682,"kind":"restaurant","cuisine":"korean"},{"name":"Little Rome Ristorante & Pizzeria","lat":33.02007,"lng":-96.74633,"kind":"restaurant","cuisine":"italian"},{"name":"Taiwan Cafe","lat":33.02006,"lng":-96.74736,"kind":"restaurant","cuisine":"asian"},{"name":"i Fratelli Pizza","lat":32.78255,"lng":-96.8047,"kind":"restaurant","cuisine":"pizza"},{"name":"The Empanada Cookhouse","lat":32.78244,"lng":-96.80485,"kind":"restaurant","cuisine":"mexican"},{"name":"Baboushi","lat":32.77942,"lng":-96.80012,"kind":"restaurant","cuisine":"mediterranean"},{"name":"Basilico","lat":32.77935,"lng":-96.8002,"kind":"restaurant","cuisine":"pizza"},{"name":"Dallas sallaD","lat":32.77943,"lng":-96.80004,"kind":"restaurant","cuisine":"salad"},{"name":"The Dock","lat":32.7795,"lng":-96.79997,"kind":"restaurant","cuisine":"seafood"},{"name":"O'Desi Aroma","lat":32.77943,"lng":-96.8003,"kind":"restaurant","cuisine":"indian"},{"name":"Oodle's Noodles","lat":32.77945,"lng":-96.80023,"kind":"restaurant","cuisine":"ramen"},{"name":"Show Mian 小面","lat":32.98106,"lng":-96.91053,"kind":"restaurant","cuisine":"chinese"},{"name":"JINYA Ramen Bar","lat":32.98128,"lng":-96.91046,"kind":"restaurant","cuisine":"ramen"},{"name":"TP Tea","lat":32.98118,"lng":-96.91044,"kind":"cafe","cuisine":"bubble tea"},{"name":"​Sababa Mediterranean Cuisine","lat":32.94029,"lng":-96.7364,"kind":"restaurant","cuisine":"mediterranean"},{"name":"Shawarma Factory","lat":32.93721,"lng":-96.71939,"kind":"restaurant","cuisine":"mediterranean"},{"name":"Better Than Sex- A Dessert Restaurant","lat":33.01956,"lng":-96.7,"kind":"restaurant","cuisine":"dessert"},{"name":"BAR-Ranch Steak Company","lat":33.01956,"lng":-96.69983,"kind":"restaurant","cuisine":"steak house"},{"name":"Coco Beach Plano","lat":33.01956,"lng":-96.69939,"kind":"restaurant","cuisine":"grill"},{"name":"EBESU","lat":33.01978,"lng":-96.70056,"kind":"restaurant","cuisine":"sushi"},{"name":"Lemma Coffee Co","lat":33.01978,"lng":-96.69998,"kind":"cafe","cuisine":"coffee shop"},{"name":"Oni Ramen","lat":33.00106,"lng":-96.69984,"kind":"restaurant","cuisine":"ramen"},{"name":"Elevated Coffee and Tea","lat":33.00156,"lng":-96.70091,"kind":"cafe","cuisine":"coffee shop"},{"name":"Modern Market Eatery","lat":32.99775,"lng":-96.69781,"kind":"restaurant","cuisine":"american"},{"name":"Pluckers Wing Bar","lat":32.85275,"lng":-96.76837,"kind":"restaurant","cuisine":"american"},{"name":"Crossbuck BBQ","lat":32.9393,"lng":-96.83374,"kind":"restaurant","cuisine":"barbecue"},{"name":"La Prision Mexican Bar and Grill","lat":32.95846,"lng":-96.82056,"kind":"restaurant","cuisine":"mexican"},{"name":"Zio Al's Pizza & Pasta","lat":32.9582,"lng":-96.82061,"kind":"restaurant","cuisine":"pizza"},{"name":"The Berni Bean Coffee Co.","lat":32.78551,"lng":-96.79781,"kind":"cafe","cuisine":"coffee shop"},{"name":"The Metropolitan on Main","lat":32.78186,"lng":-96.79278,"kind":"restaurant","cuisine":"american"},{"name":"Salsa Limón","lat":32.78333,"lng":-96.80055,"kind":"restaurant","cuisine":"mexican"},{"name":"The Operators Club","lat":32.78376,"lng":-96.80748,"kind":"restaurant","cuisine":"american"},{"name":"Trolley Stop Café","lat":32.78432,"lng":-96.79783,"kind":"cafe","cuisine":"burger"},{"name":"Saint Ann Restaurant & Bar","lat":32.79193,"lng":-96.80667,"kind":"restaurant","cuisine":"american"},{"name":"Parterre","lat":32.78196,"lng":-96.79778,"kind":"cafe","cuisine":"coffee shop"},{"name":"Sky Blossom Bistro","lat":32.78125,"lng":-96.79887,"kind":"restaurant","cuisine":"asian"},{"name":"City Tavern","lat":32.78132,"lng":-96.7991,"kind":"restaurant","cuisine":"brunch"},{"name":"The Woolworth","lat":32.78123,"lng":-96.7986,"kind":"restaurant","cuisine":"grill"},{"name":"Mi Casita Taqueria","lat":32.99686,"lng":-96.72829,"kind":"restaurant","cuisine":"mexican"},{"name":"CBD Provisions","lat":32.78073,"lng":-96.79814,"kind":"restaurant","cuisine":"regional"},{"name":"Sandoitchi","lat":32.78076,"lng":-96.79808,"kind":"cafe","cuisine":"japanese"},{"name":"Café Momentum","lat":32.78205,"lng":-96.79944,"kind":"restaurant","cuisine":"american"},{"name":"SushiYa","lat":32.78096,"lng":-96.80089,"kind":"restaurant","cuisine":"sushi"},{"name":"Breakfast Brothers","lat":32.66171,"lng":-96.87966,"kind":"restaurant","cuisine":"breakfast"},{"name":"Starbucks","lat":32.66182,"lng":-96.8786,"kind":"cafe","cuisine":"coffee shop"},{"name":"Tomyumkung Thai Cafe","lat":32.99693,"lng":-96.8855,"kind":"restaurant","cuisine":"thai"},{"name":"Buffalo Wild Wings","lat":32.9871,"lng":-96.74921,"kind":"restaurant","cuisine":"wings"},{"name":"White Rhino Coffee","lat":32.95451,"lng":-96.82334,"kind":"cafe","cuisine":"coffee shop"},{"name":"Mr Max Izakaya Richardson","lat":32.9603,"lng":-96.76846,"kind":"restaurant","cuisine":"japanese"},{"name":"Pull Through Coffee Bar","lat":32.85461,"lng":-96.73164,"kind":"cafe","cuisine":"coffee shop"},{"name":"The Meteor","lat":32.79807,"lng":-96.82275,"kind":"cafe","cuisine":"pizza"},{"name":"Industrial Pizza + Brew","lat":32.95011,"lng":-96.73713,"kind":"restaurant","cuisine":"pizza"},{"name":"Takumi Sushi All You Can Eat","lat":32.93911,"lng":-96.82085,"kind":"restaurant","cuisine":"sushi"},{"name":"San Martín Bakery","lat":32.80216,"lng":-96.79989,"kind":"restaurant","cuisine":"coffee shop"},{"name":"Honest - Indian Vegetation Restaurant","lat":32.91966,"lng":-96.96427,"kind":"restaurant","cuisine":"indian"},{"name":"Cicis","lat":32.98659,"lng":-96.84384,"kind":"restaurant","cuisine":"pizza"},{"name":"The Island Spot","lat":32.9868,"lng":-96.84413,"kind":"restaurant","cuisine":"jamaican"},{"name":"El Arepaz","lat":32.9868,"lng":-96.84447,"kind":"restaurant","cuisine":"venezuelan"},{"name":"Dutch Bros. Coffee","lat":33.01083,"lng":-96.96648,"kind":"cafe","cuisine":"coffee shop"},{"name":"Jusmex","lat":32.78414,"lng":-96.79747,"kind":"restaurant","cuisine":"mexican"},{"name":"La Casita Coffee","lat":32.90326,"lng":-96.56569,"kind":"cafe","cuisine":"coffee shop"},{"name":"Menas Tex-Mex Grill Cantina","lat":32.98482,"lng":-96.85441,"kind":"restaurant","cuisine":"mexican"},{"name":"King Ramen & Dumpling","lat":32.99926,"lng":-96.96282,"kind":"cafe","cuisine":"ramen"},{"name":"Rumdoul Asian Cuisine & Noodle House","lat":32.91608,"lng":-96.5184,"kind":"restaurant","cuisine":"asian"},{"name":"Chinchikurin Hiroshima Okonomiyaki","lat":32.97628,"lng":-96.91109,"kind":"restaurant","cuisine":"noodle"},{"name":"Happy Lemon","lat":32.97628,"lng":-96.91103,"kind":"cafe","cuisine":"bubble tea"},{"name":"Eno's Pizza Tavern","lat":32.9363,"lng":-96.98362,"kind":"restaurant","cuisine":"pizza"},{"name":"EVELYN","lat":32.7946,"lng":-96.8262,"kind":"restaurant","cuisine":"steak house"},{"name":"Bowlounge","lat":32.79362,"lng":-96.82739,"kind":"restaurant","cuisine":"grill"},{"name":"Rice Garden","lat":33.00883,"lng":-96.57419,"kind":"restaurant","cuisine":"asian"},{"name":"Starbucks","lat":32.99249,"lng":-96.56914,"kind":"cafe","cuisine":"coffee shop"},{"name":"Cliff's Donut Shop","lat":32.80067,"lng":-96.97838,"kind":"restaurant","cuisine":"breakfast"},{"name":"Mama Vicky's Pupusas y Mas","lat":33.01963,"lng":-96.69861,"kind":"restaurant","cuisine":"pupusa"},{"name":"Sugar & Sage Bakery","lat":32.85139,"lng":-96.80927,"kind":"cafe","cuisine":"coffee shop"},{"name":"III Forks Steakhouse","lat":32.9518,"lng":-96.821,"kind":"restaurant","cuisine":"steak house"},{"name":"Cappuccino Italian Bistro","lat":32.97963,"lng":-96.76547,"kind":"restaurant","cuisine":"italian"},{"name":"Civil Pour","lat":32.96017,"lng":-96.76848,"kind":"cafe","cuisine":"coffee shop"},{"name":"Donut Inc.","lat":32.94079,"lng":-96.76773,"kind":"cafe","cuisine":"donut"},{"name":"Spice of Richardson","lat":32.94081,"lng":-96.76863,"kind":"restaurant","cuisine":"indian"},{"name":"Original Chop Shop","lat":32.9087,"lng":-96.80302,"kind":"restaurant","cuisine":"sandwich"},{"name":"Merit Coffee","lat":32.90868,"lng":-96.80313,"kind":"cafe","cuisine":"coffee shop"},{"name":"Mijas Taqueria","lat":32.89507,"lng":-96.72312,"kind":"restaurant","cuisine":"mexican"},{"name":"Chili Thai","lat":32.9253,"lng":-96.99105,"kind":"restaurant","cuisine":"thai"},{"name":"Ephesus Mediterranean Grill","lat":32.88947,"lng":-96.77168,"kind":"restaurant","cuisine":"mediterranean"},{"name":"Bellini's Italian Cafe and Pizza","lat":32.78589,"lng":-96.81763,"kind":"restaurant","cuisine":"italian"},{"name":"White Rhino","lat":32.92884,"lng":-96.98901,"kind":"cafe","cuisine":"coffee shop"},{"name":"Taj Mahal","lat":32.88593,"lng":-96.77083,"kind":"restaurant","cuisine":"indian"},{"name":"Pizza Hut","lat":33.01171,"lng":-96.59458,"kind":"restaurant","cuisine":"pizza"},{"name":"Armor Coffee Co","lat":33.01077,"lng":-96.58769,"kind":"cafe","cuisine":"coffee shop"},{"name":"Original Mocha Coffee House","lat":33.0109,"lng":-96.60632,"kind":"cafe","cuisine":"coffee shop"},{"name":"Miriam Cocina Latina","lat":32.93687,"lng":-96.98319,"kind":"restaurant","cuisine":"mexican"},{"name":"Momo2Go","lat":32.92516,"lng":-96.99015,"kind":"restaurant","cuisine":"himalayan"},{"name":"Anaya's Seafood Scratch Kitchen","lat":33.00123,"lng":-96.68482,"kind":"restaurant","cuisine":"seafood"},{"name":"Beeso Coffee","lat":32.95195,"lng":-96.61311,"kind":"cafe","cuisine":"coffee shop"},{"name":"ViVi Bubble Tea","lat":32.95184,"lng":-96.61317,"kind":"cafe","cuisine":"bubble tea"},{"name":"Laughing Crab","lat":32.95173,"lng":-96.61282,"kind":"restaurant","cuisine":"seafood"},{"name":"Palio's Pizza Cafe","lat":32.95406,"lng":-96.61199,"kind":"restaurant","cuisine":"pizza"},{"name":"La Joya Mexican Cocina","lat":33.01584,"lng":-96.53902,"kind":"restaurant","cuisine":"mexican"},{"name":"Bold BBQ Pit","lat":33.01478,"lng":-96.53874,"kind":"restaurant","cuisine":"barbecue"},{"name":"Villa Vinci","lat":33.01484,"lng":-96.53907,"kind":"restaurant","cuisine":"italian"},{"name":"Nuevo León","lat":33.01023,"lng":-96.61773,"kind":"restaurant","cuisine":"mexican"},{"name":"Feng Cha","lat":33.01013,"lng":-96.61776,"kind":"cafe","cuisine":"tea"},{"name":"Liberation Coffee Co.","lat":32.98499,"lng":-96.99392,"kind":"cafe","cuisine":"coffee shop"},{"name":"Mexican Sugar","lat":32.79162,"lng":-96.80482,"kind":"restaurant","cuisine":"mexican"},{"name":"Feng Shui","lat":32.7915,"lng":-96.80475,"kind":"restaurant","cuisine":"asian"},{"name":"Milo Butterfingers","lat":32.84238,"lng":-96.7707,"kind":"restaurant","cuisine":"american"},{"name":"Full City Rooster","lat":32.76766,"lng":-96.78974,"kind":"cafe","cuisine":"coffee shop"},{"name":"Bawarchi","lat":32.91276,"lng":-96.95582,"kind":"restaurant","cuisine":"indian"},{"name":"Taqueria La Unión","lat":32.73342,"lng":-96.71179,"kind":"restaurant","cuisine":"mexican"},{"name":"The Reserve at The Highland","lat":32.83593,"lng":-96.77816,"kind":"restaurant","cuisine":"steak house"},{"name":"Crown Block Dallas","lat":32.77536,"lng":-96.80894,"kind":"restaurant","cuisine":"steak house"},{"name":"Window Seat Coffee","lat":32.82577,"lng":-96.76998,"kind":"cafe","cuisine":"coffee shop"},{"name":"Konnie’s Korner Deli","lat":32.9214,"lng":-96.76649,"kind":"cafe","cuisine":"asian"},{"name":"Moriya Shokudo","lat":32.97732,"lng":-96.76736,"kind":"restaurant","cuisine":"japanese"},{"name":"Catfish House","lat":32.80797,"lng":-96.92518,"kind":"restaurant","cuisine":"fish"},{"name":"Junbi Matcha & Tea","lat":32.97624,"lng":-96.7227,"kind":"cafe","cuisine":"tea"},{"name":"Manna BBQ","lat":32.98809,"lng":-96.91118,"kind":"restaurant","cuisine":"korean"},{"name":"Manna Shabu","lat":32.98825,"lng":-96.91117,"kind":"restaurant","cuisine":"korean"},{"name":"99 Pocha","lat":32.98835,"lng":-96.9112,"kind":"restaurant","cuisine":"korean"},{"name":"Red Straw Tea Bar","lat":32.98798,"lng":-96.91145,"kind":"cafe","cuisine":"bubble tea"},{"name":"Shoo Loong Kan","lat":32.98186,"lng":-96.90933,"kind":"restaurant","cuisine":"chinese"},{"name":"Hui Lau Shan","lat":32.98221,"lng":-96.90881,"kind":"cafe","cuisine":"asian"},{"name":"Las Lomas Mexican Cuisine","lat":32.95232,"lng":-96.73677,"kind":"restaurant","cuisine":"mexican"},{"name":"Starbucks","lat":32.9798,"lng":-96.76698,"kind":"cafe","cuisine":"coffee shop"},{"name":"Abe Japanese Food:Bar","lat":32.98643,"lng":-96.91063,"kind":"restaurant","cuisine":"asian"},{"name":"Oh-K-Dog","lat":32.98582,"lng":-96.9126,"kind":"restaurant","cuisine":"asian"},{"name":"Shabro Buffet","lat":32.98686,"lng":-96.91191,"kind":"restaurant","cuisine":"asian"},{"name":"Yoon Korean BBQ","lat":32.98533,"lng":-96.91078,"kind":"restaurant","cuisine":"asian"},{"name":"Tofu House","lat":32.98709,"lng":-96.9119,"kind":"restaurant","cuisine":"asian"},{"name":"Nolbu Bento Express","lat":32.98512,"lng":-96.9125,"kind":"restaurant","cuisine":"asian"},{"name":"Katsu Omoi","lat":32.98512,"lng":-96.91239,"kind":"restaurant","cuisine":"asian"},{"name":"Dumpling","lat":32.98508,"lng":-96.91233,"kind":"restaurant","cuisine":"asian"},{"name":"Chan","lat":32.98511,"lng":-96.91243,"kind":"restaurant","cuisine":"asian"},{"name":"Toreore","lat":32.98512,"lng":-96.91256,"kind":"restaurant","cuisine":"asian"},{"name":"BomBom","lat":32.98498,"lng":-96.91233,"kind":"restaurant","cuisine":"asian"},{"name":"Teriyaki Bar","lat":32.98504,"lng":-96.91233,"kind":"restaurant","cuisine":"asian"},{"name":"Kichi Bar","lat":32.98524,"lng":-96.90915,"kind":"restaurant","cuisine":"asian"},{"name":"Margarita's","lat":32.81172,"lng":-96.78243,"kind":"restaurant","cuisine":"mexican"},{"name":"Taste of Asia","lat":33.00245,"lng":-96.97872,"kind":"restaurant","cuisine":"asian"},{"name":"Cotton Patch Cafe","lat":33.00289,"lng":-96.97875,"kind":"restaurant","cuisine":"american"},{"name":"Wok Star","lat":32.88164,"lng":-96.76757,"kind":"restaurant","cuisine":"chinese"},{"name":"Hello Dumpling","lat":32.88155,"lng":-96.76834,"kind":"restaurant","cuisine":"dumplings"},{"name":"Mei Mei Chinese Buffet","lat":32.88979,"lng":-96.77167,"kind":"restaurant","cuisine":"chinese"},{"name":"Milk T Bar","lat":32.95051,"lng":-96.90681,"kind":"cafe","cuisine":"bubble tea"},{"name":"Namak","lat":32.85331,"lng":-96.76852,"kind":"restaurant","cuisine":"indian"},{"name":"Royal Thai","lat":32.85331,"lng":-96.76824,"kind":"restaurant","cuisine":"thai"},{"name":"Oak'd Handcrafted BBQ","lat":32.85601,"lng":-96.76846,"kind":"restaurant","cuisine":"barbecue"},{"name":"Halcyon","lat":32.82401,"lng":-96.77001,"kind":"cafe","cuisine":"coffee shop"},{"name":"Ojeda's","lat":32.81301,"lng":-96.82497,"kind":"restaurant","cuisine":"tex-mex"},{"name":"Rodeo Goat","lat":32.83339,"lng":-96.69938,"kind":"restaurant","cuisine":"burger"},{"name":"Good Hand Tacos & Pupusas","lat":33.02134,"lng":-96.74942,"kind":"restaurant","cuisine":"mexican"},{"name":"Sevan G&G's Cafe","lat":32.81678,"lng":-96.77052,"kind":"restaurant","cuisine":"mediterranean"},{"name":"Greenville Avenue Pizza Co.","lat":32.81422,"lng":-96.7704,"kind":"restaurant","cuisine":"pizza"},{"name":"Oasis Cafe","lat":32.85814,"lng":-96.76881,"kind":"restaurant","cuisine":"breakfast"},{"name":"Greenville Avenue Pizza Co.","lat":32.83929,"lng":-96.69753,"kind":"restaurant","cuisine":"pizza"},{"name":"Thunderbird Pies","lat":32.81095,"lng":-96.73139,"kind":"restaurant","cuisine":"pizza"},{"name":"Desta Ethiopian Restaurant","lat":32.91249,"lng":-96.74633,"kind":"restaurant","cuisine":"ethiopian"},{"name":"Cane Rosso","lat":32.81084,"lng":-96.73127,"kind":"restaurant","cuisine":"pizza"},{"name":"Lover's Pizza & Pasta","lat":32.85147,"lng":-96.81724,"kind":"restaurant","cuisine":"pizza"},{"name":"El Vecino","lat":32.84545,"lng":-96.7113,"kind":"restaurant","cuisine":"tex-mex"},{"name":"Goldrush Cafe","lat":32.81307,"lng":-96.76212,"kind":"restaurant","cuisine":"breakfast"},{"name":"Gloria's Latin Cuisine","lat":32.81584,"lng":-96.80973,"kind":"restaurant","cuisine":"tex-mex"},{"name":"Casa del Vegano","lat":32.74335,"lng":-96.82686,"kind":"restaurant","cuisine":"tex-mex"},{"name":"Chicken Guy!","lat":32.88156,"lng":-96.77293,"kind":"restaurant","cuisine":"chicken"},