{"generated_at":"2026-07-22T11:23:02.170Z","city":"min","source":"OpenStreetMap","count":567,"eats":[{"name":"Corner Coffee","lat":44.98576,"lng":-93.27626,"kind":"cafe","cuisine":"coffee shop"},{"name":"Legendary Spice","lat":44.97347,"lng":-93.221,"kind":"restaurant","cuisine":"asian"},{"name":"Two For Tripping","lat":44.98001,"lng":-93.23648,"kind":"restaurant","cuisine":"coffee shop"},{"name":"Longfellow Grill","lat":44.94868,"lng":-93.20606,"kind":"restaurant","cuisine":"american"},{"name":"Milkweed Cafe","lat":44.94854,"lng":-93.21675,"kind":"cafe","cuisine":"coffee shop"},{"name":"Punch Pizza","lat":44.94935,"lng":-93.3205,"kind":"restaurant","cuisine":"pizza"},{"name":"Bryant-Lake Bowl and Theater","lat":44.9485,"lng":-93.29014,"kind":"restaurant","cuisine":"american"},{"name":"The Oceanaire Seafood Room","lat":44.97814,"lng":-93.27172,"kind":"restaurant","cuisine":"sushi"},{"name":"Fogo de Chão","lat":44.97802,"lng":-93.27432,"kind":"restaurant","cuisine":"brazilian"},{"name":"May Day Cafe","lat":44.93988,"lng":-93.25265,"kind":"cafe","cuisine":"breakfast"},{"name":"Egg & I","lat":44.96596,"lng":-93.20426,"kind":"restaurant","cuisine":"breakfast"},{"name":"Lot 57","lat":44.97325,"lng":-93.27664,"kind":"restaurant","cuisine":"breakfast"},{"name":"Sebastian Joe's Ice Cream","lat":44.92383,"lng":-93.31468,"kind":"cafe","cuisine":"ice cream"},{"name":"Jones Coffee","lat":44.92478,"lng":-93.31535,"kind":"cafe","cuisine":"coffee shop"},{"name":"Sebastian Joe's Ice Cream","lat":44.96257,"lng":-93.29215,"kind":"cafe","cuisine":"ice cream"},{"name":"Leaning Tower of Pizza","lat":44.95926,"lng":-93.28832,"kind":"restaurant","cuisine":"pizza"},{"name":"Tenant","lat":44.92489,"lng":-93.291,"kind":"restaurant","cuisine":"american"},{"name":"Pepito's Mexigo Deli","lat":44.91884,"lng":-93.27849,"kind":"restaurant","cuisine":"mexican"},{"name":"Ena","lat":44.91944,"lng":-93.2842,"kind":"restaurant","cuisine":"latin fusion"},{"name":"Tap Society","lat":44.91978,"lng":-93.28424,"kind":"restaurant","cuisine":"burger"},{"name":"Maria's Cafe","lat":44.96249,"lng":-93.25751,"kind":"restaurant","cuisine":"colombian"},{"name":"Sawatdee","lat":44.97792,"lng":-93.25966,"kind":"restaurant","cuisine":"thai"},{"name":"Kumar's Express","lat":44.97377,"lng":-93.22632,"kind":"restaurant","cuisine":"indian"},{"name":"Hard Times Cafe","lat":44.96959,"lng":-93.24617,"kind":"restaurant","cuisine":"regional"},{"name":"Spyhouse Coffee Shop","lat":44.95893,"lng":-93.29454,"kind":"cafe","cuisine":"coffee shop"},{"name":"Bob's Java Hut","lat":44.95385,"lng":-93.28783,"kind":"cafe","cuisine":"coffee"},{"name":"Pizza Lucé","lat":44.96288,"lng":-93.24053,"kind":"restaurant","cuisine":"pizza"},{"name":"Code Blu Coffee","lat":44.96292,"lng":-93.23345,"kind":"cafe","cuisine":"coffee"},{"name":"Starbucks","lat":44.96241,"lng":-93.27806,"kind":"cafe","cuisine":"coffee shop"},{"name":"Spyhouse Coffee","lat":44.95745,"lng":-93.27766,"kind":"cafe","cuisine":"coffee shop"},{"name":"Tenka Ramen","lat":44.9485,"lng":-93.29741,"kind":"restaurant","cuisine":"noodle"},{"name":"Isles Bun & Coffee","lat":44.95216,"lng":-93.29872,"kind":"cafe","cuisine":"coffee shop"},{"name":"Darbar India Grill & Bar","lat":44.94823,"lng":-93.295,"kind":"restaurant","cuisine":"indian"},{"name":"China Moon","lat":44.94913,"lng":-93.29278,"kind":"restaurant","cuisine":"chinese"},{"name":"$1.99 Americano","lat":44.98044,"lng":-93.23527,"kind":"cafe","cuisine":"coffee shop"},{"name":"Kbop Korean Bistro","lat":44.98199,"lng":-93.23678,"kind":"restaurant","cuisine":"korean"},{"name":"Turtle Bread","lat":44.91624,"lng":-93.2629,"kind":"cafe","cuisine":"sandwich"},{"name":"Satisfy Eats","lat":44.91622,"lng":-93.26239,"kind":"restaurant","cuisine":"cajun"},{"name":"Kramarczuk's Sausage Company","lat":44.98779,"lng":-93.25743,"kind":"restaurant","cuisine":"ukrainian"},{"name":"Lulu's Salsa","lat":44.97467,"lng":-93.19452,"kind":"restaurant","cuisine":"mexican"},{"name":"Tony's Diner","lat":44.98073,"lng":-93.23596,"kind":"restaurant","cuisine":"american"},{"name":"Great Dragon Buffet","lat":45.01525,"lng":-93.21992,"kind":"restaurant","cuisine":"chinese"},{"name":"Noodles & Company","lat":44.97347,"lng":-93.22627,"kind":"restaurant","cuisine":"pasta"},{"name":"Starbucks","lat":44.97396,"lng":-93.22987,"kind":"cafe","cuisine":"coffee shop"},{"name":"Iconos Gastro Cantina","lat":44.94909,"lng":-93.28783,"kind":"restaurant","cuisine":"mexican"},{"name":"Creekside Supperclub","lat":44.91545,"lng":-93.26281,"kind":"restaurant","cuisine":"american"},{"name":"Dunn Bros","lat":44.96781,"lng":-93.28378,"kind":"cafe","cuisine":"coffee shop"},{"name":"Meet Up Noodle","lat":44.95571,"lng":-93.27768,"kind":"restaurant","cuisine":"chinese"},{"name":"Phở Hòa Noodle Soup","lat":44.95749,"lng":-93.27848,"kind":"restaurant","cuisine":"vietnamese"},{"name":"Rainbow Chinese Restaurant and Bar","lat":44.95247,"lng":-93.27768,"kind":"restaurant","cuisine":"chinese"},{"name":"Raag","lat":44.91263,"lng":-93.32824,"kind":"restaurant","cuisine":"indian"},{"name":"Minari","lat":45.00101,"lng":-93.26334,"kind":"restaurant","cuisine":"asian"},{"name":"Bichota Coffee","lat":44.9346,"lng":-93.26275,"kind":"cafe","cuisine":"coffee shop"},{"name":"Buffalo Wild Wings","lat":44.97592,"lng":-93.22685,"kind":"restaurant","cuisine":"wings"},{"name":"Curry Corner Indian Eatery & Bar","lat":44.98769,"lng":-93.25772,"kind":"restaurant","cuisine":"indian"},{"name":"Rinata Restaurant","lat":44.95752,"lng":-93.29507,"kind":"restaurant","cuisine":"italian"},{"name":"Phở 79","lat":44.9747,"lng":-93.19511,"kind":"restaurant","cuisine":"vietnamese"},{"name":"Modern Times Cafe","lat":44.9446,"lng":-93.26286,"kind":"cafe","cuisine":"breakfast"},{"name":"Red Wagon Pizza","lat":44.90456,"lng":-93.30889,"kind":"restaurant","cuisine":"pizza"},{"name":"Taqueria y birreria las quatros milpas","lat":44.94852,"lng":-93.25227,"kind":"restaurant","cuisine":"mexican"},{"name":"Mothership Pizza Paradise","lat":44.91088,"lng":-93.3289,"kind":"restaurant","cuisine":"pizza"},{"name":"Caribou Coffee","lat":44.98739,"lng":-93.25491,"kind":"cafe","cuisine":"coffee shop"},{"name":"Nokomis Beach Coffee Cafe","lat":44.91281,"lng":-93.23246,"kind":"cafe","cuisine":"coffee shop"},{"name":"Wally's Falafel and Hummus","lat":44.98109,"lng":-93.23552,"kind":"restaurant","cuisine":"kebab"},{"name":"Pizzeria Lola","lat":44.90181,"lng":-93.31853,"kind":"restaurant","cuisine":"pizza"},{"name":"Cajun Boiling","lat":44.96285,"lng":-93.27763,"kind":"restaurant","cuisine":"seafood"},{"name":"The Boiler Room Coffee Co.","lat":44.96445,"lng":-93.27293,"kind":"cafe","cuisine":"coffee shop"},{"name":"Gigi's Cafe","lat":44.93786,"lng":-93.29046,"kind":"restaurant","cuisine":"regional"},{"name":"Chin Dian Kitchen","lat":44.99133,"lng":-93.23056,"kind":"restaurant","cuisine":"chinese"},{"name":"Tilia","lat":44.92463,"lng":-93.31413,"kind":"restaurant","cuisine":"american"},{"name":"Noodles & Company","lat":44.9879,"lng":-93.25607,"kind":"restaurant","cuisine":"pasta"},{"name":"Wise Owl Cafe","lat":44.97511,"lng":-93.23625,"kind":"cafe","cuisine":"coffee shop"},{"name":"Prima","lat":44.90594,"lng":-93.28806,"kind":"restaurant","cuisine":"italian"},{"name":"Starbucks","lat":44.90521,"lng":-93.28799,"kind":"cafe","cuisine":"coffee shop"},{"name":"Mei Inn","lat":44.9264,"lng":-93.2521,"kind":"restaurant","cuisine":"chinese"},{"name":"Normandy Kitchen","lat":44.97334,"lng":-93.26755,"kind":"restaurant","cuisine":"american"},{"name":"Ruth's Chris Steak House","lat":44.97305,"lng":-93.27221,"kind":"restaurant","cuisine":"american"},{"name":"Kindee Thai","lat":44.97807,"lng":-93.25672,"kind":"restaurant","cuisine":"thai"},{"name":"Vinai","lat":45.00104,"lng":-93.26635,"kind":"restaurant","cuisine":"asian"},{"name":"My Burger","lat":44.94647,"lng":-93.32213,"kind":"restaurant","cuisine":"american"},{"name":"Yogurt Lab","lat":44.94643,"lng":-93.32217,"kind":"restaurant","cuisine":"ice cream"},{"name":"Amazing Thailand","lat":44.94744,"lng":-93.29866,"kind":"restaurant","cuisine":"thai"},{"name":"NY Gyro","lat":44.94851,"lng":-93.28835,"kind":"restaurant","cuisine":"mediterranean"},{"name":"Al's Breakfast","lat":44.98104,"lng":-93.23557,"kind":"restaurant","cuisine":"breakfast"},{"name":"Crisp & Green","lat":44.98097,"lng":-93.23563,"kind":"restaurant","cuisine":"salad"},{"name":"Rincon 38","lat":44.93396,"lng":-93.28415,"kind":"restaurant","cuisine":"tapas"},{"name":"Keys Café & Bakery","lat":44.96459,"lng":-93.19775,"kind":"restaurant","cuisine":"regional"},{"name":"Smack Shack","lat":44.98688,"lng":-93.27627,"kind":"restaurant","cuisine":"seafood"},{"name":"The Loop","lat":44.98728,"lng":-93.27611,"kind":"restaurant","cuisine":"american"},{"name":"Black Sheep Coal Fired Pizza","lat":44.98714,"lng":-93.27589,"kind":"restaurant","cuisine":"pizza"},{"name":"Bar La Grassa","lat":44.9893,"lng":-93.27876,"kind":"restaurant","cuisine":"italian"},{"name":"Five Watt Coffee","lat":44.94146,"lng":-93.28843,"kind":"cafe","cuisine":"coffee shop"},{"name":"Red Cow 50th & France","lat":44.91273,"lng":-93.32615,"kind":"restaurant","cuisine":"american"},{"name":"Curioso Coffee Bar","lat":44.94812,"lng":-93.2981,"kind":"cafe","cuisine":"coffee shop"},{"name":"Starbucks","lat":44.95577,"lng":-93.27808,"kind":"cafe","cuisine":"coffee shop"},{"name":"Key West Bistro","lat":44.93399,"lng":-93.23187,"kind":"cafe","cuisine":"coffee shop"},{"name":"Bordertown Coffee","lat":44.97905,"lng":-93.23368,"kind":"cafe","cuisine":"coffee shop"},{"name":"Matchbox Coffee Shop","lat":45.00134,"lng":-93.26633,"kind":"cafe","cuisine":"coffee shop"},{"name":"Hodan Cuisine","lat":45.00703,"lng":-93.24716,"kind":"restaurant","cuisine":"east african"},{"name":"Cocina Latina","lat":44.93427,"lng":-93.27818,"kind":"restaurant","cuisine":"latin american"},{"name":"Caribou Coffee","lat":44.9729,"lng":-93.27588,"kind":"cafe","cuisine":"coffee shop"},{"name":"Lake & Irving","lat":44.94824,"lng":-93.30154,"kind":"restaurant","cuisine":"american"},{"name":"My Burger","lat":44.97425,"lng":-93.22693,"kind":"restaurant","cuisine":"burger"},{"name":"Oasis Mediterranean Grill","lat":44.96875,"lng":-93.24431,"kind":"restaurant","cuisine":"mediterranean"},{"name":"Hell's Kitchen","lat":44.97484,"lng":-93.27283,"kind":"restaurant","cuisine":"american"},{"name":"Caribou Coffee","lat":44.96983,"lng":-93.24469,"kind":"cafe","cuisine":"coffee shop"},{"name":"Hamburguesas El Gordo","lat":44.92709,"lng":-93.24714,"kind":"restaurant","cuisine":"mexican"},{"name":"Football Pizza","lat":45.012,"lng":-93.24706,"kind":"restaurant","cuisine":"afghan"},{"name":"El Sazon Cocina & Tragos","lat":44.90624,"lng":-93.28803,"kind":"restaurant","cuisine":"mexican"},{"name":"Lake Harriet Pizza","lat":44.91203,"lng":-93.30842,"kind":"restaurant","cuisine":"pizza"},{"name":"Uncommon Grounds Coffeehouse","lat":44.95153,"lng":-93.298,"kind":"cafe","cuisine":"coffee shop"},{"name":"Caribou Coffee","lat":44.97849,"lng":-93.261,"kind":"cafe","cuisine":"coffee shop"},{"name":"Black Forest Inn","lat":44.95538,"lng":-93.27762,"kind":"restaurant","cuisine":"german"},{"name":"Glam Doll Donuts","lat":44.95517,"lng":-93.27771,"kind":"cafe","cuisine":"donut"},{"name":"Little Tijuana Bar and Restaurant","lat":44.9554,"lng":-93.27708,"kind":"restaurant","cuisine":"mexican"},{"name":"Sparrow Cafe","lat":44.91224,"lng":-93.30852,"kind":"cafe","cuisine":"coffee shop"},{"name":"Carbone's Pizzeria","lat":44.91768,"lng":-93.2468,"kind":"restaurant","cuisine":"pizza"},{"name":"La Mesa","lat":44.97469,"lng":-93.30693,"kind":"restaurant","cuisine":"latin american"},{"name":"Caribou Coffee","lat":44.97335,"lng":-93.23175,"kind":"cafe","cuisine":"coffee shop"},{"name":"Taco Taxi","lat":44.94822,"lng":-93.25327,"kind":"restaurant","cuisine":"mexican"},{"name":"Las Teresitas","lat":44.89858,"lng":-93.22345,"kind":"restaurant","cuisine":"mexican"},{"name":"Hazel's Northeast","lat":45.02034,"lng":-93.23693,"kind":"restaurant","cuisine":"regional"},{"name":"Dilla's Ethiopian Restaurant","lat":44.96976,"lng":-93.24654,"kind":"restaurant","cuisine":"ethiopian"},{"name":"Farina Rossa","lat":45.01354,"lng":-93.2476,"kind":"restaurant","cuisine":"pizza"},{"name":"Mother Clucker's Pizza","lat":44.96786,"lng":-93.27808,"kind":"restaurant","cuisine":"chicken"},{"name":"Selam Restaurant","lat":44.9326,"lng":-93.22307,"kind":"restaurant","cuisine":"ethiopian"},{"name":"Sonora Grill","lat":44.94861,"lng":-93.22408,"kind":"restaurant","cuisine":"mexican"},{"name":"My Huong Kitchen","lat":44.95307,"lng":-93.27821,"kind":"restaurant","cuisine":"vietnamese"},{"name":"El Nuevo Mariachi","lat":44.95232,"lng":-93.27813,"kind":"restaurant","cuisine":"mexican"},{"name":"The Lowbrow","lat":44.92543,"lng":-93.27819,"kind":"restaurant","cuisine":"burger"},{"name":"Naviya's Thai Kitchen","lat":44.92476,"lng":-93.31521,"kind":"restaurant","cuisine":"thai"},{"name":"Workhorse Coffee Bar","lat":44.96434,"lng":-93.19802,"kind":"cafe","cuisine":"coffee shop"},{"name":"Bill's Garden Chinese Gourmet","lat":44.92653,"lng":-93.23186,"kind":"restaurant","cuisine":"chinese"},{"name":"Clay Oven","lat":44.97534,"lng":-93.25355,"kind":"restaurant","cuisine":"indian"},{"name":"Caffetto","lat":44.96104,"lng":-93.28856,"kind":"cafe","cuisine":"coffee shop"},{"name":"Caffe Biaggio","lat":44.96335,"lng":-93.19671,"kind":"cafe","cuisine":"italian"},{"name":"Unwind Corner Café","lat":44.94851,"lng":-93.29048,"kind":"cafe","cuisine":"coffee shop"},{"name":"Caribou Coffee","lat":44.94752,"lng":-93.32133,"kind":"cafe","cuisine":"coffee shop"},{"name":"EaTo","lat":44.97972,"lng":-93.26395,"kind":"restaurant","cuisine":"pizza"},{"name":"Moona Moono","lat":44.94678,"lng":-93.29851,"kind":"cafe","cuisine":"donut"},{"name":"Saint Genevieve","lat":44.9121,"lng":-93.29066,"kind":"restaurant","cuisine":"french"},{"name":"Fika","lat":44.95471,"lng":-93.266,"kind":"restaurant","cuisine":"swedish"},{"name":"Moto-i","lat":44.94867,"lng":-93.2884,"kind":"restaurant","cuisine":"japanese"},{"name":"Kung Fu Hot Pot","lat":44.9477,"lng":-93.28834,"kind":"restaurant","cuisine":"chinese"},{"name":"Karta Thai","lat":45.01264,"lng":-93.24712,"kind":"restaurant","cuisine":"thai"},{"name":"Panadería Ecuatoriana","lat":45.01258,"lng":-93.24712,"kind":"restaurant","cuisine":"equadorian"},{"name":"Adelita's Mexican Restaurant","lat":45.01243,"lng":-93.24712,"kind":"restaurant","cuisine":"mexican"},{"name":"Dogwood Coffee","lat":44.96762,"lng":-93.2075,"kind":"cafe","cuisine":"coffee shop"},{"name":"Monello","lat":44.97134,"lng":-93.27291,"kind":"restaurant","cuisine":"italian"},{"name":"Kyatchi","lat":44.93434,"lng":-93.27815,"kind":"restaurant","cuisine":"sushi"},{"name":"Nighthawks Diner & Bar","lat":44.93424,"lng":-93.27773,"kind":"restaurant","cuisine":"regional"},{"name":"Spice & Tonic","lat":44.9763,"lng":-93.2559,"kind":"restaurant","cuisine":"indian"},{"name":"Bagu Sushi & Thai","lat":44.91644,"lng":-93.26244,"kind":"restaurant","cuisine":"sushi"},{"name":"The Cajun House","lat":44.97254,"lng":-93.21966,"kind":"restaurant","cuisine":"dim sum"},{"name":"Habanero Tacos Grill","lat":44.94804,"lng":-93.22481,"kind":"restaurant","cuisine":"tacos"},{"name":"Five Watt Coffee","lat":44.93444,"lng":-93.27774,"kind":"cafe","cuisine":"coffee shop"},{"name":"JJ's Poké","lat":44.98195,"lng":-93.23486,"kind":"restaurant","cuisine":"poke"},{"name":"Starbucks","lat":44.98134,"lng":-93.23534,"kind":"cafe","cuisine":"coffee shop"},{"name":"Legendary Spice","lat":44.9732,"lng":-93.22331,"kind":"restaurant","cuisine":"chinese"},{"name":"The Anchor Fish & Chips","lat":45.00076,"lng":-93.26435,"kind":"restaurant","cuisine":"irish"},{"name":"Yeah Yeah Taco","lat":44.95824,"lng":-93.27806,"kind":"restaurant","cuisine":"mexican"},{"name":"Pho 79","lat":44.95637,"lng":-93.27766,"kind":"restaurant","cuisine":"vietnamese"},{"name":"Icehouse","lat":44.95635,"lng":-93.27807,"kind":"restaurant","cuisine":"american"},{"name":"Jasmine Vietnamese Restaurant","lat":44.95626,"lng":-93.27809,"kind":"restaurant","cuisine":"vietnamese"},{"name":"Los Sanchez Mexican Restaurant & Bar","lat":44.95604,"lng":-93.27768,"kind":"restaurant","cuisine":"mexican"},{"name":"Jasmine 26 Restaurant & Bar","lat":44.95566,"lng":-93.27755,"kind":"restaurant","cuisine":"vietnamese"},{"name":"Wesley Andrews","lat":44.9554,"lng":-93.27608,"kind":"cafe","cuisine":"coffee shop"},{"name":"Lu's Sandwiches","lat":44.95473,"lng":-93.27805,"kind":"restaurant","cuisine":"vietnamese"},{"name":"Christos","lat":44.95434,"lng":-93.27813,"kind":"restaurant","cuisine":"greek"},{"name":"Caravelle Restaurant","lat":44.95629,"lng":-93.27766,"kind":"restaurant","cuisine":"chinese"},{"name":"Daalo Pizza & Grill","lat":44.95405,"lng":-93.2777,"kind":"restaurant","cuisine":"african"},{"name":"Kungfu Noodle","lat":44.95336,"lng":-93.27811,"kind":"restaurant","cuisine":"japanese"},{"name":"La Huasteca","lat":44.95274,"lng":-93.27833,"kind":"restaurant","cuisine":"mexican"},{"name":"Bambu","lat":44.95228,"lng":-93.27773,"kind":"cafe","cuisine":"vietnamese"},{"name":"Caribou Coffee","lat":44.91941,"lng":-93.27838,"kind":"cafe","cuisine":"coffee shop"},{"name":"Fresh Wok","lat":44.91932,"lng":-93.27849,"kind":"restaurant","cuisine":"chinese"},{"name":"Canteen","lat":44.94304,"lng":-93.29051,"kind":"cafe","cuisine":"coffee shop"},{"name":"Diane's Place","lat":45.00152,"lng":-93.27044,"kind":"restaurant","cuisine":"asian"},{"name":"Roat Osha","lat":44.9477,"lng":-93.29718,"kind":"restaurant","cuisine":"thai"},{"name":"Brasa Premium Rotisserie - Southwest Minneapolis","lat":44.91971,"lng":-93.2905,"kind":"restaurant","cuisine":"rotisserie"},{"name":"Tact Coffee","lat":44.96545,"lng":-93.19782,"kind":"cafe","cuisine":"coffee shop"},{"name":"Bark and the Bite","lat":45.01044,"lng":-93.26266,"kind":"restaurant","cuisine":"barbecue"},{"name":"Uptown Pizza","lat":44.94824,"lng":-93.28415,"kind":"restaurant","cuisine":"pizza"},{"name":"Colossal Cafe","lat":44.98262,"lng":-93.19582,"kind":"restaurant","cuisine":"breakfast"},{"name":"Duck Duck Coffee","lat":44.93422,"lng":-93.24694,"kind":"cafe","cuisine":"coffee shop"},{"name":"Lucy's Market & Carry-out","lat":44.93444,"lng":-93.24716,"kind":"restaurant","cuisine":"ethiopian"},{"name":"Khâluna","lat":44.93024,"lng":-93.28883,"kind":"restaurant","cuisine":"laotian"},{"name":"Baba's Hummus House & Mana'eesh Bakery","lat":44.96027,"lng":-93.28831,"kind":"cafe","cuisine":"middle eastern"},{"name":"Disco Death Records","lat":44.95543,"lng":-93.28891,"kind":"cafe","cuisine":"coffee shop"},{"name":"French Meadow Bakery & Cafe","lat":44.95499,"lng":-93.28829,"kind":"cafe","cuisine":"coffee shop"},{"name":"Tender Lovin' Chix","lat":44.95362,"lng":-93.28832,"kind":"restaurant","cuisine":"chicken"},{"name":"Kyoto Sushi","lat":44.95059,"lng":-93.28782,"kind":"restaurant","cuisine":"sushi"},{"name":"Mapps Coffee and Tea","lat":44.94911,"lng":-93.26096,"kind":"cafe","cuisine":"breakfast"},{"name":"Korea Restaurant","lat":44.97429,"lng":-93.22672,"kind":"restaurant","cuisine":"korean"},{"name":"Insomnia Cookies","lat":44.94851,"lng":-93.29028,"kind":"restaurant","cuisine":"dessert"},{"name":"Boludo","lat":44.94875,"lng":-93.29684,"kind":"restaurant","cuisine":"argentinian"},{"name":"Hoban Korean Barbecue","lat":44.94881,"lng":-93.29809,"kind":"restaurant","cuisine":"barbecue"},{"name":"Caribou Coffee","lat":44.94889,"lng":-93.30018,"kind":"cafe","cuisine":"coffee shop"},{"name":"Thai Cuisine Xpress","lat":44.98796,"lng":-93.23003,"kind":"restaurant","cuisine":"thai"},{"name":"SIP coffeebar","lat":44.99936,"lng":-93.27165,"kind":"cafe","cuisine":"coffee shop"},{"name":"Takatsu Sushi","lat":44.97561,"lng":-93.2712,"kind":"restaurant","cuisine":"sushi"},{"name":"Starbucks","lat":44.97625,"lng":-93.27156,"kind":"cafe","cuisine":"coffee shop"},{"name":"Starbucks","lat":44.9838,"lng":-93.26716,"kind":"cafe","cuisine":"coffee shop"},{"name":"Ramen Kazama","lat":44.94122,"lng":-93.27812,"kind":"restaurant","cuisine":"ramen"},{"name":"1st Cup Cafe","lat":44.9518,"lng":-93.23687,"kind":"cafe","cuisine":"african"},{"name":"Boludo","lat":44.98796,"lng":-93.22991,"kind":"restaurant","cuisine":"argentinian"},{"name":"Starbucks","lat":44.97385,"lng":-93.26458,"kind":"cafe","cuisine":"coffee shop"},{"name":"Lanna Thai","lat":44.98214,"lng":-93.19521,"kind":"restaurant","cuisine":"thai"},{"name":"Spicy Feta","lat":44.96382,"lng":-93.19795,"kind":"restaurant","cuisine":"arab"},{"name":"Dunn Brothers Coffee","lat":44.97726,"lng":-93.27162,"kind":"cafe","cuisine":"coffee shop"},{"name":"Freshii","lat":44.97728,"lng":-93.27115,"kind":"restaurant","cuisine":"salad"},{"name":"Leeann Chin","lat":44.97771,"lng":-93.27289,"kind":"restaurant","cuisine":"chinese"},{"name":"Naf Naf Grill","lat":44.97775,"lng":-93.27299,"kind":"restaurant","cuisine":"middle eastern"},{"name":"Starbucks","lat":44.97486,"lng":-93.27423,"kind":"cafe","cuisine":"coffee shop"},{"name":"Starbucks","lat":44.97814,"lng":-93.27255,"kind":"cafe","cuisine":"coffee shop"},{"name":"In the Loop Coffee Co.","lat":44.98981,"lng":-93.27505,"kind":"cafe","cuisine":"coffee shop"},{"name":"Tasty Pizza - Hangar 45","lat":45.05054,"lng":-93.24873,"kind":"restaurant","cuisine":"pizza"},{"name":"Manny's Steakhouse","lat":44.97455,"lng":-93.27214,"kind":"restaurant","cuisine":"steak house"},{"name":"Starbucks","lat":44.97471,"lng":-93.23345,"kind":"cafe","cuisine":"coffee shop"},{"name":"Hey Bear Cafe","lat":44.96519,"lng":-93.19776,"kind":"cafe","cuisine":"breakfast"},{"name":"Nico's Taco & Tequila Bar","lat":44.98117,"lng":-93.1946,"kind":"restaurant","cuisine":"mexican"},{"name":"Khue's Kitchen","lat":44.96197,"lng":-93.19784,"kind":"restaurant","cuisine":"vietnamese"},{"name":"Caribou Coffee","lat":44.97352,"lng":-93.23008,"kind":"cafe","cuisine":"coffee shop"},{"name":"Seabreeze Jamaican Grill","lat":44.94849,"lng":-93.28752,"kind":"restaurant","cuisine":"jamaican"},{"name":"Caspian Bistro and Gourmet Marketplace","lat":44.97345,"lng":-93.22203,"kind":"restaurant","cuisine":"middle eastern"},{"name":"Freshii","lat":44.97289,"lng":-93.23149,"kind":"restaurant","cuisine":"salad"},{"name":"SotaRol","lat":44.97321,"lng":-93.22693,"kind":"restaurant","cuisine":"asian"},{"name":"Origami Tiger","lat":44.94966,"lng":-93.29714,"kind":"restaurant","cuisine":"sushi"},{"name":"Starbucks","lat":44.97336,"lng":-93.23615,"kind":"cafe","cuisine":"coffee shop"},{"name":"Fireside Market","lat":44.9781,"lng":-93.2217,"kind":"restaurant","cuisine":"cafeteria"},{"name":"D.P. Dough","lat":44.97896,"lng":-93.23471,"kind":"restaurant","cuisine":"italian"},{"name":"Tiger Sugar","lat":44.98014,"lng":-93.23586,"kind":"cafe","cuisine":"bubble tea"},{"name":"Niko Niko","lat":44.98019,"lng":-93.23627,"kind":"cafe","cuisine":"bubble tea"},{"name":"Frank from Philly & Andrea Pizza","lat":44.98127,"lng":-93.23727,"kind":"restaurant","cuisine":"sandwich"},{"name":"Lepot Chinese Hotpot","lat":44.98184,"lng":-93.23496,"kind":"restaurant","cuisine":"chinese"},{"name":"Kung Fu Tea","lat":44.9819,"lng":-93.23491,"kind":"cafe","cuisine":"bubble tea"},{"name":"Mac's","lat":44.90523,"lng":-93.28731,"kind":"restaurant","cuisine":"fish and chips"},{"name":"Bambini's Coffee","lat":44.96683,"lng":-93.23707,"kind":"cafe","cuisine":"coffee shop"},{"name":"Barbette Restaurant & Amusements","lat":44.94852,"lng":-93.30228,"kind":"restaurant","cuisine":"french"},{"name":"Simpls","lat":44.97355,"lng":-93.22816,"kind":"restaurant","cuisine":"organic"},{"name":"D'Amico & Sons","lat":44.975,"lng":-93.22827,"kind":"restaurant","cuisine":"sandwich"},{"name":"Flamin' Thai Cuisine","lat":44.9884,"lng":-93.25691,"kind":"restaurant","cuisine":"thai"},{"name":"Kiku Bistro","lat":44.95119,"lng":-93.29802,"kind":"restaurant","cuisine":"asian"},{"name":"Crema Coffee + Cream","lat":44.91211,"lng":-93.22266,"kind":"cafe","cuisine":"coffee shop"},{"name":"Wakame Sushi & Asian Bistro","lat":44.94681,"lng":-93.32202,"kind":"restaurant","cuisine":"japanese"},{"name":"Noodles & Company","lat":44.94752,"lng":-93.32144,"kind":"restaurant","cuisine":"pasta"},{"name":"Italian Eatery by Travail","lat":44.91719,"lng":-93.24771,"kind":"restaurant","cuisine":"italian"},{"name":"Sushi Train","lat":44.94935,"lng":-93.321,"kind":"restaurant","cuisine":"sushi"},{"name":"Hot Plate","lat":44.90864,"lng":-93.25274,"kind":"restaurant","cuisine":"american"},{"name":"All Square","lat":44.92889,"lng":-93.21976,"kind":"restaurant","cuisine":"american"},{"name":"Arturo's Pizza","lat":44.98855,"lng":-93.25701,"kind":"restaurant","cuisine":"pizza"},{"name":"Ghorka Palace","lat":44.98935,"lng":-93.25502,"kind":"restaurant","cuisine":"indian"},{"name":"Gardens Of Salonica","lat":44.98962,"lng":-93.25374,"kind":"restaurant","cuisine":"greek"},{"name":"Pa Tea and Poke","lat":44.98861,"lng":-93.25704,"kind":"restaurant","cuisine":"bubble tea"},{"name":"Sal's on Fifth","lat":44.9799,"lng":-93.27265,"kind":"restaurant","cuisine":"pizza"},{"name":"Bonchon Chicken","lat":44.94849,"lng":-93.29789,"kind":"restaurant","cuisine":"chicken"},{"name":"Soho Cafe","lat":44.95613,"lng":-93.29668,"kind":"restaurant","cuisine":"greek"},{"name":"India Palace","lat":44.95613,"lng":-93.29711,"kind":"restaurant","cuisine":"indian"},{"name":"Fawkes Alley Coffee","lat":44.97196,"lng":-93.28581,"kind":"cafe","cuisine":"coffee shop"},{"name":"Starbucks","lat":44.9582,"lng":-93.29603,"kind":"cafe","cuisine":"coffee shop"},{"name":"Pizza Hut","lat":44.95966,"lng":-93.2934,"kind":"restaurant","cuisine":"pizza"},{"name":"Pizza Hut","lat":44.916,"lng":-93.26283,"kind":"restaurant","cuisine":"pizza"},{"name":"Five Watt","lat":44.99172,"lng":-93.24374,"kind":"cafe","cuisine":"coffee shop"},{"name":"Celio","lat":44.98729,"lng":-93.258,"kind":"restaurant","cuisine":"italian"},{"name":"Pineda Tacos","lat":44.94849,"lng":-93.27088,"kind":"restaurant","cuisine":"mexican"},{"name":"All Taco","lat":45.01277,"lng":-93.24757,"kind":"restaurant","cuisine":"mexican"},{"name":"El Taco Riendo","lat":45.01265,"lng":-93.24757,"kind":"restaurant","cuisine":"mexican"},{"name":"Starbucks","lat":44.95007,"lng":-93.23693,"kind":"cafe","cuisine":"coffee shop"},{"name":"Pizza Biga","lat":44.91635,"lng":-93.26283,"kind":"restaurant","cuisine":"pizza"},{"name":"Cuppa Java","lat":44.97352,"lng":-93.30853,"kind":"cafe","cuisine":"american"},{"name":"Gold Room","lat":44.97907,"lng":-93.27377,"kind":"restaurant","cuisine":"american"},{"name":"Breakfast Bar","lat":44.98147,"lng":-93.27195,"kind":"restaurant","cuisine":"breakfast"},{"name":"Walden Coffee","lat":45.01306,"lng":-93.25939,"kind":"cafe","cuisine":"coffee shop"},{"name":"Okome House","lat":44.92168,"lng":-93.21237,"kind":"restaurant","cuisine":"japanese"},{"name":"Centro","lat":45.00274,"lng":-93.25145,"kind":"restaurant","cuisine":"mexican"},{"name":"Lito's Burritos","lat":44.94823,"lng":-93.29083,"kind":"restaurant","cuisine":"mexican"},{"name":"Galapagos Bar and Grill","lat":44.94854,"lng":-93.22108,"kind":"restaurant","cuisine":"latin american"},{"name":"Jakeeno's","lat":44.93789,"lng":-93.26234,"kind":"restaurant","cuisine":"pizza"},{"name":"Smoke in the Pit","lat":44.93496,"lng":-93.26232,"kind":"restaurant","cuisine":"barbecue"},{"name":"Indígena by Owamni","lat":44.97828,"lng":-93.25581,"kind":"restaurant","cuisine":"indigenous"},{"name":"Pizza Lucé","lat":44.98172,"lng":-93.27346,"kind":"restaurant","cuisine":"pizza"},{"name":"Vivir","lat":45.00284,"lng":-93.25144,"kind":"restaurant","cuisine":"mexican"},{"name":"The Fix Cafe","lat":44.93507,"lng":-93.22433,"kind":"cafe","cuisine":"coffee shop"},{"name":"Bonchon Chicken","lat":44.98071,"lng":-93.23539,"kind":"restaurant","cuisine":"chicken"},{"name":"Katar River Restaurant & Bakery","lat":44.95253,"lng":-93.23504,"kind":"restaurant","cuisine":"ethiopian"},{"name":"Bryn Mawr Pizza & Deli","lat":44.97377,"lng":-93.30865,"kind":"restaurant","cuisine":"pizza"},{"name":"Lu's Sandwiches","lat":44.98995,"lng":-93.25266,"kind":"restaurant","cuisine":"sandwich"},{"name":"Mango Mango Dessert","lat":44.98076,"lng":-93.23536,"kind":"cafe","cuisine":"asian"},{"name":"Tinto Kitchen","lat":44.91251,"lng":-93.30822,"kind":"restaurant","cuisine":"mexican"},{"name":"Leeann Chin","lat":45.00561,"lng":-93.22778,"kind":"restaurant","cuisine":"chinese"},{"name":"Caribou Coffee","lat":45.00561,"lng":-93.22819,"kind":"cafe","cuisine":"coffee shop"},{"name":"The Dripping Root","lat":44.93038,"lng":-93.22144,"kind":"cafe","cuisine":"juice"},{"name":"La Loma Tamales","lat":44.94824,"lng":-93.2527,"kind":"restaurant","cuisine":"mexican"},{"name":"Dogwood Coffee - Northeast","lat":44.99988,"lng":-93.24541,"kind":"cafe","cuisine":"coffee shop"},{"name":"P.S. Steak","lat":44.96718,"lng":-93.28722,"kind":"restaurant","cuisine":"steak house"},{"name":"bb.q Chicken","lat":44.94851,"lng":-93.301,"kind":"restaurant","cuisine":"korean"},{"name":"Honour Coffee","lat":44.99474,"lng":-93.22625,"kind":"cafe","cuisine":"coffee shop"},{"name":"Backstory Coffee","lat":44.98674,"lng":-93.27524,"kind":"cafe","cuisine":"coffee shop"},{"name":"FRGMNT COFFE","lat":44.98787,"lng":-93.27786,"kind":"cafe","cuisine":"coffee shop"},{"name":"Wood + Paddle Eatery","lat":44.97725,"lng":-93.27346,"kind":"restaurant","cuisine":"regional"},{"name":"Colita","lat":44.90488,"lng":-93.30903,"kind":"restaurant","cuisine":"mexican"},{"name":"Pillar Forum","lat":45.01101,"lng":-93.24772,"kind":"cafe","cuisine":"coffee shop"},{"name":"Corner Coffee","lat":45.01074,"lng":-93.24775,"kind":"cafe","cuisine":"coffee shop"},{"name":"Momo Sushi","lat":44.99161,"lng":-93.24704,"kind":"restaurant","cuisine":"sushi"},{"name":"Francis Burger Joint","lat":45.01292,"lng":-93.24758,"kind":"restaurant","cuisine":"burger"},{"name":"Buttered Tin","lat":45.01301,"lng":-93.2715,"kind":"cafe","cuisine":"coffee shop"},{"name":"Relish","lat":44.99078,"lng":-93.25141,"kind":"restaurant","cuisine":"sandwich"},{"name":"Chloe by Vincent","lat":44.97674,"lng":-93.25912,"kind":"restaurant","cuisine":"french"},{"name":"The Nicollet Diner","lat":44.97016,"lng":-93.27757,"kind":"restaurant","cuisine":"=="},{"name":"Cafe Ceres","lat":44.905,"lng":-93.30845,"kind":"cafe","cuisine":"coffee shop"},{"name":"Reverie","lat":44.93942,"lng":-93.25273,"kind":"restaurant","cuisine":"coffee shop"},{"name":"Que Viet","lat":45.01004,"lng":-93.23703,"kind":"restaurant","cuisine":"vietnamese"},{"name":"Parkway Pizza","lat":45.0202,"lng":-93.23694,"kind":"restaurant","cuisine":"pizza"},{"name":"Listo","lat":45.00562,"lng":-93.22831,"kind":"restaurant","cuisine":"mexican"},{"name":"Lien Son","lat":44.99861,"lng":-93.24134,"kind":"restaurant","cuisine":"chinese"},{"name":"Dreamstate Cafe","lat":44.9557,"lng":-93.28834,"kind":"restaurant","cuisine":"coffee shop"},{"name":"New Cedar","lat":44.9683,"lng":-93.24746,"kind":"restaurant","cuisine":"somalian"},{"name":"FRGMNT","lat":44.98618,"lng":-93.25828,"kind":"cafe","cuisine":"coffee shop"},{"name":"Red Rabbit","lat":44.9837,"lng":-93.27169,"kind":"restaurant","cuisine":"italian"},{"name":"Falls Coffee","lat":44.91685,"lng":-93.21481,"kind":"cafe","cuisine":"coffee shop"},{"name":"The Test Kitchen","lat":44.97375,"lng":-93.22608,"kind":"restaurant","cuisine":"burger"},{"name":"Billy Sushi","lat":44.98414,"lng":-93.26882,"kind":"restaurant","cuisine":"sushi"},{"name":"Fairgrounds Craft Coffee and Tea","lat":44.98578,"lng":-93.271,"kind":"cafe","cuisine":"coffee shop"},{"name":"Oro By Nixta","lat":45.00066,"lng":-93.26634,"kind":"restaurant","cuisine":"mexican"},{"name":"Bebe Zito","lat":44.97278,"lng":-93.21311,"kind":"restaurant","cuisine":"burger"},{"name":"Wrecktangle Pizza","lat":44.97287,"lng":-93.21313,"kind":"restaurant","cuisine":"pizza"},{"name":"Momo Dosa","lat":44.97286,"lng":-93.21322,"kind":"restaurant","cuisine":"indian"},{"name":"Abang Yoli","lat":44.97286,"lng":-93.21336,"kind":"restaurant","cuisine":"asian"},{"name":"Centro Nicollet","lat":44.95851,"lng":-93.27815,"kind":"restaurant","cuisine":"mexican"},{"name":"Loons Coffee","lat":44.94857,"lng":-93.20611,"kind":"cafe","cuisine":"coffee shop"},{"name":"Gai Noi","lat":44.97157,"lng":-93.28543,"kind":"restaurant","cuisine":"lao"},{"name":"Wrecktangle Pizza","lat":44.94825,"lng":-93.28842,"kind":"restaurant","cuisine":"pizza"},{"name":"La Boulangerie Marguerite","lat":45.00076,"lng":-93.26447,"kind":"cafe","cuisine":"pastry"},{"name":"Punch Pizza","lat":44.98763,"lng":-93.25704,"kind":"restaurant","cuisine":"pizza"},{"name":"Nashville Coop","lat":44.9888,"lng":-93.25718,"kind":"restaurant","cuisine":"fried chicken"},{"name":"Ichiddo Ramen","lat":44.98928,"lng":-93.2569,"kind":"restaurant","cuisine":"ramen"},{"name":"Harmony Coffee","lat":44.99043,"lng":-93.25428,"kind":"cafe","cuisine":"coffee shop"},{"name":"Pho Mai","lat":44.98013,"lng":-93.2363,"kind":"restaurant","cuisine":"vietnamese"},{"name":"The Breakfast Club","lat":44.94942,"lng":-93.29597,"kind":"restaurant","cuisine":"breakfast"},{"name":"Martina","lat":44.9242,"lng":-93.31497,"kind":"restaurant","cuisine":"italian"},{"name":"Maria's Restaurante","lat":44.9482,"lng":-93.25302,"kind":"restaurant","cuisine":"mexican"},{"name":"Pupeseria El Rincon Salvadoreño","lat":44.94816,"lng":-93.25307,"kind":"restaurant","cuisine":"salvadorian"},{"name":"Bom Dia Treats","lat":44.98222,"lng":-93.27078,"kind":"restaurant","cuisine":"smoothie"},{"name":"Heather's","lat":44.90875,"lng":-93.26239,"kind":"restaurant","cuisine":"american"},{"name":"Guava's Cuban Cafe","lat":44.9013,"lng":-93.26243,"kind":"restaurant","cuisine":"cuban"},{"name":"Coastal Seafoods","lat":44.95878,"lng":-93.24285,"kind":"restaurant","cuisine":"seafood"},{"name":"Carbone's Pizzeria","lat":44.91274,"lng":-93.32747,"kind":"restaurant","cuisine":"pizza"},{"name":"Intown Sushi","lat":44.94898,"lng":-93.26081,"kind":"restaurant","cuisine":"sushi"},{"name":"Andy's Garage","lat":44.94903,"lng":-93.26081,"kind":"restaurant","cuisine":"burger"},{"name":"Moroccan Flavors","lat":44.94866,"lng":-93.26064,"kind":"restaurant","cuisine":"moroccan"},{"name":"Pham's Rice Bowl","lat":44.94898,"lng":-93.26094,"kind":"restaurant","cuisine":"asian"},{"name":"Manny's Tortas","lat":44.94866,"lng":-93.26058,"kind":"restaurant","cuisine":"mexican"},{"name":"Irie Jamaican Express","lat":44.94881,"lng":-93.26095,"kind":"restaurant","cuisine":"jamaican"},{"name":"Slice Pizza","lat":44.94888,"lng":-93.26062,"kind":"restaurant","cuisine":"pizza"},{"name":"Feng Cha","lat":44.97107,"lng":-93.21479,"kind":"cafe","cuisine":"bubble tea"},{"name":"Steady Pour","lat":44.99212,"lng":-93.22186,"kind":"restaurant","cuisine":"asian"},{"name":"JUN Szechuan Kitchen & Bar","lat":44.98852,"lng":-93.27776,"kind":"restaurant","cuisine":"sichuan"},{"name":"Gatherings Cafe","lat":44.96339,"lng":-93.25207,"kind":"cafe","cuisine":"american indian"},{"name":"Los Ocampo","lat":44.94823,"lng":-93.26249,"kind":"restaurant","cuisine":"mexican"},{"name":"Bricksworth Beer Co. – North Loop","lat":44.98446,"lng":-93.27591,"kind":"restaurant","cuisine":"american"},{"name":"Tii cup","lat":44.954,"lng":-93.29727,"kind":"cafe","cuisine":"taiwanese"},{"name":"Lynette","lat":44.9344,"lng":-93.21256,"kind":"restaurant","cuisine":"american"},{"name":"La Bodega Taco Bar","lat":44.95099,"lng":-93.29807,"kind":"restaurant","cuisine":"mexican"},{"name":"Ama Sushi","lat":44.91155,"lng":-93.32891,"kind":"restaurant","cuisine":"sushi"},{"name":"La Carreta","lat":44.94824,"lng":-93.25342,"kind":"restaurant","cuisine":"mexican"},{"name":"Ono Hawaiian Plates","lat":44.98505,"lng":-93.27376,"kind":"restaurant","cuisine":"hawaiian"},{"name":"Rosalia","lat":44.9243,"lng":-93.31528,"kind":"restaurant","cuisine":"pizza"},{"name":"Arya Café","lat":44.9195,"lng":-93.21443,"kind":"cafe","cuisine":"coffee shop"},{"name":"Liido Restaurant","lat":44.94876,"lng":-93.28108,"kind":"restaurant","cuisine":"somali"},{"name":"La Alborada","lat":44.94822,"lng":-93.2454,"kind":"restaurant","cuisine":"mexican"},{"name":"Kinzō Udon","lat":44.97348,"lng":-93.22675,"kind":"restaurant","cuisine":"japanese"},{"name":"Hibachi Buffet","lat":44.94817,"lng":-93.27632,"kind":"restaurant","cuisine":"chinese"},{"name":"Gorditas el Gordo","lat":44.94822,"lng":-93.27358,"kind":"restaurant","cuisine":"mexican"},{"name":"Tono Pizzeria + Cheesesteaks","lat":44.91254,"lng":-93.31774,"kind":"restaurant","cuisine":"pizza"},{"name":"Midori's Floating World","lat":44.94802,"lng":-93.22202,"kind":"restaurant","cuisine":"japanese"},{"name":"Hola Coffee","lat":44.98755,"lng":-93.25384,"kind":"cafe","cuisine":"coffee shop"},{"name":"Sunbean Coffee Co.","lat":44.92,"lng":-93.22279,"kind":"cafe","cuisine":"coffee shop"},{"name":"Valerie's Taqueria","lat":44.9451,"lng":-93.27736,"kind":"restaurant","cuisine":"mexican"},{"name":"Sushi Train","lat":44.97186,"lng":-93.27694,"kind":"restaurant","cuisine":"japanese"},{"name":"C.R.E.A.M Cafe","lat":44.98078,"lng":-93.2615,"kind":"cafe","cuisine":"breakfast"},{"name":"Starbucks","lat":44.97724,"lng":-93.25804,"kind":"cafe","cuisine":"coffee shop"},{"name":"Good Times","lat":44.93421,"lng":-93.28419,"kind":"restaurant","cuisine":"pizza"},{"name":"Boludo","lat":44.97679,"lng":-93.26218,"kind":"restaurant","cuisine":"argentinian"},{"name":"Saturday Dumpling Company","lat":44.9896,"lng":-93.25289,"kind":"restaurant","cuisine":"asian"},{"name":"Shortwave Coffee","lat":44.91244,"lng":-93.29059,"kind":"cafe","cuisine":"coffee shop"},{"name":"Banh Appetit","lat":44.98201,"lng":-93.23481,"kind":"restaurant","cuisine":"vietnamese"},{"name":"GIOT Cream Coffee","lat":44.98206,"lng":-93.23477,"kind":"cafe","cuisine":"coffee shop"},{"name":"Vitality Roasting","lat":44.98773,"lng":-93.2301,"kind":"cafe","cuisine":"coffee shop"},{"name":"Kung Fu Tea","lat":44.95626,"lng":-93.27818,"kind":"cafe","cuisine":"bubble tea"},{"name":"Jade Dynasty","lat":44.9485,"lng":-93.28723,"kind":"restaurant","cuisine":"chinese"},{"name":"Los Andes","lat":44.94824,"lng":-93.2873,"kind":"restaurant","cuisine":"Latin American"},{"name":"Abi’s","lat":44.95093,"lng":-93.28855,"kind":"restaurant","cuisine":"Salvadoran"},{"name":"Shortwave Coffee","lat":44.94814,"lng":-93.30057,"kind":"cafe","cuisine":"coffee shop"},{"name":"Come Pho Soup","lat":44.97521,"lng":-93.27344,"kind":"restaurant","cuisine":"vietnamese"},{"name":"Momo Cafe","lat":45.02332,"lng":-93.24707,"kind":"cafe","cuisine":"tibetan"},{"name":"Okidoki Sushi","lat":44.97338,"lng":-93.22343,"kind":"restaurant","cuisine":"sushi"},{"name":"Salt & Flour Kitchen","lat":44.98283,"lng":-93.2764,"kind":"restaurant","cuisine":"italian"},{"name":"Hope Breakfast Bar","lat":44.98296,"lng":-93.27624,"kind":"restaurant","cuisine":"breakfast"},{"name":"Le Burger 4304","lat":44.92447,"lng":-93.31486,"kind":"restaurant","cuisine":"burger"},{"name":"Northern Fires Pizza Restaurant","lat":44.9268,"lng":-93.24661,"kind":"restaurant","cuisine":"pizza"},{"name":"Yellowbird Coffee Bar","lat":45.01014,"lng":-93.25707,"kind":"cafe","cuisine":"coffee shop"},{"name":"Mad Chicken","lat":44.98125,"lng":-93.27227,"kind":"restaurant","cuisine":"chicken"},{"name":"Maison Margaux","lat":44.98613,"lng":-93.26978,"kind":"restaurant","cuisine":"french"},{"name":"FRGMNT Coffee","lat":44.97432,"lng":-93.26755,"kind":"cafe","cuisine":"coffee shop"},{"name":"Mosaic","lat":44.94688,"lng":-93.29848,"kind":"cafe","cuisine":"breakfast"},{"name":"La Madre","lat":44.97788,"lng":-93.25826,"kind":"restaurant","cuisine":"mexican"},{"name":"Banh Mi House","lat":44.97588,"lng":-93.25368,"kind":"restaurant","cuisine":"vietnamese"},{"name":"La Colonia Restaurant","lat":45.01017,"lng":-93.2471,"kind":"restaurant","cuisine":"equadorian"},{"name":"Tropico","lat":44.98083,"lng":-93.27395,"kind":"restaurant","cuisine":"dessert"},{"name":"Caribou Coffee","lat":45.03927,"lng":-93.22018,"kind":"cafe","cuisine":"coffee shop"},{"name":"Fat Nat's Eggs","lat":45.03911,"lng":-93.22102,"kind":"restaurant","cuisine":"american"},{"name":"Don Goyo","lat":45.03643,"lng":-93.22788,"kind":"restaurant","cuisine":"mexican"},{"name":"Leeann Chin","lat":45.03866,"lng":-93.22132,"kind":"restaurant","cuisine":"chinese"},{"name":"Starbucks","lat":45.0372,"lng":-93.21905,"kind":"cafe","cuisine":"coffee shop"},{"name":"Jefe","lat":44.98413,"lng":-93.25416,"kind":"restaurant","cuisine":"mexican"},{"name":"Buca di Beppo","lat":44.97397,"lng":-93.27989,"kind":"restaurant","cuisine":"italian"},{"name":"Qawah House","lat":45.00777,"lng":-93.2471,"kind":"cafe","cuisine":"coffee shop"},{"name":"Great Dragon","lat":44.9631,"lng":-93.26323,"kind":"restaurant","cuisine":"chinese"},{"name":"Sumo Grill and Buffet","lat":44.94901,"lng":-93.24008,"kind":"restaurant","cuisine":"asian"},{"name":"Steele & Hops","lat":45.03964,"lng":-93.21963,"kind":"restaurant","cuisine":"american"},{"name":"Sofra Kitchen","lat":45.03971,"lng":-93.21907,"kind":"restaurant","cuisine":"turkish"},{"name":"Farmers Kitchen & Bar","lat":44.97836,"lng":-93.2565,"kind":"restaurant","cuisine":"american"},{"name":"Mother Dough","lat":44.97846,"lng":-93.25772,"kind":"restaurant","cuisine":"french"},{"name":"Jones Coffee","lat":44.91207,"lng":-93.31898,"kind":"cafe","cuisine":"coffee shop"},{"name":"Mama Safia's Kitchen","lat":44.9485,"lng":-93.26381,"kind":"restaurant","cuisine":"african"},{"name":"Curiouser Foods & Cafe","lat":45.01599,"lng":-93.21999,"kind":"cafe","cuisine":"coffee shop"},{"name":"Rosalia","lat":44.98853,"lng":-93.25525,"kind":"restaurant","cuisine":"pizza"},{"name":"Mother Dough","lat":44.97628,"lng":-93.26838,"kind":"cafe","cuisine":"coffee shop"},{"name":"SK Coffee","lat":44.97833,"lng":-93.27133,"kind":"cafe","cuisine":"coffee shop"},{"name":"Hyderabad Indian Grill","lat":44.98084,"lng":-93.27342,"kind":"restaurant","cuisine":"indian"},{"name":"The Patty Wagon","lat":44.89281,"lng":-93.27859,"kind":"restaurant","cuisine":"american"},{"name":"Egg on a Roll","lat":44.99892,"lng":-93.24653,"kind":"restaurant","cuisine":"breakfast"},{"name":"Egg on a Roll","lat":44.98672,"lng":-93.2736,"kind":"restaurant","cuisine":"breakfast"},{"name":"801 Chophouse","lat":44.97558,"lng":-93.27309,"kind":"restaurant","cuisine":"steak house"},{"name":"Zelo","lat":44.97507,"lng":-93.27352,"kind":"restaurant","cuisine":"italian"},{"name":"Starbucks","lat":44.97788,"lng":-93.27027,"kind":"cafe","cuisine":"coffee shop"},{"name":"Sota","lat":44.97706,"lng":-93.26991,"kind":"cafe","cuisine":"soda"},{"name":"Ono Hawaiian Plates","lat":44.95787,"lng":-93.24241,"kind":"restaurant","cuisine":"hawaiian"},{"name":"Hamdi Restaurant","lat":44.9486,"lng":-93.26192,"kind":"restaurant","cuisine":"african"},{"name":"Ichigo Tokyo Crepes","lat":44.95127,"lng":-93.27771,"kind":"restaurant","cuisine":"crepe"},{"name":"Alma Provisions","lat":44.91971,"lng":-93.29032,"kind":"cafe","cuisine":"coffee shop"},{"name":"Nokko","lat":44.91643,"lng":-93.27756,"kind":"restaurant","cuisine":"japanese"},{"name":"Parlay","lat":44.97713,"lng":-93.27553,"kind":"restaurant","cuisine":"pizza"},{"name":"Silverbird Coffee & More","lat":44.92566,"lng":-93.2777,"kind":"cafe","cuisine":"coffee shop"},{"name":"El TacoTorro","lat":44.94881,"lng":-93.26108,"kind":"restaurant","cuisine":"mexican"},{"name":"Jax Cafe","lat":45.00839,"lng":-93.26331,"kind":"restaurant","cuisine":"american"},{"name":"Niko Niko Boba","lat":44.95128,"lng":-93.27746,"kind":"cafe","cuisine":"bubble tea"},{"name":"Staff Meeting","lat":44.95112,"lng":-93.27733,"kind":"restaurant","cuisine":"hawaiian"},{"name":"El Sazon Tacos & More","lat":44.95123,"lng":-93.27732,"kind":"restaurant","cuisine":"mexican"},{"name":"Hikari Hand Roll Bar","lat":44.95128,"lng":-93.27763,"kind":"restaurant","cuisine":"sushi"},{"name":"Thai Curry Restaurant","lat":44.9345,"lng":-93.27814,"kind":"restaurant","cuisine":"thai"},{"name":"FRGMNT","lat":44.9756,"lng":-93.25415,"kind":"cafe","cuisine":"coffee shop"},{"name":"Powl Smoothies and Bowls","lat":44.98002,"lng":-93.28623,"kind":"cafe","cuisine":"açaí"},{"name":"tipsy steer","lat":44.91233,"lng":-93.2107,"kind":"restaurant","cuisine":"burger"},{"name":"Asian Duck","lat":44.91986,"lng":-93.21464,"kind":"restaurant","cuisine":"lao"},{"name":"Izakaya Kazama","lat":44.94102,"lng":-93.27811,"kind":"restaurant","cuisine":"japanese"},{"name":"Mezzo Mezzo","lat":44.97884,"lng":-93.27519,"kind":"restaurant","cuisine":"pizza"},{"name":"Wok 90","lat":45.05054,"lng":-93.21796,"kind":"restaurant","cuisine":"asian"},{"name":"Cheng's Garden","lat":44.94725,"lng":-93.27721,"kind":"restaurant","cuisine":"chinese"},{"name":"Pizza Plus","lat":44.97003,"lng":-93.24749,"kind":"restaurant","cuisine":"pizza"},{"name":"Shepherds Table","lat":44.94158,"lng":-93.21881,"kind":"cafe","cuisine":"coffee shop"},{"name":"Boba X Ramen","lat":44.98037,"lng":-93.23497,"kind":"cafe","cuisine":"bubble tea"},{"name":"Skyway Pho","lat":44.98017,"lng":-93.26621,"kind":"restaurant","cuisine":"vietnamese"},{"name":"Lucky Dragon Restaurant","lat":44.96947,"lng":-93.246,"kind":"restaurant","cuisine":"chinese"},{"name":"Haraz Coffee House","lat":44.94817,"lng":-93.28785,"kind":"cafe","cuisine":"coffee shop"},{"name":"Soul Bowl","lat":44.98067,"lng":-93.26143,"kind":"restaurant","cuisine":"regional"},{"name":"Vulka","lat":44.94851,"lng":-93.28788,"kind":"restaurant","cuisine":"indian"},{"name":"Savouré","lat":44.97941,"lng":-93.26674,"kind":"restaurant","cuisine":"vietnamese"},{"name":"Sphere","lat":44.97837,"lng":-93.26824,"kind":"restaurant","cuisine":"american"},{"name":"Curioso Coffee Bar: Northeast","lat":45.00528,"lng":-93.27183,"kind":"cafe","cuisine":"coffee shop"},{"name":"U Garden Restaurant and Event Center","lat":44.97219,"lng":-93.21724,"kind":"restaurant","cuisine":"chinese"},{"name":"Tea House","lat":44.9738,"lng":-93.22146,"kind":"restaurant","cuisine":"chinese"},{"name":"The Butcher's Tale","lat":44.97476,"lng":-93.27981,"kind":"restaurant","cuisine":"steak house"},{"name":"Pizza Hut","lat":44.97491,"lng":-93.2791,"kind":"restaurant","cuisine":"pizza"},{"name":"Gluek's Restaurant & Bar","lat":44.97946,"lng":-93.274,"kind":"restaurant","cuisine":"german"},{"name":"The Cube","lat":44.97339,"lng":-93.23618,"kind":"cafe","cuisine":"coffee shop"},{"name":"Standish Cafe","lat":44.93398,"lng":-93.23692,"kind":"restaurant","cuisine":"american"},{"name":"Dunn Brothers Coffee","lat":44.98078,"lng":-93.26319,"kind":"cafe","cuisine":"coffee shop"},{"name":"Northern Coffeeworks","lat":44.92653,"lng":-93.23251,"kind":"cafe","cuisine":"coffee shop"},{"name":"Uptown Diner","lat":44.95576,"lng":-93.29704,"kind":"restaurant","cuisine":"american"},{"name":"Seward Cafe","lat":44.96256,"lng":-93.24119,"kind":"restaurant","cuisine":"breakfast"},{"name":"Iftin Restaurant","lat":44.96259,"lng":-93.23757,"kind":"restaurant","cuisine":"somalian"},{"name":"The Malt Shop","lat":44.91215,"lng":-93.29006,"kind":"restaurant","cuisine":"burger"},{"name":"Zakia Deli","lat":44.99494,"lng":-93.22613,"kind":"restaurant","cuisine":"Lebanese"},{"name":"Nico's Taco and Tequila Bar","lat":44.95679,"lng":-93.29625,"kind":"restaurant","cuisine":"mexican"},{"name":"J.D. Hoyt's Supper Club","lat":44.98448,"lng":-93.27291,"kind":"restaurant","cuisine":"steak house"},{"name":"Kado no Mise","lat":44.98464,"lng":-93.26751,"kind":"restaurant","cuisine":"japanese"},{"name":"Lake and Bryant Cafe","lat":44.94819,"lng":-93.29045,"kind":"cafe","cuisine":"coffee shop"},{"name":"Gyu-Kaku","lat":44.94743,"lng":-93.28775,"kind":"restaurant","cuisine":"japanese"},{"name":"Saigon Uptown Restaurant","lat":44.94718,"lng":-93.2878,"kind":"restaurant","cuisine":"vietnamese"},{"name":"Brasa","lat":44.98951,"lng":-93.25124,"kind":"restaurant","cuisine":"regional"},{"name":"Pizza Lucé","lat":44.94451,"lng":-93.28874,"kind":"restaurant","cuisine":"pizza"},{"name":"Hey Y'all Tipsy Taco Bar","lat":45.01348,"lng":-93.27144,"kind":"restaurant","cuisine":"mexican"},{"name":"The Brothers Cafe","lat":44.93977,"lng":-93.2885,"kind":"restaurant","cuisine":"breakfast"},{"name":"Sovereign Grounds","lat":44.91595,"lng":-93.26215,"kind":"cafe","cuisine":"bakery"},{"name":"The Painted Turtle","lat":44.9115,"lng":-93.24313,"kind":"restaurant","cuisine":"american"},{"name":"The Corner Cafe","lat":44.93403,"lng":-93.26222,"kind":"restaurant","cuisine":"breakfast"},{"name":"ALT Burger","lat":45.00105,"lng":-93.26271,"kind":"restaurant","cuisine":"burger"},{"name":"Ideal Diner","lat":45.00156,"lng":-93.24756,"kind":"restaurant","cuisine":"breakfast"},{"name":"Peninsula Malaysian Cuisine","lat":44.95512,"lng":-93.27823,"kind":"restaurant","cuisine":"malaysian"},{"name":"Lotus Restaurant Minneapolis","lat":44.96972,"lng":-93.28003,"kind":"restaurant","cuisine":"vietnamese"},{"name":"Lulu EthioVegan Cuisine","lat":44.96284,"lng":-93.27708,"kind":"restaurant","cuisine":"ethiopian"},{"name":"Ted Cook's 19th Hole BBQ","lat":44.93426,"lng":-93.23139,"kind":"restaurant","cuisine":"barbecue"},{"name":"Quang Restaurant","lat":44.95309,"lng":-93.2776,"kind":"restaurant","cuisine":"vietnamese"},{"name":"Marhaba Mediterranean Grill","lat":44.95177,"lng":-93.27739,"kind":"restaurant","cuisine":"mediterranean"},{"name":"Element Woodfire Pizza","lat":44.99857,"lng":-93.26773,"kind":"restaurant","cuisine":"pizza"},{"name":"Davanni's","lat":44.9656,"lng":-93.23594,"kind":"restaurant","cuisine":"pizza"},{"name":"The Original on 42nd","lat":44.92679,"lng":-93.24661,"kind":"restaurant","cuisine":"sandwich"},{"name":"Darling","lat":44.9572,"lng":-93.22341,"kind":"restaurant","cuisine":"american"},{"name":"Kimchi Tofu House","lat":44.97329,"lng":-93.22684,"kind":"restaurant","cuisine":"korean"},{"name":"Fireroast Cafe","lat":44.93407,"lng":-93.21935,"kind":"cafe","cuisine":"breakfast"},{"name":"Manning's","lat":44.98773,"lng":-93.22132,"kind":"restaurant","cuisine":"american"},{"name":"Cowboy Jack's","lat":44.98126,"lng":-93.27434,"kind":"restaurant","cuisine":"american"},{"name":"Aurelia's Mexican Uptown","lat":44.94995,"lng":-93.28776,"kind":"restaurant","cuisine":"mexican"},{"name":"Five Hole Sports Bar & Grill","lat":45.03658,"lng":-93.22669,"kind":"restaurant","cuisine":"burger"},{"name":"Village Pub","lat":45.01715,"lng":-93.21816,"kind":"restaurant","cuisine":"american"},{"name":"Caribou Coffee","lat":44.91656,"lng":-93.24694,"kind":"cafe","cuisine":"coffee shop"},{"name":"Dominguez Family Restaurant","lat":44.91233,"lng":-93.22366,"kind":"restaurant","cuisine":"mexican"},{"name":"Tacos El Kevin","lat":44.93434,"lng":-93.26701,"kind":"restaurant","cuisine":"mexican"},{"name":"Leela On 8","lat":45.03617,"lng":-93.19818,"kind":"restaurant","cuisine":"american"},{"name":"Mocha Momma's Coffee","lat":44.9802,"lng":-93.26995,"kind":"cafe","cuisine":"coffee shop"},{"name":"Victor's 1959 Cafe","lat":44.93423,"lng":-93.28468,"kind":"restaurant","cuisine":"cuban"},{"name":"Caribou Coffee","lat":44.98373,"lng":-93.27882,"kind":"cafe","cuisine":"coffee shop"},{"name":"Hola Arepa","lat":44.93934,"lng":-93.2774,"kind":"restaurant","cuisine":"venezuelan"},{"name":"Elsie's","lat":44.99505,"lng":-93.26609,"kind":"restaurant","cuisine":"american"},{"name":"Fat Lorenzo's","lat":44.9008,"lng":-93.24775,"kind":"restaurant","cuisine":"pizza"},{"name":"The Coffe Shop Northeast","lat":45.02018,"lng":-93.23748,"kind":"cafe","cuisine":"coffee shop"},{"name":"Maya Cuisine","lat":45.00742,"lng":-93.24784,"kind":"restaurant","cuisine":"mexican"},{"name":"Broders’ Pasta Bar","lat":44.91207,"lng":-93.30921,"kind":"restaurant","cuisine":"italian"},{"name":"Himalayan Restaurant","lat":44.94863,"lng":-93.22947,"kind":"restaurant","cuisine":"himalayan"},{"name":"Chimborazo","lat":45.02025,"lng":-93.24702,"kind":"restaurant","cuisine":"regional"},{"name":"Spitz","lat":44.98912,"lng":-93.25243,"kind":"restaurant","cuisine":"mediterranean"},{"name":"Gandhi Mahal's Curry In A Hurry","lat":44.96253,"lng":-93.22718,"kind":"restaurant","cuisine":"indian"},{"name":"Dogwood Coffee","lat":44.94811,"lng":-93.21441,"kind":"cafe","cuisine":"coffee shop"},{"name":"Caribou Coffee","lat":45.03545,"lng":-93.19443,"kind":"cafe","cuisine":"coffee shop"},{"name":"Perkins","lat":45.03612,"lng":-93.19585,"kind":"restaurant","cuisine":"american"},{"name":"Shuang Cheng","lat":44.98048,"lng":-93.23648,"kind":"restaurant","cuisine":"chinese"},{"name":"El Norteño","lat":44.94855,"lng":-93.21504,"kind":"restaurant","cuisine":"mexican"},{"name":"Conga Latin Bistro","lat":44.98929,"lng":-93.25347,"kind":"restaurant","cuisine":"latin american"},{"name":"Cafe Racer","lat":44.95722,"lng":-93.22855,"kind":"restaurant","cuisine":"latin american"},{"name":"Starbucks","lat":44.9174,"lng":-93.24764,"kind":"cafe","cuisine":"coffee shop"},{"name":"Emily's Lebanese Delicatessan","lat":44.99564,"lng":-93.26137,"kind":"restaurant","cuisine":"lebanese"},{"name":"Franklin Pizza","lat":44.96245,"lng":-93.27446,"kind":"restaurant","cuisine":"pizza"},{"name":"Our Kitchen","lat":44.93756,"lng":-93.29021,"kind":"restaurant","cuisine":"american"},{"name":"Parkway Pizza","lat":44.9235,"lng":-93.21644,"kind":"restaurant","cuisine":"pizza"},{"name":"Prairie Kitchen and Bar","lat":44.97126,"lng":-93.27761,"kind":"restaurant","cuisine":"american"},{"name":"MPLS Market","lat":44.97117,"lng":-93.27804,"kind":"restaurant","cuisine":"sandwich"},{"name":"Vitali's Café","lat":44.97054,"lng":-93.27825,"kind":"cafe","cuisine":"coffee shop"},{"name":"UP Cafe","lat":44.99263,"lng":-93.22517,"kind":"cafe","cuisine":"coffee shop"},{"name":"Starbucks","lat":45.01898,"lng":-93.32608,"kind":"cafe","cuisine":"coffee shop"},{"name":"The Camden Social","lat":45.03873,"lng":-93.28771,"kind":"restaurant","cuisine":"american"},{"name":"Hai Hai","lat":45.00985,"lng":-93.26276,"kind":"restaurant","cuisine":"asian"},{"name":"Market Bar-B-Que Restaurant And Food Trucks","lat":45.01302,"lng":-93.26508,"kind":"restaurant","cuisine":"barbecue"},{"name":"The Briar","lat":45.00076,"lng":-93.25737,"kind":"cafe","cuisine":"tea"},{"name":"Red Sea Restaurant","lat":44.9708,"lng":-93.24751,"kind":"restaurant","cuisine":"ethiopian"},{"name":"Misfit Coffee","lat":44.97815,"lng":-93.29847,"kind":"cafe","cuisine":"coffee shop"},{"name":"Pair of Dice Pizza","lat":45.00934,"lng":-93.31503,"kind":"restaurant","cuisine":"pizza"},{"name":"Marinos's Deli","lat":45.00946,"lng":-93.23738,"kind":"restaurant","cuisine":"american"},{"name":"Uncle Franky's","lat":44.99858,"lng":-93.25136,"kind":"restaurant","cuisine":"hot dog"},{"name":"Pimento Jamaican Kitchen","lat":44.94812,"lng":-93.30643,"kind":"restaurant","cuisine":"caribbean"},{"name":"Ping's Szechuan Bar & Grill","lat":44.96879,"lng":-93.27747,"kind":"restaurant","cuisine":"chinese"},{"name":"Old Southern BBQ","lat":44.92135,"lng":-93.32861,"kind":"restaurant","cuisine":"southern"},{"name":"Great Wall Chinese Restaurant","lat":44.92094,"lng":-93.32861,"kind":"restaurant","cuisine":"chinese"},{"name":"Toppers Pizza","lat":44.94883,"lng":-93.28848,"kind":"restaurant","cuisine":"pizza"},{"name":"Taqueria El Patrón","lat":44.9127,"lng":-93.31866,"kind":"restaurant","cuisine":"mexican"},{"name":"Murray's","lat":44.97864,"lng":-93.27236,"kind":"restaurant","cuisine":"steak house"},{"name":"Boludo","lat":44.93429,"lng":-93.27837,"kind":"restaurant","cuisine":"argentinian"}]}