{"generated_at":"2026-07-22T10:44:06.813Z","city":"sf","source":"OpenStreetMap","count":2384,"eats":[{"name":"Denny's","lat":37.65012,"lng":-122.40792,"kind":"restaurant","cuisine":"american"},{"name":"Mel's Drive-in","lat":37.79955,"lng":-122.43705,"kind":"restaurant","cuisine":"diner"},{"name":"Mezze and Mooore","lat":37.76809,"lng":-122.42459,"kind":"restaurant","cuisine":"lebanese"},{"name":"John's Grill Live Jazz","lat":37.78546,"lng":-122.40715,"kind":"restaurant","cuisine":"steak"},{"name":"Little Star Pizza","lat":37.76645,"lng":-122.4222,"kind":"restaurant","cuisine":"pizza"},{"name":"Caffe Trieste","lat":37.79867,"lng":-122.4073,"kind":"cafe","cuisine":"coffee shop"},{"name":"Dupont Thai","lat":37.79954,"lng":-122.40728,"kind":"restaurant","cuisine":"thai"},{"name":"Bocce Cafe","lat":37.7999,"lng":-122.40709,"kind":"restaurant","cuisine":"italian"},{"name":"Maykadeh Persian Restaurant","lat":37.79988,"lng":-122.40699,"kind":"restaurant","cuisine":"persian"},{"name":"Tommaso's Ristorante Italiano","lat":37.79778,"lng":-122.4053,"kind":"restaurant","cuisine":"italian"},{"name":"Starbucks","lat":37.78622,"lng":-122.45319,"kind":"cafe","cuisine":"coffee shop"},{"name":"Peet's Coffee","lat":37.78661,"lng":-122.45046,"kind":"cafe","cuisine":"coffee shop"},{"name":"Osteria Cucina Toscana","lat":37.78811,"lng":-122.44679,"kind":"restaurant","cuisine":"italian"},{"name":"Caffé Sport","lat":37.79968,"lng":-122.40862,"kind":"restaurant","cuisine":"italian"},{"name":"Peet's Coffee","lat":37.79083,"lng":-122.40252,"kind":"cafe","cuisine":"coffee shop"},{"name":"Philz Coffee","lat":37.75114,"lng":-122.43838,"kind":"cafe","cuisine":"coffee shop"},{"name":"Firefly","lat":37.75115,"lng":-122.43824,"kind":"restaurant","cuisine":"regional"},{"name":"Noe Cafe","lat":37.7485,"lng":-122.42922,"kind":"cafe","cuisine":"coffee shop"},{"name":"Bernal Heights Pizzeria","lat":37.74904,"lng":-122.42706,"kind":"restaurant","cuisine":"pizza"},{"name":"Lovejoy's Tea Room","lat":37.74921,"lng":-122.42706,"kind":"cafe","cuisine":"tea"},{"name":"Barbara Pinseria & Cocktail Bar","lat":37.79915,"lng":-122.40878,"kind":"restaurant","cuisine":"italian"},{"name":"Cavalli Cafe","lat":37.79919,"lng":-122.4091,"kind":"cafe","cuisine":"coffee shop"},{"name":"Original Joe's","lat":37.80033,"lng":-122.40933,"kind":"restaurant","cuisine":"italian"},{"name":"Teo Restaurant & Bar","lat":37.77901,"lng":-122.41091,"kind":"restaurant","cuisine":"chinese"},{"name":"Tú Lan","lat":37.78188,"lng":-122.41008,"kind":"restaurant","cuisine":"vietnamese"},{"name":"Empress of China","lat":37.79483,"lng":-122.40612,"kind":"restaurant","cuisine":"chinese"},{"name":"Sushi on North Beach - Katsu","lat":37.80136,"lng":-122.41193,"kind":"restaurant","cuisine":"japanese"},{"name":"Il Pollaio","lat":37.79996,"lng":-122.41001,"kind":"restaurant","cuisine":"chicken"},{"name":"Freddie's Sandwiches","lat":37.80521,"lng":-122.41032,"kind":"restaurant","cuisine":"sandwich"},{"name":"La Trappe","lat":37.80198,"lng":-122.41298,"kind":"restaurant","cuisine":"belgian"},{"name":"Coi","lat":37.79819,"lng":-122.40293,"kind":"restaurant","cuisine":"new american"},{"name":"Mo's Grill","lat":37.7992,"lng":-122.40721,"kind":"restaurant","cuisine":"burger"},{"name":"Don Pistos","lat":37.80073,"lng":-122.40797,"kind":"restaurant","cuisine":"mexican"},{"name":"Bubba Gump Shrimp Company","lat":37.81108,"lng":-122.41025,"kind":"restaurant","cuisine":"seafood"},{"name":"Osha BBQ","lat":37.78666,"lng":-122.41466,"kind":"restaurant","cuisine":"thai"},{"name":"Cafe Mason","lat":37.78661,"lng":-122.40959,"kind":"restaurant","cuisine":"international"},{"name":"Pinecrest Diner","lat":37.787,"lng":-122.40999,"kind":"restaurant","cuisine":"american"},{"name":"Little Whale","lat":37.60346,"lng":-122.39601,"kind":"restaurant","cuisine":"thai"},{"name":"The Laundromat SF","lat":37.77551,"lng":-122.49885,"kind":"restaurant","cuisine":"pizza"},{"name":"Another Cafe","lat":37.79017,"lng":-122.41541,"kind":"cafe","cuisine":"coffee shop"},{"name":"Four Barrel Coffee","lat":37.76702,"lng":-122.42193,"kind":"cafe","cuisine":"coffee shop"},{"name":"Little Kitchen","lat":37.79891,"lng":-122.42253,"kind":"restaurant","cuisine":"chinese"},{"name":"Asa Sushi","lat":37.79994,"lng":-122.44227,"kind":"restaurant","cuisine":"sushi"},{"name":"Squat & Gobble","lat":37.80017,"lng":-122.44055,"kind":"restaurant","cuisine":"american"},{"name":"Beach Chalet","lat":37.76947,"lng":-122.51022,"kind":"restaurant","cuisine":"western"},{"name":"Beach Chalet Brewery & Restaurant","lat":37.76947,"lng":-122.50998,"kind":"restaurant","cuisine":"western"},{"name":"Pancho Villa","lat":37.76486,"lng":-122.42108,"kind":"restaurant","cuisine":"mexican"},{"name":"Round Table Pizza","lat":37.78303,"lng":-122.42111,"kind":"restaurant","cuisine":"pizza"},{"name":"Ike's Kitchen","lat":37.78305,"lng":-122.42062,"kind":"restaurant","cuisine":"sushi"},{"name":"Hashes & Brews","lat":37.6263,"lng":-122.42492,"kind":"restaurant","cuisine":"american"},{"name":"Underdogs Too","lat":37.7419,"lng":-122.50478,"kind":"restaurant","cuisine":"mexican"},{"name":"Chubby Noodle","lat":37.79969,"lng":-122.40854,"kind":"restaurant","cuisine":"noodle"},{"name":"Sotto Mare","lat":37.79972,"lng":-122.40832,"kind":"restaurant","cuisine":"italian"},{"name":"Ritual Coffee Roasters","lat":37.75643,"lng":-122.42125,"kind":"cafe","cuisine":"coffee shop"},{"name":"Shabu club","lat":37.78258,"lng":-122.46962,"kind":"restaurant","cuisine":"asian"},{"name":"All Stars","lat":37.78263,"lng":-122.46882,"kind":"cafe","cuisine":"donut"},{"name":"Hamburger Haven","lat":37.78293,"lng":-122.46779,"kind":"restaurant","cuisine":"burger"},{"name":"Giorgio's Pizza","lat":37.78298,"lng":-122.46108,"kind":"restaurant","cuisine":"pizza"},{"name":"Cumaica Coffee","lat":37.78323,"lng":-122.46138,"kind":"cafe","cuisine":"coffee"},{"name":"Rose Pizzeria","lat":37.78306,"lng":-122.45922,"kind":"restaurant","cuisine":"pizza"},{"name":"Tavola Rustica","lat":37.76721,"lng":-122.42881,"kind":"restaurant","cuisine":"italian"},{"name":"McCormick & Schmick's","lat":37.80616,"lng":-122.42253,"kind":"restaurant","cuisine":"seafood"},{"name":"Inle Burmese Cuisine","lat":37.76415,"lng":-122.46681,"kind":"restaurant","cuisine":"burmese"},{"name":"Puerto Allegre","lat":37.76415,"lng":-122.42198,"kind":"restaurant","cuisine":"mexican"},{"name":"El Farolito","lat":37.72116,"lng":-122.43728,"kind":"restaurant","cuisine":"mexican"},{"name":"Arepas","lat":37.76494,"lng":-122.42394,"kind":"restaurant","cuisine":"latin american"},{"name":"Pakwan","lat":37.76495,"lng":-122.42366,"kind":"restaurant","cuisine":"indian"},{"name":"Suppenküche","lat":37.77635,"lng":-122.42637,"kind":"restaurant","cuisine":"german"},{"name":"Delfina","lat":37.76141,"lng":-122.42434,"kind":"restaurant","cuisine":"italian"},{"name":"Mochica","lat":37.76244,"lng":-122.39734,"kind":"restaurant","cuisine":"peruvian"},{"name":"Goat Hill Pizza","lat":37.76241,"lng":-122.39765,"kind":"restaurant","cuisine":"pizza"},{"name":"Tara Indian Cuisine","lat":37.76531,"lng":-122.43143,"kind":"restaurant","cuisine":"indian"},{"name":"Thailand Restaurant","lat":37.76186,"lng":-122.43529,"kind":"restaurant","cuisine":"thai"},{"name":"Fratelli Pizza","lat":37.76154,"lng":-122.43525,"kind":"restaurant","cuisine":"pizza"},{"name":"Compton's Coffe House","lat":37.79987,"lng":-122.40984,"kind":"cafe","cuisine":"coffee shop"},{"name":"Sakana","lat":37.78774,"lng":-122.41192,"kind":"restaurant","cuisine":"sushi"},{"name":"Zzan","lat":37.78768,"lng":-122.41246,"kind":"restaurant","cuisine":"korean"},{"name":"Akiko's Sushi Bar","lat":37.78872,"lng":-122.41007,"kind":"restaurant","cuisine":"sushi"},{"name":"Honey Honey Cafe & Crepery","lat":37.78779,"lng":-122.41155,"kind":"restaurant","cuisine":"crepe"},{"name":"Matador","lat":37.78876,"lng":-122.41153,"kind":"restaurant","cuisine":"mexican"},{"name":"Cesario's","lat":37.7889,"lng":-122.41038,"kind":"restaurant","cuisine":"italian"},{"name":"Mixt Greens","lat":37.79448,"lng":-122.40164,"kind":"restaurant","cuisine":"salad"},{"name":"Tlaloc","lat":37.79429,"lng":-122.40173,"kind":"restaurant","cuisine":"mexican"},{"name":"Lion West Portal","lat":37.7378,"lng":-122.46902,"kind":"restaurant","cuisine":"sushi"},{"name":"Tsing’s Chinese Restaurant","lat":37.73709,"lng":-122.46982,"kind":"restaurant","cuisine":"chinese"},{"name":"Little Original Joe's","lat":37.73658,"lng":-122.47034,"kind":"restaurant","cuisine":"italian"},{"name":"Starbucks","lat":37.73971,"lng":-122.46731,"kind":"cafe","cuisine":"coffee shop"},{"name":"Matterhorn","lat":37.79723,"lng":-122.42408,"kind":"restaurant","cuisine":"swiss"},{"name":"Hard Rock Cafe","lat":37.80866,"lng":-122.40983,"kind":"restaurant","cuisine":"american"},{"name":"Cafe Réveille","lat":37.77106,"lng":-122.43207,"kind":"cafe","cuisine":"sandwich"},{"name":"Uva Enoteca","lat":37.77207,"lng":-122.43159,"kind":"restaurant","cuisine":"italian"},{"name":"Kate's Kitchen","lat":37.77208,"lng":-122.42988,"kind":"restaurant","cuisine":"american"},{"name":"House of Thai 2","lat":37.77225,"lng":-122.43023,"kind":"restaurant","cuisine":"thai"},{"name":"Indian Oven","lat":37.7717,"lng":-122.43052,"kind":"restaurant","cuisine":"indian"},{"name":"Lava Java","lat":37.76665,"lng":-122.45287,"kind":"cafe","cuisine":"coffee shop"},{"name":"Scoma's","lat":37.854,"lng":-122.47867,"kind":"restaurant","cuisine":"seafood"},{"name":"Taffi's Cafe","lat":37.74299,"lng":-122.42678,"kind":"restaurant","cuisine":"american"},{"name":"Philz Coffee","lat":37.77556,"lng":-122.3934,"kind":"cafe","cuisine":"coffee shop"},{"name":"KAIYŌ","lat":37.79796,"lng":-122.42953,"kind":"restaurant","cuisine":"japanese"},{"name":"Sai's Vietnamese Restaurant","lat":37.79625,"lng":-122.4041,"kind":"restaurant","cuisine":"vietnamese"},{"name":"North Beach Pizza","lat":37.74216,"lng":-122.49907,"kind":"restaurant","cuisine":"pizza"},{"name":"Win's Restaurant","lat":37.74216,"lng":-122.4989,"kind":"restaurant","cuisine":"chinese"},{"name":"Vanida Thai Kitchen","lat":37.74216,"lng":-122.49901,"kind":"restaurant","cuisine":"thai"},{"name":"The Sunset's Best Seafood Restaurant","lat":37.74215,"lng":-122.49912,"kind":"restaurant","cuisine":"seafood"},{"name":"Andytown Coffee Roasters","lat":37.74218,"lng":-122.49857,"kind":"cafe","cuisine":"coffee shop"},{"name":"Pharaohs Mediterranean Sandwiches","lat":37.78681,"lng":-122.41356,"kind":"restaurant","cuisine":"mediterranean"},{"name":"The Thonglor","lat":37.78722,"lng":-122.41032,"kind":"restaurant","cuisine":"thai"},{"name":"Bentotaro","lat":37.78721,"lng":-122.4104,"kind":"restaurant","cuisine":"sushi"},{"name":"Tratto","lat":37.78681,"lng":-122.41166,"kind":"restaurant","cuisine":"italian"},{"name":"Bota Tapas & Paella Bar","lat":37.78713,"lng":-122.41119,"kind":"restaurant","cuisine":"spanish"},{"name":"David's Delicatessen & Diner","lat":37.78716,"lng":-122.41103,"kind":"restaurant","cuisine":"deli"},{"name":"Starbucks","lat":37.78716,"lng":-122.41072,"kind":"cafe","cuisine":"coffee shop"},{"name":"A La Turca","lat":37.78608,"lng":-122.41755,"kind":"restaurant","cuisine":"turkish"},{"name":"Moulin Rouge Restaurant","lat":37.78606,"lng":-122.41774,"kind":"restaurant","cuisine":"american"},{"name":"House of Thai","lat":37.7862,"lng":-122.41828,"kind":"restaurant","cuisine":"thai"},{"name":"Ping Yang","lat":37.78692,"lng":-122.4184,"kind":"restaurant","cuisine":"thai"},{"name":"Piroo","lat":37.78695,"lng":-122.4201,"kind":"restaurant","cuisine":"nepalese"},{"name":"Mel's Kitchen","lat":37.78561,"lng":-122.42113,"kind":"restaurant","cuisine":"american"},{"name":"Hummus Mediterranean Kitchen","lat":37.79681,"lng":-122.42181,"kind":"restaurant","cuisine":"mediterranean"},{"name":"Nosh Box","lat":37.77652,"lng":-122.4084,"kind":"cafe","cuisine":"pastry"},{"name":"Sushi Hashiri","lat":37.78304,"lng":-122.40767,"kind":"restaurant","cuisine":"sushi"},{"name":"Leopold's","lat":37.7989,"lng":-122.42222,"kind":"restaurant","cuisine":"german"},{"name":"La Corneta","lat":37.75337,"lng":-122.41842,"kind":"restaurant","cuisine":"mexican"},{"name":"Radiator","lat":37.78577,"lng":-122.39675,"kind":"cafe","cuisine":"coffee shop"},{"name":"New Delhi","lat":37.78547,"lng":-122.40908,"kind":"restaurant","cuisine":"indian"},{"name":"Miyabiya Sushi and Grill","lat":37.78572,"lng":-122.40895,"kind":"restaurant","cuisine":"japanese"},{"name":"King Kee","lat":37.78555,"lng":-122.40889,"kind":"restaurant","cuisine":"chinese"},{"name":"Hinodeya Ramen & Bar","lat":37.78628,"lng":-122.40839,"kind":"restaurant","cuisine":"noodle"},{"name":"Starbucks","lat":37.78654,"lng":-122.4082,"kind":"cafe","cuisine":"coffee shop"},{"name":"Starbucks","lat":37.66457,"lng":-122.44545,"kind":"cafe","cuisine":"coffee shop"},{"name":"El Tesoro","lat":37.7855,"lng":-122.41447,"kind":"restaurant","cuisine":"mexican"},{"name":"Pakwan","lat":37.78569,"lng":-122.41312,"kind":"restaurant","cuisine":"indian"},{"name":"Marrakech","lat":37.78586,"lng":-122.41178,"kind":"restaurant","cuisine":"moroccan"},{"name":"Napoli Pizza","lat":37.78654,"lng":-122.42001,"kind":"restaurant","cuisine":"italian"},{"name":"El Super Burrito","lat":37.78789,"lng":-122.42002,"kind":"restaurant","cuisine":"mexican"},{"name":"Sliders","lat":37.78785,"lng":-122.42032,"kind":"restaurant","cuisine":"burger"},{"name":"Wen's Kitchen","lat":37.78739,"lng":-122.4199,"kind":"restaurant","cuisine":"chinese"},{"name":"Crostini & Java","lat":37.78898,"lng":-122.41714,"kind":"cafe","cuisine":"coffee shop"},{"name":"Colombini","lat":37.78856,"lng":-122.41705,"kind":"restaurant","cuisine":"italian"},{"name":"Ben Thai Cafe","lat":37.78924,"lng":-122.42056,"kind":"restaurant","cuisine":"thai"},{"name":"Aicha","lat":37.78887,"lng":-122.42049,"kind":"restaurant","cuisine":"moroccan"},{"name":"Ti Piacera","lat":37.79078,"lng":-122.42088,"kind":"restaurant","cuisine":"mediterranean"},{"name":"Victor's Pizzeria & Restaurant","lat":37.78986,"lng":-122.4207,"kind":"restaurant","cuisine":"italian"},{"name":"Bamboo","lat":37.79013,"lng":-122.42072,"kind":"restaurant","cuisine":"chinese"},{"name":"Pho Vietnam","lat":37.78983,"lng":-122.42043,"kind":"restaurant","cuisine":"vietnamese"},{"name":"Himalayan Cuisine","lat":37.78993,"lng":-122.42044,"kind":"restaurant","cuisine":"indian"},{"name":"Karahi House","lat":37.7898,"lng":-122.4207,"kind":"restaurant","cuisine":"indian"},{"name":"Dunya","lat":37.79174,"lng":-122.42107,"kind":"restaurant","cuisine":"mediterranean"},{"name":"Hoi.An","lat":37.7917,"lng":-122.42079,"kind":"restaurant","cuisine":"vietnamese"},{"name":"Starbucks","lat":37.79926,"lng":-122.44935,"kind":"cafe","cuisine":"coffee shop"},{"name":"Café de la Presse","lat":37.79048,"lng":-122.40547,"kind":"restaurant","cuisine":"french"},{"name":"Shari's","lat":37.63075,"lng":-122.43677,"kind":"restaurant","cuisine":"american"},{"name":"Tsing Tao","lat":37.78156,"lng":-122.49262,"kind":"restaurant","cuisine":"chinese"},{"name":"Mel's Drive-In","lat":37.78414,"lng":-122.40445,"kind":"restaurant","cuisine":"american"},{"name":"Rudy's Can't Fail Cafe","lat":37.83097,"lng":-122.28595,"kind":"restaurant","cuisine":"american"},{"name":"BJ's","lat":37.63553,"lng":-122.41884,"kind":"restaurant","cuisine":"american"},{"name":"Shalimar","lat":37.78626,"lng":-122.41293,"kind":"restaurant","cuisine":"pakistani"},{"name":"Java Beach Cafe","lat":37.76045,"lng":-122.50898,"kind":"cafe","cuisine":"coffee shop"},{"name":"Golden Gate Pizza & Indian","lat":37.76071,"lng":-122.50545,"kind":"restaurant","cuisine":"pizza"},{"name":"DAMNFINE Coffee","lat":37.76033,"lng":-122.50542,"kind":"cafe","cuisine":"coffee shop"},{"name":"Thai Cottage Restaurant","lat":37.76032,"lng":-122.50555,"kind":"restaurant","cuisine":"thai"},{"name":"Thanh Long","lat":37.76029,"lng":-122.50607,"kind":"restaurant","cuisine":"vietnamese"},{"name":"Outerlands","lat":37.76035,"lng":-122.50501,"kind":"restaurant","cuisine":"american"},{"name":"Tea Rex","lat":37.74169,"lng":-122.42258,"kind":"cafe","cuisine":"tea"},{"name":"Blue Barn Cole Valley","lat":37.76567,"lng":-122.4501,"kind":"restaurant","cuisine":"salad"},{"name":"Beit Rima","lat":37.76595,"lng":-122.44967,"kind":"restaurant","cuisine":"middle eastern"},{"name":"Nepalese Indian Cusine","lat":37.77785,"lng":-122.41628,"kind":"restaurant","cuisine":"indian"},{"name":"Rin's Thai","lat":37.75092,"lng":-122.43861,"kind":"restaurant","cuisine":"thai"},{"name":"Dancing Yak","lat":37.76836,"lng":-122.4224,"kind":"restaurant","cuisine":"nepalese"},{"name":"Giordano Bros.","lat":37.76498,"lng":-122.42232,"kind":"restaurant","cuisine":"sandwich"},{"name":"Go Go 7","lat":37.72415,"lng":-122.45661,"kind":"restaurant","cuisine":"korean"},{"name":"Bite Me Sandwiches","lat":37.76848,"lng":-122.45066,"kind":"cafe","cuisine":"sandwich"},{"name":"Starbucks","lat":37.62573,"lng":-122.42608,"kind":"cafe","cuisine":"coffee shop"},{"name":"Chatz","lat":37.76237,"lng":-122.39829,"kind":"cafe","cuisine":"ice cream"},{"name":"IHOP","lat":37.80785,"lng":-122.41259,"kind":"restaurant","cuisine":"breakfast"},{"name":"Beit Rima","lat":37.76873,"lng":-122.42926,"kind":"restaurant","cuisine":"arab"},{"name":"Palmyra Restaurant","lat":37.77179,"lng":-122.43392,"kind":"cafe","cuisine":"mediterranean"},{"name":"Dynamo Donut & Coffee","lat":37.75299,"lng":-122.40765,"kind":"cafe","cuisine":"coffee shop"},{"name":"Rosamunde Sausage Grill","lat":37.75163,"lng":-122.41858,"kind":"restaurant","cuisine":"german"},{"name":"Beretta","lat":37.75384,"lng":-122.4207,"kind":"restaurant","cuisine":"italian"},{"name":"Angelina's Cafe","lat":37.78415,"lng":-122.48196,"kind":"cafe","cuisine":"coffee shop"},{"name":"Tomo Sushi & Teriyaki","lat":37.70212,"lng":-122.47058,"kind":"restaurant","cuisine":"sushi"},{"name":"Round Table Pizza","lat":37.70248,"lng":-122.47058,"kind":"restaurant","cuisine":"pizza"},{"name":"Sam Wo Restaurant","lat":37.79434,"lng":-122.40513,"kind":"restaurant","cuisine":"chinese"},{"name":"Ming Garden","lat":37.7317,"lng":-122.4513,"kind":"restaurant","cuisine":"asian"},{"name":"Peking Wok","lat":37.7337,"lng":-122.39132,"kind":"restaurant","cuisine":"wok"},{"name":"Mixt","lat":37.79037,"lng":-122.4038,"kind":"restaurant","cuisine":"salad"},{"name":"Reem’s California - Mission","lat":37.75054,"lng":-122.41814,"kind":"restaurant","cuisine":"arab"},{"name":"Bravo Pizza","lat":37.71655,"lng":-122.44076,"kind":"restaurant","cuisine":"pizza"},{"name":"Chifa Peruano Asian Restaurant","lat":37.71589,"lng":-122.44119,"kind":"restaurant","cuisine":"peruvian"},{"name":"Teazzert Pho You","lat":37.71687,"lng":-122.44153,"kind":"restaurant","cuisine":"vietnamese"},{"name":"Ly Luck","lat":37.70989,"lng":-122.4501,"kind":"restaurant","cuisine":"asian"},{"name":"Bruno’s Pizza & Grill","lat":37.73198,"lng":-122.40564,"kind":"restaurant","cuisine":"pizza"},{"name":"Hong Kong BBQ Restaurant","lat":37.72715,"lng":-122.40356,"kind":"restaurant","cuisine":"asian"},{"name":"Imperial Gardens Sea Food","lat":37.72833,"lng":-122.40412,"kind":"restaurant","cuisine":"seafood"},{"name":"Round Table Pizza","lat":37.72797,"lng":-122.40394,"kind":"restaurant","cuisine":"pizza"},{"name":"Cinco de Mayo Taquería","lat":37.73176,"lng":-122.40553,"kind":"restaurant","cuisine":"mexican"},{"name":"Ling Ling Cuisine","lat":37.73006,"lng":-122.40443,"kind":"restaurant","cuisine":"asian"},{"name":"2546 Cafe","lat":37.72951,"lng":-122.40466,"kind":"restaurant","cuisine":"asian"},{"name":"Tops Café BBQ House","lat":37.7309,"lng":-122.40511,"kind":"restaurant","cuisine":"asian"},{"name":"Cali-Phô-nia","lat":37.73169,"lng":-122.40549,"kind":"restaurant","cuisine":"asian"},{"name":"Pho #1","lat":37.72945,"lng":-122.40412,"kind":"restaurant","cuisine":"asian"},{"name":"Yan Li","lat":37.73272,"lng":-122.39107,"kind":"restaurant","cuisine":"vietnamese"},{"name":"Railroad Expresso Café","lat":37.73137,"lng":-122.4514,"kind":"cafe","cuisine":"coffee shop"},{"name":"Moshi Moshi","lat":37.76323,"lng":-122.38909,"kind":"restaurant","cuisine":"japanese"},{"name":"Blue Bottle Coffee","lat":37.78974,"lng":-122.4037,"kind":"cafe","cuisine":"coffee shop"},{"name":"Bir Kitchen","lat":37.75239,"lng":-122.41448,"kind":"restaurant","cuisine":"indian"},{"name":"Hook Fish Co","lat":37.76239,"lng":-122.50686,"kind":"restaurant","cuisine":"fish"},{"name":"Molinari Delicatessen","lat":37.7985,"lng":-122.40787,"kind":"restaurant","cuisine":"italian"},{"name":"The Little Chihuahua","lat":37.77202,"lng":-122.43705,"kind":"restaurant","cuisine":"mexican"},{"name":"AsiaSF","lat":37.775,"lng":-122.41297,"kind":"restaurant","cuisine":"asian"},{"name":"Slice House","lat":37.78085,"lng":-122.39106,"kind":"restaurant","cuisine":"pizza"},{"name":"Feng Cha","lat":37.78515,"lng":-122.40372,"kind":"cafe","cuisine":"bubble tea"},{"name":"Lao Table","lat":37.78744,"lng":-122.39884,"kind":"restaurant","cuisine":"lao"},{"name":"Uno dos tacos","lat":37.78907,"lng":-122.40077,"kind":"restaurant","cuisine":"mexican"},{"name":"Chatz Coffee","lat":37.78655,"lng":-122.39775,"kind":"cafe","cuisine":"coffee shop"},{"name":"Luke’s Lobster","lat":37.78805,"lng":-122.4001,"kind":"restaurant","cuisine":"seafood"},{"name":"Village Tea House","lat":37.78841,"lng":-122.40054,"kind":"restaurant","cuisine":"chinese"},{"name":"Vida Cantina","lat":37.79148,"lng":-122.40377,"kind":"restaurant","cuisine":"mexican"},{"name":"All American Natural Cafe","lat":37.84221,"lng":-122.2837,"kind":"cafe","cuisine":"coffee shop"},{"name":"Cafe Colucci","lat":37.84187,"lng":-122.28362,"kind":"restaurant","cuisine":"ethiopian"},{"name":"Henry's House of Coffee","lat":37.75421,"lng":-122.48122,"kind":"cafe","cuisine":"coffee shop"},{"name":"Taste of Rome","lat":37.8586,"lng":-122.48307,"kind":"cafe","cuisine":"italian"},{"name":"Good to Eat","lat":37.84713,"lng":-122.29056,"kind":"restaurant","cuisine":"taiwanese"},{"name":"Piccino","lat":37.75773,"lng":-122.39002,"kind":"restaurant","cuisine":"italian"},{"name":"Starbucks","lat":37.78777,"lng":-122.40104,"kind":"cafe","cuisine":"coffee shop"},{"name":"Village Pizzeria","lat":37.78731,"lng":-122.42196,"kind":"restaurant","cuisine":"pizza"},{"name":"Cotogna","lat":37.79744,"lng":-122.40353,"kind":"restaurant","cuisine":"italian"},{"name":"Nara","lat":37.77217,"lng":-122.43083,"kind":"restaurant","cuisine":"japanese"},{"name":"Burma Love","lat":37.7829,"lng":-122.40784,"kind":"restaurant","cuisine":"burmese"},{"name":"Ju-ni Sushi Bar","lat":37.77667,"lng":-122.43885,"kind":"restaurant","cuisine":"sushi"},{"name":"Bar Crudo","lat":37.77571,"lng":-122.43813,"kind":"restaurant","cuisine":"fish"},{"name":"Mission Chinese Food","lat":37.7612,"lng":-122.41947,"kind":"restaurant","cuisine":"chinese"},{"name":"Alborz","lat":37.78738,"lng":-122.42197,"kind":"restaurant","cuisine":"persian"},{"name":"House of Hunan","lat":37.78271,"lng":-122.38897,"kind":"restaurant","cuisine":"chinese"},{"name":"The Sentinel","lat":37.78831,"lng":-122.40137,"kind":"restaurant","cuisine":"sandwich"},{"name":"zevi café & bistro","lat":37.78321,"lng":-122.40686,"kind":"cafe","cuisine":"mediterranean"},{"name":"The Harlequin","lat":37.78488,"lng":-122.40498,"kind":"restaurant","cuisine":"american"},{"name":"Hard Knox Cafe","lat":37.78212,"lng":-122.48573,"kind":"restaurant","cuisine":"american"},{"name":"Pane e Vino","lat":37.79801,"lng":-122.42763,"kind":"restaurant","cuisine":"italian"},{"name":"Ryoko's","lat":37.7882,"lng":-122.41189,"kind":"restaurant","cuisine":"japanese"},{"name":"Isa","lat":37.8001,"lng":-122.43764,"kind":"restaurant","cuisine":"french"},{"name":"Tres","lat":37.78019,"lng":-122.39136,"kind":"restaurant","cuisine":"mexican"},{"name":"Underdogs Cantina","lat":37.77945,"lng":-122.39051,"kind":"restaurant","cuisine":"tacos"},{"name":"The Bird","lat":37.78724,"lng":-122.40007,"kind":"restaurant","cuisine":"sandwich"},{"name":"La Playa","lat":37.7597,"lng":-122.41899,"kind":"restaurant","cuisine":"seafood"},{"name":"Abrazo","lat":37.79933,"lng":-122.41895,"kind":"restaurant","cuisine":"spanish"},{"name":"Swensen's Ice Cream","lat":37.79908,"lng":-122.41918,"kind":"cafe","cuisine":"ice cream"},{"name":"Lori's Diner","lat":37.78932,"lng":-122.40879,"kind":"restaurant","cuisine":"american"},{"name":"Starbucks","lat":37.78912,"lng":-122.40846,"kind":"cafe","cuisine":"coffee shop"},{"name":"Cassave Taqueria","lat":37.838,"lng":-122.28193,"kind":"restaurant","cuisine":"mexican"},{"name":"IHOP","lat":37.83257,"lng":-122.2806,"kind":"restaurant","cuisine":"breakfast"},{"name":"Los Cantaros Taquería","lat":37.83273,"lng":-122.28065,"kind":"restaurant","cuisine":"mexican"},{"name":"Starbucks","lat":37.83667,"lng":-122.29502,"kind":"cafe","cuisine":"coffee shop"},{"name":"P.F. Chang's","lat":37.83477,"lng":-122.29242,"kind":"restaurant","cuisine":"asian"},{"name":"Summer Summer Thai","lat":37.84106,"lng":-122.28995,"kind":"restaurant","cuisine":"thai"},{"name":"Starbucks","lat":37.77707,"lng":-122.41733,"kind":"cafe","cuisine":"coffee shop"},{"name":"Yogi Sushi House","lat":37.74732,"lng":-122.45945,"kind":"restaurant","cuisine":"sushi"},{"name":"Chouchou","lat":37.7474,"lng":-122.45934,"kind":"restaurant","cuisine":"french"},{"name":"Sapphire","lat":37.79393,"lng":-122.40078,"kind":"restaurant","cuisine":"asian"},{"name":"Tin","lat":37.78075,"lng":-122.4057,"kind":"restaurant","cuisine":"vietnamese"},{"name":"The Slice","lat":37.7676,"lng":-122.42968,"kind":"restaurant","cuisine":"pizza"},{"name":"Ironwoods","lat":37.79057,"lng":-122.45985,"kind":"restaurant","cuisine":"american"},{"name":"Koi Palace","lat":37.66606,"lng":-122.46664,"kind":"restaurant","cuisine":"chinese"},{"name":"Toast","lat":37.65178,"lng":-122.46776,"kind":"restaurant","cuisine":"sandwich"},{"name":"Mr. Fong's Noodle House","lat":37.65207,"lng":-122.46818,"kind":"restaurant","cuisine":"chinese"},{"name":"Great Wall","lat":37.6743,"lng":-122.47883,"kind":"restaurant","cuisine":"chinese"},{"name":"Round Table Pizza","lat":37.6742,"lng":-122.46529,"kind":"restaurant","cuisine":"pizza"},{"name":"Ono Hawaiian BBQ","lat":37.67191,"lng":-122.46442,"kind":"restaurant","cuisine":"barbecue"},{"name":"Kadok's","lat":37.67434,"lng":-122.47924,"kind":"restaurant","cuisine":"asian"},{"name":"Burma Cafe","lat":37.6744,"lng":-122.47936,"kind":"restaurant","cuisine":"burmese"},{"name":"Taqueria Maria","lat":37.68733,"lng":-122.47245,"kind":"restaurant","cuisine":"mexican"},{"name":"T.C. Pastry","lat":37.67439,"lng":-122.47947,"kind":"restaurant","cuisine":"chinese"},{"name":"Starbucks","lat":37.67132,"lng":-122.46421,"kind":"cafe","cuisine":"coffee shop"},{"name":"Taqueria Polanco","lat":37.67435,"lng":-122.46544,"kind":"restaurant","cuisine":"mexican"},{"name":"Souvenir Coffee","lat":37.79107,"lng":-122.41924,"kind":"cafe","cuisine":"coffee shop"},{"name":"Legion of Honor Café","lat":37.78456,"lng":-122.50115,"kind":"cafe","cuisine":"american"},{"name":"U Dessert Story","lat":37.76428,"lng":-122.43063,"kind":"cafe","cuisine":"dessert"},{"name":"Cafe Zoetrope","lat":37.79658,"lng":-122.40506,"kind":"restaurant","cuisine":"italian"},{"name":"Chutney","lat":37.78603,"lng":-122.41317,"kind":"restaurant","cuisine":"indian"},{"name":"Murales Wine Bar & Tapas","lat":37.76197,"lng":-122.41922,"kind":"restaurant","cuisine":"tapas"},{"name":"Stable Cafe","lat":37.76325,"lng":-122.41529,"kind":"cafe","cuisine":"coffee shop"},{"name":"Delancey Street Restaurant","lat":37.78451,"lng":-122.38844,"kind":"restaurant","cuisine":"american"},{"name":"Blue Bottle Coffee","lat":37.78705,"lng":-122.39888,"kind":"cafe","cuisine":"coffee shop"},{"name":"Pie Punks","lat":37.78752,"lng":-122.39894,"kind":"restaurant","cuisine":"pizza"},{"name":"Mehfil Indian Restaurant","lat":37.78814,"lng":-122.40018,"kind":"restaurant","cuisine":"indian"},{"name":"Caramba","lat":37.78824,"lng":-122.4003,"kind":"restaurant","cuisine":"mexican"},{"name":"Starbucks","lat":37.78869,"lng":-122.40088,"kind":"cafe","cuisine":"coffee shop"},{"name":"Cento","lat":37.77885,"lng":-122.39394,"kind":"cafe","cuisine":"coffee shop"},{"name":"Ciccino","lat":37.79112,"lng":-122.41761,"kind":"restaurant","cuisine":"italian"},{"name":"Doobu","lat":37.78604,"lng":-122.43002,"kind":"restaurant","cuisine":"korean"},{"name":"Yank Sing","lat":37.78986,"lng":-122.39929,"kind":"restaurant","cuisine":"chinese"},{"name":"Flywheel Coffee Roasters","lat":37.79147,"lng":-122.39947,"kind":"cafe","cuisine":"coffee shop"},{"name":"Kokkari Estiatorio","lat":37.79699,"lng":-122.39969,"kind":"restaurant","cuisine":"greek"},{"name":"Ravi","lat":37.79622,"lng":-122.40459,"kind":"restaurant","cuisine":"indian"},{"name":"Henry's Hunan Restaurant","lat":37.78696,"lng":-122.39928,"kind":"restaurant","cuisine":"chinese"},{"name":"Schroeder's Restaurant","lat":37.79391,"lng":-122.39876,"kind":"restaurant","cuisine":"german"},{"name":"Rico Mex","lat":37.78968,"lng":-122.39961,"kind":"restaurant","cuisine":"mexican"},{"name":"Amber India","lat":37.78592,"lng":-122.40467,"kind":"restaurant","cuisine":"indian"},{"name":"Local Diner","lat":37.77825,"lng":-122.41568,"kind":"restaurant","cuisine":"coffee shop"},{"name":"Escape from New York Pizza","lat":37.79076,"lng":-122.40288,"kind":"restaurant","cuisine":"pizza"},{"name":"Wok Shop Cafe","lat":37.78717,"lng":-122.42192,"kind":"restaurant","cuisine":"chinese"},{"name":"The Pot's","lat":37.76123,"lng":-122.49078,"kind":"restaurant","cuisine":"chinese"},{"name":"ABSteak","lat":37.78556,"lng":-122.40835,"kind":"restaurant","cuisine":"steak house"},{"name":"MintLeaf","lat":37.85328,"lng":-122.29164,"kind":"restaurant","cuisine":"vietnamese"},{"name":"Bouche","lat":37.79024,"lng":-122.40732,"kind":"restaurant","cuisine":"french"},{"name":"Subs, Inc.","lat":37.75118,"lng":-122.43426,"kind":"restaurant","cuisine":"sandwich"},{"name":"Dash","lat":37.7515,"lng":-122.43619,"kind":"restaurant","cuisine":"japanese"},{"name":"Barney's Gourmet Hamburgers","lat":37.75141,"lng":-122.43504,"kind":"restaurant","cuisine":"burger"},{"name":"Noe Indian Kitchen","lat":37.7513,"lng":-122.4356,"kind":"restaurant","cuisine":"indian"},{"name":"Bonita","lat":37.75125,"lng":-122.43327,"kind":"restaurant","cuisine":"mexican"},{"name":"Starbucks","lat":37.75132,"lng":-122.43168,"kind":"cafe","cuisine":"coffee shop"},{"name":"Saru","lat":37.75171,"lng":-122.42879,"kind":"restaurant","cuisine":"japanese"},{"name":"Novy","lat":37.75151,"lng":-122.43208,"kind":"restaurant","cuisine":"greek"},{"name":"Tung Sing Restaurant","lat":37.75131,"lng":-122.43233,"kind":"restaurant","cuisine":"chinese"},{"name":"Bernie's","lat":37.7516,"lng":-122.43117,"kind":"cafe","cuisine":"coffee shop"},{"name":"Pancake Boy","lat":37.75132,"lng":-122.43216,"kind":"restaurant","cuisine":"american"},{"name":"Hamano Sushi","lat":37.75079,"lng":-122.4342,"kind":"restaurant","cuisine":"japanese"},{"name":"Kabuto Restaurant","lat":37.78038,"lng":-122.47442,"kind":"restaurant","cuisine":"japanese"},{"name":"IHOP","lat":37.62535,"lng":-122.41393,"kind":"restaurant","cuisine":"breakfast"},{"name":"Starbucks","lat":37.70071,"lng":-122.48321,"kind":"cafe","cuisine":"coffee shop"},{"name":"Piccolo Italia","lat":37.7851,"lng":-122.41778,"kind":"restaurant","cuisine":"pizza"},{"name":"Genki Ramen","lat":37.7813,"lng":-122.46252,"kind":"restaurant","cuisine":"japanese"},{"name":"Ezzo Rotisserie","lat":37.75223,"lng":-122.42028,"kind":"restaurant","cuisine":"middle eastern"},{"name":"Muguboka","lat":37.77715,"lng":-122.46309,"kind":"restaurant","cuisine":"korean"},{"name":"Cantina Los Mayos","lat":37.77713,"lng":-122.46352,"kind":"restaurant","cuisine":"mexican"},{"name":"Burma Superstar","lat":37.78291,"lng":-122.46257,"kind":"restaurant","cuisine":"asian"},{"name":"Hong Kong Lounge","lat":37.78064,"lng":-122.47664,"kind":"restaurant","cuisine":"chinese"},{"name":"Mai's Vietnamese Restaurant","lat":37.78316,"lng":-122.46267,"kind":"restaurant","cuisine":"vietnamese"},{"name":"Pho De Nguyen","lat":37.77605,"lng":-122.40228,"kind":"restaurant","cuisine":"vietnamese"},{"name":"Round Table Pizza","lat":37.65583,"lng":-122.43246,"kind":"restaurant","cuisine":"pizza"},{"name":"Starbucks","lat":37.69735,"lng":-122.46297,"kind":"cafe","cuisine":"coffee shop"},{"name":"Tropisueño","lat":37.78543,"lng":-122.40408,"kind":"restaurant","cuisine":"mexican"},{"name":"Peet's Coffee","lat":37.73356,"lng":-122.4897,"kind":"cafe","cuisine":"coffee shop"},{"name":"King of Thai Noodles","lat":37.73357,"lng":-122.48955,"kind":"restaurant","cuisine":"thai"},{"name":"Lou's Cafe","lat":37.78043,"lng":-122.47328,"kind":"restaurant","cuisine":"sandwich"},{"name":"Sonamu","lat":37.78046,"lng":-122.48089,"kind":"restaurant","cuisine":"korean"},{"name":"B Star","lat":37.783,"lng":-122.46068,"kind":"restaurant","cuisine":"asian"},{"name":"Eats","lat":37.78327,"lng":-122.46002,"kind":"restaurant","cuisine":"american"},{"name":"Le Soleil","lat":37.78301,"lng":-122.46077,"kind":"restaurant","cuisine":"vietnamese"},{"name":"lily","lat":37.78296,"lng":-122.46171,"kind":"restaurant","cuisine":"vietnamese"},{"name":"Kitchen Istanbul","lat":37.78289,"lng":-122.4632,"kind":"restaurant","cuisine":"turkish"},{"name":"Gaspare's","lat":37.78054,"lng":-122.47913,"kind":"restaurant","cuisine":"italian"},{"name":"Gordo Taqueria","lat":37.78059,"lng":-122.47808,"kind":"restaurant","cuisine":"mexican"},{"name":"Volcano Curry of Japan","lat":37.78059,"lng":-122.47814,"kind":"restaurant","cuisine":"japanese"},{"name":"Caffè Bianco","lat":37.79005,"lng":-122.40119,"kind":"cafe","cuisine":"sandwich"},{"name":"Per Diem","lat":37.79004,"lng":-122.4013,"kind":"restaurant","cuisine":"italian"},{"name":"Taqueria Zorro","lat":37.79813,"lng":-122.40683,"kind":"restaurant","cuisine":"mexican"},{"name":"Yuubi Japanese Restaurant","lat":37.77709,"lng":-122.46419,"kind":"restaurant","cuisine":"japanese"},{"name":"Northern China BBQ","lat":37.77381,"lng":-122.41193,"kind":"restaurant","cuisine":"barbecue"},{"name":"Poggio","lat":37.85686,"lng":-122.48062,"kind":"restaurant","cuisine":"italian"},{"name":"Kippu","lat":37.78585,"lng":-122.43,"kind":"restaurant","cuisine":"sushi"},{"name":"Starbucks","lat":37.79676,"lng":-122.42212,"kind":"cafe","cuisine":"coffee shop"},{"name":"Donburi Ya","lat":37.78152,"lng":-122.39896,"kind":"restaurant","cuisine":"japanese"},{"name":"Chaat Corner","lat":37.78354,"lng":-122.39885,"kind":"restaurant","cuisine":"indian"},{"name":"Bocado","lat":37.78355,"lng":-122.39902,"kind":"restaurant","cuisine":"peruvian"},{"name":"Little Delhi","lat":37.78423,"lng":-122.4091,"kind":"restaurant","cuisine":"indian"},{"name":"Fang","lat":37.78582,"lng":-122.39972,"kind":"restaurant","cuisine":"chinese"},{"name":"Starbucks","lat":37.80533,"lng":-122.41508,"kind":"cafe","cuisine":"coffee shop"},{"name":"Bill's Place","lat":37.78194,"lng":-122.48418,"kind":"restaurant","cuisine":"burger"},{"name":"Starbucks","lat":37.77019,"lng":-122.4035,"kind":"cafe","cuisine":"coffee shop"},{"name":"Telescope Coffee","lat":37.77202,"lng":-122.40923,"kind":"cafe","cuisine":"coffee shop"},{"name":"Moya Cafe","lat":37.77604,"lng":-122.41413,"kind":"restaurant","cuisine":"ethiopian"},{"name":"L'ardoise Bistro","lat":37.7666,"lng":-122.4332,"kind":"restaurant","cuisine":"french"},{"name":"Dinosaurs","lat":37.76443,"lng":-122.43189,"kind":"restaurant","cuisine":"vietnamese"},{"name":"Bubble Queen","lat":37.77736,"lng":-122.39228,"kind":"cafe","cuisine":"bubble tea"},{"name":"E&O Kitchen and Bar","lat":37.78969,"lng":-122.40586,"kind":"restaurant","cuisine":"asian"},{"name":"Scott's Chowder House","lat":37.7902,"lng":-122.4054,"kind":"restaurant","cuisine":"seafood"},{"name":"Papalote Mexican Grill","lat":37.75199,"lng":-122.42105,"kind":"restaurant","cuisine":"mexican"},{"name":"Saffron Grill","lat":37.77679,"lng":-122.43772,"kind":"restaurant","cuisine":"indian"},{"name":"El Rancho Grande","lat":37.77756,"lng":-122.43849,"kind":"restaurant","cuisine":"mexican"},{"name":"Cha Cha Cha","lat":37.76923,"lng":-122.45202,"kind":"restaurant","cuisine":"caribbean"},{"name":"Ruby's Cafe","lat":37.84334,"lng":-122.29058,"kind":"cafe","cuisine":"breakfast"},{"name":"Chile Jalapeño","lat":37.84994,"lng":-122.28575,"kind":"restaurant","cuisine":"mexican"},{"name":"Juan's Place","lat":37.85759,"lng":-122.29108,"kind":"restaurant","cuisine":"mexican"},{"name":"Taco Rouge","lat":37.79614,"lng":-122.42198,"kind":"restaurant","cuisine":"mexican"},{"name":"The House of Hummus","lat":37.7822,"lng":-122.44798,"kind":"restaurant","cuisine":"mediterranean"},{"name":"Barista Coffee & Brunch","lat":37.77572,"lng":-122.44629,"kind":"cafe","cuisine":"coffee shop"},{"name":"Fish in the Box","lat":37.77387,"lng":-122.44591,"kind":"restaurant","cuisine":"japanese"},{"name":"Oz Pizza","lat":37.76062,"lng":-122.43517,"kind":"restaurant","cuisine":"pizza"},{"name":"Chome","lat":37.74875,"lng":-122.4214,"kind":"restaurant","cuisine":"japanese"},{"name":"Taqueria El Farolito","lat":37.75264,"lng":-122.41831,"kind":"restaurant","cuisine":"mexican"},{"name":"Presidio Yacht Club","lat":37.834,"lng":-122.47468,"kind":"restaurant","cuisine":"burger"},{"name":"DeliShack","lat":37.78212,"lng":-122.41717,"kind":"cafe","cuisine":"arab"},{"name":"Art's Cafe","lat":37.76393,"lng":-122.46602,"kind":"restaurant","cuisine":"korean"},{"name":"Uncle Boys","lat":37.77724,"lng":-122.46158,"kind":"restaurant","cuisine":"burger"},{"name":"Abu Salim Middle Eastern Grill","lat":37.76971,"lng":-122.44841,"kind":"restaurant","cuisine":"middle eastern"},{"name":"Buckhorn","lat":37.78394,"lng":-122.40283,"kind":"restaurant","cuisine":"barbecue"},{"name":"Aaha Indian Cuisine","lat":37.76351,"lng":-122.41999,"kind":"restaurant","cuisine":"indian"},{"name":"Raw Sugar Factory","lat":37.76439,"lng":-122.42199,"kind":"restaurant","cuisine":"thai"},{"name":"Super Duper Burger","lat":37.7928,"lng":-122.39416,"kind":"restaurant","cuisine":"burger"},{"name":"Yama Sushi","lat":37.72197,"lng":-122.46211,"kind":"restaurant","cuisine":"sushi"},{"name":"Brothers Pizza","lat":37.74164,"lng":-122.50514,"kind":"restaurant","cuisine":"pizza"},{"name":"Hakashi Japanese Sushi Bar & Grill","lat":37.78147,"lng":-122.39633,"kind":"restaurant","cuisine":"japanese"},{"name":"Big Bite Burgers & Beers","lat":37.75222,"lng":-122.42037,"kind":"restaurant","cuisine":"burger"},{"name":"Paprika","lat":37.75231,"lng":-122.41909,"kind":"restaurant","cuisine":"czech"},{"name":"Taqueria Guadalajara","lat":37.72131,"lng":-122.43754,"kind":"restaurant","cuisine":"mexican"},{"name":"Zabb Cuisine","lat":37.72658,"lng":-122.4336,"kind":"restaurant","cuisine":"thai"},{"name":"Zante Pizza & Indian Cuisine","lat":37.74114,"lng":-122.42259,"kind":"restaurant","cuisine":"pizza"},{"name":"Fiore Caffè","lat":37.75188,"lng":-122.42272,"kind":"restaurant","cuisine":"italian"},{"name":"The Salad Place & Rotisserie","lat":37.71378,"lng":-122.44376,"kind":"restaurant","cuisine":"sandwich"},{"name":"Old Jerusalem","lat":37.74951,"lng":-122.41836,"kind":"restaurant","cuisine":"middle eastern"},{"name":"Aditi","lat":37.75521,"lng":-122.42081,"kind":"restaurant","cuisine":"indian"},{"name":"Shaska","lat":37.74912,"lng":-122.41855,"kind":"cafe","cuisine":"peruvian"},{"name":"Diwali Indian Cuisine","lat":37.74902,"lng":-122.42021,"kind":"restaurant","cuisine":"indian"},{"name":"Yuet Lee Seafood Restaurant","lat":37.7978,"lng":-122.4085,"kind":"restaurant","cuisine":"chinese"},{"name":"Dim Sum Bistro","lat":37.79757,"lng":-122.40806,"kind":"restaurant","cuisine":"chinese"},{"name":"Taishan Specialty","lat":37.79847,"lng":-122.40893,"kind":"restaurant","cuisine":"chinese"},{"name":"Côte Ouest Bistro","lat":37.79834,"lng":-122.44608,"kind":"restaurant","cuisine":"french"},{"name":"Pazzia","lat":37.78333,"lng":-122.39814,"kind":"restaurant","cuisine":"italian"},{"name":"Little Garden","lat":37.79861,"lng":-122.40953,"kind":"restaurant","cuisine":"chinese"},{"name":"El Faro","lat":37.75902,"lng":-122.41454,"kind":"restaurant","cuisine":"mexican"},{"name":"Fuwa Dumpling","lat":37.77583,"lng":-122.49761,"kind":"restaurant","cuisine":"chinese"},{"name":"Kim Son","lat":37.77583,"lng":-122.4977,"kind":"restaurant","cuisine":"vietnamese"},{"name":"Flying Pig Bistro","lat":37.76632,"lng":-122.41742,"kind":"cafe","cuisine":"sandwich"},{"name":"Miss Saigon","lat":37.78078,"lng":-122.40873,"kind":"restaurant","cuisine":"vietnamese"},{"name":"Sushi Sheng","lat":37.73954,"lng":-122.4675,"kind":"restaurant","cuisine":"sushi"},{"name":"Flour + Water","lat":37.75893,"lng":-122.41238,"kind":"restaurant","cuisine":"italian"},{"name":"Heirloom Cafe","lat":37.75716,"lng":-122.41476,"kind":"restaurant","cuisine":"italian"},{"name":"BullsHead Restaurant","lat":37.74086,"lng":-122.46549,"kind":"restaurant","cuisine":"steak house"},{"name":"Fueling Station","lat":37.79931,"lng":-122.42231,"kind":"cafe","cuisine":"coffee shop"},{"name":"Réveille Coffee Co.","lat":37.79725,"lng":-122.40553,"kind":"cafe","cuisine":"coffee shop"},{"name":"The Station","lat":37.79721,"lng":-122.4052,"kind":"cafe","cuisine":"coffee shop"},{"name":"Matching Half Cafe","lat":37.7773,"lng":-122.44149,"kind":"cafe","cuisine":"coffee shop"},{"name":"Starbucks","lat":37.79774,"lng":-122.40106,"kind":"cafe","cuisine":"coffee shop"},{"name":"606","lat":37.79797,"lng":-122.40721,"kind":"restaurant","cuisine":"chinese"},{"name":"La Folie","lat":37.79808,"lng":-122.42204,"kind":"restaurant","cuisine":"french"},{"name":"Lemongrass","lat":37.79854,"lng":-122.42214,"kind":"restaurant","cuisine":"thai"},{"name":"Royal Ground Coffee","lat":37.79719,"lng":-122.4219,"kind":"cafe","cuisine":"cafe"},{"name":"Project Juice","lat":37.79773,"lng":-122.42227,"kind":"restaurant","cuisine":"juice"},{"name":"Peet's Coffee","lat":37.79654,"lng":-122.42212,"kind":"cafe","cuisine":"coffee shop"},{"name":"Tai Chi Restaurant","lat":37.7955,"lng":-122.42187,"kind":"restaurant","cuisine":"chinese"},{"name":"Rotten City Pizza","lat":37.84794,"lng":-122.29201,"kind":"restaurant","cuisine":"pizza"},{"name":"Church Street Cafe","lat":37.76643,"lng":-122.42904,"kind":"cafe","cuisine":"coffee shop"},{"name":"Thanh Tam II","lat":37.76372,"lng":-122.42161,"kind":"restaurant","cuisine":"vietnamese"},{"name":"Starbucks","lat":37.79023,"lng":-122.42207,"kind":"cafe","cuisine":"coffee shop"},{"name":"Cafe Okawari","lat":37.7782,"lng":-122.39385,"kind":"cafe","cuisine":"japanese"},{"name":"EA Cafe","lat":37.77857,"lng":-122.39218,"kind":"cafe","cuisine":"ice cream"},{"name":"Garaje","lat":37.78173,"lng":-122.39613,"kind":"restaurant","cuisine":"american"},{"name":"Marlowe","lat":37.77835,"lng":-122.3968,"kind":"restaurant","cuisine":"american"},{"name":"Old Skool Cafe","lat":37.73424,"lng":-122.39052,"kind":"cafe","cuisine":"american"},{"name":"The Sandwich Place","lat":37.76451,"lng":-122.41946,"kind":"restaurant","cuisine":"sandwich"},{"name":"Giola Pizzeria","lat":37.7764,"lng":-122.4258,"kind":"restaurant","cuisine":"pizza"},{"name":"Goat Hill Pizza","lat":37.7392,"lng":-122.4679,"kind":"restaurant","cuisine":"pizza"},{"name":"Starbucks","lat":37.76724,"lng":-122.3937,"kind":"cafe","cuisine":"coffee shop"},{"name":"Jolt and Bolt","lat":37.76008,"lng":-122.38822,"kind":"cafe","cuisine":"coffee shop"},{"name":"Starbucks","lat":37.65205,"lng":-122.40201,"kind":"cafe","cuisine":"coffee shop"},{"name":"Serpentine","lat":37.75806,"lng":-122.38816,"kind":"restaurant","cuisine":"californian"},{"name":"Poke Kana","lat":37.71774,"lng":-122.47392,"kind":"restaurant","cuisine":"sushi"},{"name":"Brochette Dumpling","lat":37.7181,"lng":-122.47426,"kind":"restaurant","cuisine":"chinese"},{"name":"Hall of Flame","lat":37.71763,"lng":-122.47382,"kind":"restaurant","cuisine":"burger"},{"name":"Taqueria Dos Charros","lat":37.71791,"lng":-122.47409,"kind":"restaurant","cuisine":"mexican"},{"name":"Trattoria da Vittorio","lat":37.73933,"lng":-122.46774,"kind":"restaurant","cuisine":"italian"},{"name":"Coffee Bodega","lat":37.7932,"lng":-122.39703,"kind":"cafe","cuisine":"coffee shop"},{"name":"Mixto Latin Cuisine","lat":37.76064,"lng":-122.50404,"kind":"restaurant","cuisine":"peruvian"},{"name":"La Tortilla","lat":37.76109,"lng":-122.43488,"kind":"restaurant","cuisine":"mexican"},{"name":"Marcello's Pizza","lat":37.7621,"lng":-122.43531,"kind":"restaurant","cuisine":"pizza"},{"name":"Tanglad","lat":37.76148,"lng":-122.43492,"kind":"restaurant","cuisine":"vietnamese"},{"name":"The Posh Bagel","lat":37.76116,"lng":-122.43489,"kind":"restaurant","cuisine":"bagel"},{"name":"Starbucks","lat":37.76101,"lng":-122.43466,"kind":"cafe","cuisine":"coffee shop"},{"name":"Wasabi Bistro","lat":37.76042,"lng":-122.43515,"kind":"restaurant","cuisine":"sushi"},{"name":"Philz Coffee","lat":37.7601,"lng":-122.43479,"kind":"cafe","cuisine":"coffee shop"},{"name":"Anchor Oyster Bar","lat":37.7597,"lng":-122.43475,"kind":"restaurant","cuisine":"seafood"},{"name":"The Sausage Factory","lat":37.76053,"lng":-122.43483,"kind":"restaurant","cuisine":"italian"},{"name":"Dumpling Kitchen","lat":37.76015,"lng":-122.43512,"kind":"restaurant","cuisine":"chinese"},{"name":"Thai House Express","lat":37.75941,"lng":-122.43472,"kind":"restaurant","cuisine":"thai"},{"name":"Home Plate","lat":37.79966,"lng":-122.43886,"kind":"restaurant","cuisine":"regional"},{"name":"Phat Thai","lat":37.79943,"lng":-122.44068,"kind":"restaurant","cuisine":"thai"},{"name":"SAJJ Mediterranean","lat":37.79164,"lng":-122.4038,"kind":"restaurant","cuisine":"mediterranean"},{"name":"Leleka","lat":37.79129,"lng":-122.40369,"kind":"restaurant","cuisine":"dumpling"},{"name":"Panchita's Pupuseria To-Go","lat":37.7647,"lng":-122.42172,"kind":"restaurant","cuisine":"salvadoran"},{"name":"Precita Social","lat":37.7467,"lng":-122.4134,"kind":"restaurant","cuisine":"american"},{"name":"The Garden Restaurant","lat":37.79482,"lng":-122.40474,"kind":"restaurant","cuisine":"chinese"},{"name":"Amici's East Coast Pizza","lat":37.79976,"lng":-122.43803,"kind":"restaurant","cuisine":"pizza"},{"name":"Original Buffalo Wings","lat":37.79886,"lng":-122.44239,"kind":"restaurant","cuisine":"fried food"},{"name":"Bean Bag Cafe","lat":37.77508,"lng":-122.43798,"kind":"cafe","cuisine":"coffee shop"},{"name":"Foreign Cinema","lat":37.75642,"lng":-122.41914,"kind":"restaurant","cuisine":"american"},{"name":"Réveille","lat":37.80038,"lng":-122.44089,"kind":"cafe","cuisine":"coffee shop"},{"name":"Naked Fish Sushi","lat":37.80078,"lng":-122.43793,"kind":"restaurant","cuisine":"sushi"},{"name":"Ristorante Parma","lat":37.80002,"lng":-122.43762,"kind":"restaurant","cuisine":"italian"},{"name":"Morella","lat":37.80067,"lng":-122.43648,"kind":"restaurant","cuisine":"italian"},{"name":"Nippon Curry","lat":37.80051,"lng":-122.43635,"kind":"restaurant","cuisine":"japanese"},{"name":"Pacific Catch","lat":37.80064,"lng":-122.4367,"kind":"restaurant","cuisine":"seafood"},{"name":"Ace Wasabi's","lat":37.80021,"lng":-122.43797,"kind":"restaurant","cuisine":"sushi"},{"name":"Bistro Aix","lat":37.80024,"lng":-122.43767,"kind":"restaurant","cuisine":"french"},{"name":"Indigo","lat":37.80005,"lng":-122.43792,"kind":"restaurant","cuisine":"modern american"},{"name":"St Francis Fountain","lat":37.75275,"lng":-122.40832,"kind":"restaurant","cuisine":"american"},{"name":"Asian Box","lat":37.80063,"lng":-122.43679,"kind":"restaurant","cuisine":"asian"},{"name":"Chestnut Diner","lat":37.80239,"lng":-122.42525,"kind":"restaurant","cuisine":"diner"},{"name":"Honeybear Boba","lat":37.75777,"lng":-122.38939,"kind":"cafe","cuisine":"bubble tea"},{"name":"Just For You","lat":37.75802,"lng":-122.3889,"kind":"restaurant","cuisine":"diner"},{"name":"Pokelife","lat":37.76702,"lng":-122.39401,"kind":"cafe","cuisine":"poke"},{"name":"Judahlicious","lat":37.76065,"lng":-122.50396,"kind":"restaurant","cuisine":"juice"},{"name":"Caffè Macaroni","lat":37.79614,"lng":-122.40443,"kind":"restaurant","cuisine":"italian"},{"name":"Fiorella Sunset","lat":37.76515,"lng":-122.46627,"kind":"restaurant","cuisine":"pizza"},{"name":"Izakaya Sozai","lat":37.76383,"lng":-122.47408,"kind":"restaurant","cuisine":"japanese"},{"name":"Pacific Catch","lat":37.76576,"lng":-122.4663,"kind":"restaurant","cuisine":"seafood"},{"name":"Mezze and Mooore II","lat":37.76399,"lng":-122.46471,"kind":"restaurant","cuisine":"lebanese"},{"name":"Starbucks","lat":37.7629,"lng":-122.41042,"kind":"cafe","cuisine":"coffee shop"},{"name":"Andersen Bakery","lat":37.77704,"lng":-122.41757,"kind":"cafe","cuisine":"sandwich"},{"name":"Blue Bottle Coffee","lat":37.77631,"lng":-122.42326,"kind":"cafe","cuisine":"coffee shop"},{"name":"Capital One 360 Café","lat":37.78877,"lng":-122.40383,"kind":"cafe","cuisine":"coffee shop"},{"name":"um.ma","lat":37.7655,"lng":-122.4663,"kind":"restaurant","cuisine":"japanese"},{"name":"K's Kitchen","lat":37.73137,"lng":-122.45238,"kind":"restaurant","cuisine":"sushi"},{"name":"Publico","lat":37.76903,"lng":-122.39058,"kind":"restaurant","cuisine":"mexican"},{"name":"Peasant Pies","lat":37.76905,"lng":-122.39015,"kind":"cafe","cuisine":"pie"},{"name":"Regent Thai","lat":37.74359,"lng":-122.42684,"kind":"restaurant","cuisine":"thai"},{"name":"Mercury Cafe","lat":37.77399,"lng":-122.42423,"kind":"cafe","cuisine":"coffee shop"},{"name":"RT Bistro","lat":37.77485,"lng":-122.42295,"kind":"restaurant","cuisine":"american"},{"name":"Lers Ros","lat":37.77694,"lng":-122.42166,"kind":"restaurant","cuisine":"thai"},{"name":"Patxi's Pizza","lat":37.77654,"lng":-122.4249,"kind":"restaurant","cuisine":"pizza"},{"name":"Taqueria Cancun","lat":37.76046,"lng":-122.4194,"kind":"restaurant","cuisine":"mexican"},{"name":"El Tepa","lat":37.7622,"lng":-122.41518,"kind":"restaurant","cuisine":"mexican"},{"name":"Waraku","lat":37.78583,"lng":-122.42877,"kind":"restaurant","cuisine":"ramen"},{"name":"Wasabi & Ginger","lat":37.79655,"lng":-122.42381,"kind":"restaurant","cuisine":"japanese"},{"name":"Eric's Chinese Restaurant","lat":37.74677,"lng":-122.42714,"kind":"restaurant","cuisine":"chinese"},{"name":"Dos Piñas","lat":37.76634,"lng":-122.40255,"kind":"restaurant","cuisine":"mexican"},{"name":"STK Steakhouse","lat":37.79331,"lng":-122.39372,"kind":"restaurant","cuisine":"steak house"},{"name":"Grove To-Go","lat":37.78647,"lng":-122.40203,"kind":"cafe","cuisine":"coffee shop"},{"name":"Pasta Supply Co","lat":37.78321,"lng":-122.46177,"kind":"restaurant","cuisine":"italian"},{"name":"Basil Thai Resaurant & Bar","lat":37.77541,"lng":-122.40932,"kind":"restaurant","cuisine":"thai"},{"name":"Gallardo's","lat":37.76217,"lng":-122.41597,"kind":"restaurant","cuisine":"mexican"},{"name":"Kasa","lat":37.78953,"lng":-122.42034,"kind":"restaurant","cuisine":"indian"},{"name":"Dolores Park Cafe","lat":37.76133,"lng":-122.42582,"kind":"cafe","cuisine":"coffee shop"},{"name":"Pasquale's","lat":37.76422,"lng":-122.46547,"kind":"restaurant","cuisine":"italian"},{"name":"Joe & The Juice","lat":37.79049,"lng":-122.39952,"kind":"cafe","cuisine":"coffee shop"},{"name":"Starbucks","lat":37.79131,"lng":-122.39228,"kind":"cafe","cuisine":"coffee shop"},{"name":"Dumpling Kitchen","lat":37.75145,"lng":-122.43005,"kind":"restaurant","cuisine":"chinese"},{"name":"Santeria","lat":37.76495,"lng":-122.43188,"kind":"restaurant","cuisine":"mexican"},{"name":"CyBelles Pizza","lat":37.68706,"lng":-122.46987,"kind":"restaurant","cuisine":"pizza"},{"name":"Ingredients","lat":37.75019,"lng":-122.42746,"kind":"restaurant","cuisine":"fusion"},{"name":"Taqueria Miraloma","lat":37.74384,"lng":-122.45372,"kind":"restaurant","cuisine":"mexican"},{"name":"Round Table Pizza","lat":37.74394,"lng":-122.45361,"kind":"restaurant","cuisine":"pizza"},{"name":"Taqueria Los Altos","lat":37.75174,"lng":-122.41858,"kind":"restaurant","cuisine":"mexican"},{"name":"Mr. Pickle's Sandwich Shop","lat":37.75889,"lng":-122.41674,"kind":"restaurant","cuisine":"sandwich"},{"name":"Pizza Hacker","lat":37.74412,"lng":-122.42067,"kind":"restaurant","cuisine":"pizza"},{"name":"Blue Plate","lat":37.74516,"lng":-122.42035,"kind":"restaurant","cuisine":"american"},{"name":"Sweet Basil Thai Cuisine","lat":37.74521,"lng":-122.41997,"kind":"restaurant","cuisine":"thai"},{"name":"Alice's","lat":37.74369,"lng":-122.42878,"kind":"restaurant","cuisine":"chinese"},{"name":"Starbucks","lat":37.60295,"lng":-122.39464,"kind":"cafe","cuisine":"coffee shop"},{"name":"Beloved Cafe","lat":37.7523,"lng":-122.41927,"kind":"cafe","cuisine":"coffee shop"},{"name":"Salmon Bar","lat":37.76491,"lng":-122.42449,"kind":"restaurant","cuisine":"seafood"},{"name":"San Wang Restaurant","lat":37.78574,"lng":-122.42934,"kind":"restaurant","cuisine":"chinese"},{"name":"Club Waziema","lat":37.77463,"lng":-122.4379,"kind":"restaurant","cuisine":"ethiopian"},{"name":"SF Grill","lat":37.76021,"lng":-122.42131,"kind":"restaurant","cuisine":"middle eastern"},{"name":"The Ice Cream Bar","lat":37.76646,"lng":-122.45025,"kind":"cafe","cuisine":"ice cream"},{"name":"Nopalito","lat":37.7734,"lng":-122.43904,"kind":"restaurant","cuisine":"mexican"},{"name":"Underdogs Tres","lat":37.76542,"lng":-122.46629,"kind":"restaurant","cuisine":"mexican"},{"name":"Wen Chang Dumplings","lat":37.77679,"lng":-122.47679,"kind":"restaurant","cuisine":"asian"},{"name":"Han Il Kwan","lat":37.77676,"lng":-122.47828,"kind":"restaurant","cuisine":"korean"},{"name":"Pizzetta 211","lat":37.78371,"lng":-122.483,"kind":"restaurant","cuisine":"pizza"},{"name":"Pagan","lat":37.78151,"lng":-122.4933,"kind":"restaurant","cuisine":"burmese"},{"name":"Oyaji","lat":37.78152,"lng":-122.49288,"kind":"restaurant","cuisine":"sushi"},{"name":"Pacific Cafe","lat":37.77984,"lng":-122.49459,"kind":"restaurant","cuisine":"seafood"},{"name":"Frisco Flavor","lat":37.7521,"lng":-122.41921,"kind":"restaurant","cuisine":"mexican"},{"name":"Saap Ver","lat":37.76998,"lng":-122.403,"kind":"restaurant","cuisine":"thai"},{"name":"Good Good Culture Club","lat":37.76173,"lng":-122.42295,"kind":"restaurant","cuisine":"hawaiian"},{"name":"Ham and Cheese Deli","lat":37.78416,"lng":-122.47659,"kind":"cafe","cuisine":"sandwich"},{"name":"Cup of Joy","lat":37.78851,"lng":-122.4151,"kind":"cafe","cuisine":"coffee shop"},{"name":"Jane On Larkin","lat":37.78648,"lng":-122.41834,"kind":"cafe","cuisine":"coffee shop"},{"name":"SFSU Station Cafe","lat":37.72158,"lng":-122.47562,"kind":"cafe","cuisine":"sandwich"},{"name":"Street Taco","lat":37.76421,"lng":-122.46559,"kind":"restaurant","cuisine":"mexican"},{"name":"Peet's Coffee","lat":37.72167,"lng":-122.47814,"kind":"cafe","cuisine":"coffee shop"},{"name":"Nabe","lat":37.76354,"lng":-122.46643,"kind":"restaurant","cuisine":"japanese"},{"name":"Posh Bagel","lat":37.7642,"lng":-122.46594,"kind":"cafe","cuisine":"bagel"},{"name":"Out There Coffee Roasters","lat":37.77193,"lng":-122.43032,"kind":"cafe","cuisine":"coffee shop"},{"name":"Robin's Cafe","lat":37.76351,"lng":-122.41638,"kind":"cafe","cuisine":"coffee shop"},{"name":"Nizario's","lat":37.72209,"lng":-122.47866,"kind":"restaurant","cuisine":"pizza"},{"name":"BroomBush Cafe","lat":37.85679,"lng":-122.28797,"kind":"cafe","cuisine":"diner"},{"name":"La Iguana Azul","lat":37.73173,"lng":-122.44899,"kind":"restaurant","cuisine":"mexican"},{"name":"Native Burger","lat":37.78162,"lng":-122.45606,"kind":"restaurant","cuisine":"burger"},{"name":"The Mill","lat":37.77646,"lng":-122.43791,"kind":"cafe","cuisine":"coffee shop"},{"name":"Brasa Bros","lat":37.75705,"lng":-122.41651,"kind":"restaurant","cuisine":"peruvian"},{"name":"The Bureau 510","lat":37.84011,"lng":-122.28918,"kind":"restaurant","cuisine":"burger"},{"name":"Bravado","lat":37.77878,"lng":-122.39133,"kind":"cafe","cuisine":"coffee shop"},{"name":"Salito's Crab House and Prime Rib","lat":37.85978,"lng":-122.48538,"kind":"restaurant","cuisine":"seafood"},{"name":"Perry's","lat":37.79295,"lng":-122.39212,"kind":"restaurant","cuisine":"american"},{"name":"Angler","lat":37.79308,"lng":-122.39218,"kind":"restaurant","cuisine":"seafood"},{"name":"Amarena","lat":37.79796,"lng":-122.42034,"kind":"restaurant","cuisine":"italian"},{"name":"Special Xtra","lat":37.78853,"lng":-122.39815,"kind":"cafe","cuisine":"coffee shop"},{"name":"Local Kitchen & Wine Merchant","lat":37.78689,"lng":-122.39419,"kind":"restaurant","cuisine":"italian"},{"name":"Elsy's","lat":37.75082,"lng":-122.41818,"kind":"restaurant","cuisine":"salvadoran"},{"name":"Red Cafe","lat":37.75073,"lng":-122.41845,"kind":"restaurant","cuisine":"american"},{"name":"SAJJ Mediterranean","lat":37.7813,"lng":-122.39167,"kind":"restaurant","cuisine":"mediterranean"},{"name":"Yakiniku Shodai","lat":37.77622,"lng":-122.41829,"kind":"restaurant","cuisine":"japanese"},{"name":"All Star Cafe","lat":37.77522,"lng":-122.41952,"kind":"cafe","cuisine":"coffee shop"},{"name":"Chicano Nuevo","lat":37.74301,"lng":-122.4214,"kind":"restaurant","cuisine":"mexican"},{"name":"Swiss Louis","lat":37.81017,"lng":-122.41071,"kind":"restaurant","cuisine":"italian"},{"name":"Sausalito Gourmet Delicatessen","lat":37.85918,"lng":-122.48677,"kind":"restaurant","cuisine":"deli"},{"name":"Papito","lat":37.76245,"lng":-122.39711,"kind":"restaurant","cuisine":"mexican"},{"name":"Chez Maman East","lat":37.76248,"lng":-122.39668,"kind":"restaurant","cuisine":"french"},{"name":"Sextant Coffee Roasters","lat":37.7725,"lng":-122.413,"kind":"cafe","cuisine":"coffee shop"},{"name":"The Big Four","lat":37.79149,"lng":-122.41226,"kind":"restaurant","cuisine":"american"},{"name":"El Capitan Taqueria","lat":37.77517,"lng":-122.41007,"kind":"restaurant","cuisine":"mexican"},{"name":"Haystack Pizza Italian Restaurant","lat":37.7515,"lng":-122.42921,"kind":"restaurant","cuisine":"italian"},{"name":"La Boulangerie de San Francisco","lat":37.75167,"lng":-122.42953,"kind":"cafe","cuisine":"french"},{"name":"Martha & Bros. Coffee Co.","lat":37.75171,"lng":-122.4287,"kind":"cafe","cuisine":"coffee shop"},{"name":"Stone Korean Kitchen","lat":37.7954,"lng":-122.39587,"kind":"restaurant","cuisine":"korean"},{"name":"La Ciccia","lat":37.742,"lng":-122.42666,"kind":"restaurant","cuisine":"italian"},{"name":"Caffè Greco","lat":37.79896,"lng":-122.4085,"kind":"cafe","cuisine":"coffee shop"},{"name":"4505 Burgers & BBQ","lat":37.7762,"lng":-122.43824,"kind":"restaurant","cuisine":"barbecue"},{"name":"The Stinking Rose","lat":37.79905,"lng":-122.40817,"kind":"restaurant","cuisine":"italian"},{"name":"Sausalito Equator","lat":37.85904,"lng":-122.48523,"kind":"cafe","cuisine":"coffee shop"},{"name":"Starbucks","lat":37.78956,"lng":-122.3976,"kind":"cafe","cuisine":"coffee shop"},{"name":"Taqueria Guadalajara","lat":37.75256,"lng":-122.41501,"kind":"restaurant","cuisine":"mexican"},{"name":"Pizza Hut","lat":37.64718,"lng":-122.42899,"kind":"restaurant","cuisine":"pizza"},{"name":"Bon, nene","lat":37.75758,"lng":-122.4116,"kind":"restaurant","cuisine":"japanese"},{"name":"Kama Sushi","lat":37.74703,"lng":-122.42685,"kind":"restaurant","cuisine":"japanese"},{"name":"Big Chef Tom's Belly Burgers","lat":37.77249,"lng":-122.41649,"kind":"restaurant","cuisine":"burger"},{"name":"Koo","lat":37.76436,"lng":-122.46244,"kind":"restaurant","cuisine":"japanese"},{"name":"Perilla","lat":37.76414,"lng":-122.46713,"kind":"restaurant","cuisine":"vietnamese"},{"name":"Applebee's","lat":37.80803,"lng":-122.41561,"kind":"restaurant","cuisine":"american"},{"name":"CDXX","lat":37.72546,"lng":-122.39452,"kind":"restaurant","cuisine":"regional"},{"name":"Bamboo Asia","lat":37.78976,"lng":-122.40229,"kind":"restaurant","cuisine":"asian"},{"name":"Irma's Pampagna Restaurant","lat":37.76505,"lng":-122.41767,"kind":"restaurant","cuisine":"filipino"},{"name":"Earth's Coffee","lat":37.78162,"lng":-122.45571,"kind":"cafe","cuisine":"coffee shop"},{"name":"Cup & Cake Cafe","lat":37.78156,"lng":-122.45682,"kind":"cafe","cuisine":"coffee shop"},{"name":"Mel's Drive-In","lat":37.78116,"lng":-122.45491,"kind":"restaurant","cuisine":"american"},{"name":"Z & Y Restaurant","lat":37.79601,"lng":-122.40605,"kind":"restaurant","cuisine":"chinese"},{"name":"Great Eastern Restaurant","lat":37.79603,"lng":-122.40595,"kind":"restaurant","cuisine":"chinese"},{"name":"Turtle Tower","lat":37.78398,"lng":-122.41785,"kind":"restaurant","cuisine":"vietnamese"},{"name":"Little Chihuahua","lat":37.7637,"lng":-122.42141,"kind":"restaurant","cuisine":"mexican"},{"name":"Taylor Street Coffee Shop","lat":37.78569,"lng":-122.41142,"kind":"restaurant","cuisine":"american"},{"name":"Twin Peaks Pizza","lat":37.74399,"lng":-122.42659,"kind":"restaurant","cuisine":"pizza"},{"name":"Kawanoya","lat":37.74391,"lng":-122.42658,"kind":"restaurant","cuisine":"japanese"},{"name":"Cafe Francisco","lat":37.80472,"lng":-122.41194,"kind":"cafe","cuisine":"sandwich"},{"name":"Yank Sing","lat":37.79259,"lng":-122.39304,"kind":"restaurant","cuisine":"chinese"},{"name":"Hong Kong Clay Pot Restaurant","lat":37.79587,"lng":-122.40654,"kind":"restaurant","cuisine":"chinese"},{"name":"La Taqueria","lat":37.75087,"lng":-122.41816,"kind":"restaurant","cuisine":"mexican"},{"name":"Esperpento","lat":37.75523,"lng":-122.4207,"kind":"restaurant","cuisine":"spanish"},{"name":"Henry's Hunan Restaurant","lat":37.74341,"lng":-122.42683,"kind":"restaurant","cuisine":"chinese"},{"name":"Oki Sushi","lat":37.74311,"lng":-122.4268,"kind":"restaurant","cuisine":"sushi"},{"name":"Damansara","lat":37.74247,"lng":-122.42642,"kind":"restaurant","cuisine":"malaysian"},{"name":"Una Pizza Napoletana","lat":37.77287,"lng":-122.41555,"kind":"restaurant","cuisine":"pizza"},{"name":"Punjab Kabab House","lat":37.78422,"lng":-122.40946,"kind":"restaurant","cuisine":"indian"},{"name":"Old Mandarin Islamic Restaurant","lat":37.73833,"lng":-122.5007,"kind":"restaurant","cuisine":"mandarin"},{"name":"King of Noodles","lat":37.7635,"lng":-122.47573,"kind":"restaurant","cuisine":"chinese"},{"name":"dragoneats","lat":37.78641,"lng":-122.39541,"kind":"restaurant","cuisine":"vietnamese"},{"name":"Absinthe Brasserie & Bar","lat":37.77704,"lng":-122.42285,"kind":"restaurant","cuisine":"french"},{"name":"La Boulangerie","lat":37.77678,"lng":-122.42478,"kind":"cafe","cuisine":"french"},{"name":"Oasis Grill","lat":37.7893,"lng":-122.39727,"kind":"restaurant","cuisine":"mediterranean"},{"name":"La Costa Restaurant","lat":37.71458,"lng":-122.44286,"kind":"restaurant","cuisine":"mexican"},{"name":"Bloomstock","lat":37.72836,"lng":-122.3941,"kind":"cafe","cuisine":"coffee shop"},{"name":"United Dumplings","lat":37.80066,"lng":-122.43659,"kind":"restaurant","cuisine":"chinese"},{"name":"Toma Mexican Restaurant","lat":37.80004,"lng":-122.43763,"kind":"restaurant","cuisine":"mexican"},{"name":"Bonita Taqueria Y Rotisserie","lat":37.80018,"lng":-122.44046,"kind":"restaurant","cuisine":"mexican"},{"name":"A16","lat":37.79996,"lng":-122.4421,"kind":"restaurant","cuisine":"italian"},{"name":"Mamacita","lat":37.80004,"lng":-122.44149,"kind":"restaurant","cuisine":"mexican"},{"name":"Mezes Kitchen & Wine Bar","lat":37.79993,"lng":-122.44238,"kind":"restaurant","cuisine":"greek"},{"name":"Tam's Cuisine of China","lat":37.64956,"lng":-122.49198,"kind":"restaurant","cuisine":"chinese"},{"name":"Rosalind Bakery","lat":37.65068,"lng":-122.49181,"kind":"cafe","cuisine":"coffee shop"},{"name":"The Green Enchilada","lat":37.65089,"lng":-122.49179,"kind":"restaurant","cuisine":"mexican"},{"name":"Camelot Fish & Chips","lat":37.64921,"lng":-122.49198,"kind":"restaurant","cuisine":"seafood"},{"name":"Moonraker","lat":37.60991,"lng":-122.49681,"kind":"restaurant","cuisine":"seafood"},{"name":"Taqueria Mana","lat":37.79011,"lng":-122.40724,"kind":"restaurant","cuisine":"mexican"},{"name":"Uncle Vito's Pizzeria","lat":37.79025,"lng":-122.40897,"kind":"restaurant","cuisine":"italian"},{"name":"Starbucks","lat":37.78933,"lng":-122.40681,"kind":"cafe","cuisine":"coffee shop"},{"name":"The Cheesecake Factory","lat":37.7873,"lng":-122.40746,"kind":"restaurant","cuisine":"american"},{"name":"Salty's","lat":37.7824,"lng":-122.42049,"kind":"restaurant","cuisine":"sandwich"},{"name":"The CAVALIER","lat":37.78336,"lng":-122.40693,"kind":"restaurant","cuisine":"international"},{"name":"SOMA Restaurant & Bar","lat":37.78294,"lng":-122.40651,"kind":"restaurant","cuisine":"mediterranean"},{"name":"Mariposas","lat":37.7838,"lng":-122.40489,"kind":"restaurant","cuisine":"peruvian"},{"name":"Heytea","lat":37.78388,"lng":-122.40326,"kind":"cafe","cuisine":"bubble tea"},{"name":"Peet's Coffee","lat":37.78599,"lng":-122.40503,"kind":"cafe","cuisine":"coffee shop"},{"name":"Hollow","lat":37.76361,"lng":-122.47343,"kind":"cafe","cuisine":"coffee shop"},{"name":"pàng","lat":37.76377,"lng":-122.46646,"kind":"restaurant","cuisine":"chinese"},{"name":"Goldenette","lat":37.79161,"lng":-122.42107,"kind":"restaurant","cuisine":"american"},{"name":"Beanery","lat":37.76381,"lng":-122.46646,"kind":"cafe","cuisine":"coffee shop"},{"name":"Lush Gelato","lat":37.79365,"lng":-122.42147,"kind":"restaurant","cuisine":"gelato"},{"name":"Viva Italiano Pizzeria","lat":37.65128,"lng":-122.49178,"kind":"restaurant","cuisine":"italian"},{"name":"Redeye Grill","lat":37.65086,"lng":-122.49179,"kind":"restaurant","cuisine":"mediterranean"},{"name":"Dirty Habit","lat":37.78523,"lng":-122.40574,"kind":"restaurant","cuisine":"american"},{"name":"California Pizza Kitchen","lat":37.78689,"lng":-122.4026,"kind":"restaurant","cuisine":"pizza"},{"name":"Souvla","lat":37.7765,"lng":-122.42496,"kind":"restaurant","cuisine":"greek"},{"name":"Cafe In The Park","lat":37.72434,"lng":-122.48414,"kind":"cafe","cuisine":"international"},{"name":"Menya Kanemaru","lat":37.77035,"lng":-122.42261,"kind":"restaurant","cuisine":"japanese"},{"name":"Pizza Zone N Grill","lat":37.77029,"lng":-122.4226,"kind":"restaurant","cuisine":"pizza"},{"name":"Pacifica Thai Cuisine","lat":37.63418,"lng":-122.49034,"kind":"restaurant","cuisine":"thai"},{"name":"Guerrero's Tacqueria","lat":37.61329,"lng":-122.48672,"kind":"restaurant","cuisine":"mexican"},{"name":"Fiorella","lat":37.75148,"lng":-122.43288,"kind":"restaurant","cuisine":"italian"},{"name":"Pieology Pizzeria","lat":37.66807,"lng":-122.46847,"kind":"restaurant","cuisine":"pizza"},{"name":"Papa's Kitchen","lat":37.7694,"lng":-122.45088,"kind":"restaurant","cuisine":"asian"},{"name":"Beanery","lat":37.76426,"lng":-122.46439,"kind":"cafe","cuisine":"coffee shop"},{"name":"Cafe Rain Tree","lat":37.76424,"lng":-122.46511,"kind":"restaurant","cuisine":"american"},{"name":"Sunset Indian Cusine","lat":37.76425,"lng":-122.46491,"kind":"restaurant","cuisine":"indian"},{"name":"Harbor Villa Restaurant","lat":37.74372,"lng":-122.43943,"kind":"restaurant","cuisine":"chinese"},{"name":"Firehouse Pizzeria","lat":37.78368,"lng":-122.48192,"kind":"restaurant","cuisine":"pizza"},{"name":"Peet's Coffee","lat":37.74033,"lng":-122.46661,"kind":"cafe","cuisine":"coffee shop"},{"name":"Bursa","lat":37.74027,"lng":-122.46667,"kind":"restaurant","cuisine":"mediterranean"},{"name":"Elena's","lat":37.73839,"lng":-122.46831,"kind":"restaurant","cuisine":"mexican"},{"name":"El Toreador","lat":37.74037,"lng":-122.46657,"kind":"restaurant","cuisine":"mexican"},{"name":"Copper Chimney Indian Restaurant","lat":37.78164,"lng":-122.39602,"kind":"restaurant","cuisine":"indian"},{"name":"Clay Oven","lat":37.73667,"lng":-122.47029,"kind":"restaurant","cuisine":"indian"},{"name":"Franco's Latin Table","lat":37.74064,"lng":-122.46629,"kind":"restaurant","cuisine":"latin american"},{"name":"Suki Sushi","lat":37.73741,"lng":-122.47013,"kind":"restaurant","cuisine":"japanese"},{"name":"Pop's Sandwich Shop","lat":37.74396,"lng":-122.45359,"kind":"restaurant","cuisine":"sandwich"},{"name":"Starbucks","lat":37.74464,"lng":-122.45267,"kind":"cafe","cuisine":"coffee shop"},{"name":"Manzoni","lat":37.73476,"lng":-122.43391,"kind":"restaurant","cuisine":"italian"},{"name":"Spiazzo","lat":37.74041,"lng":-122.46601,"kind":"restaurant","cuisine":"italian"},{"name":"Tennessee Grill","lat":37.74305,"lng":-122.47835,"kind":"restaurant","cuisine":"breakfast"},{"name":"Made in China","lat":37.74284,"lng":-122.47739,"kind":"restaurant","cuisine":"chinese"},{"name":"Smile House Cafe","lat":37.74311,"lng":-122.47737,"kind":"restaurant","cuisine":"chinese"},{"name":"Happy Family Gourmet","lat":37.7431,"lng":-122.4775,"kind":"restaurant","cuisine":"chinese"},{"name":"Quickly","lat":37.7431,"lng":-122.47765,"kind":"cafe","cuisine":"bubble tea"},{"name":"New Taraval Cafe","lat":37.7431,"lng":-122.47771,"kind":"restaurant","cuisine":"breakfast"},{"name":"Banhwich","lat":37.74283,"lng":-122.4781,"kind":"restaurant","cuisine":"vietnamese"},{"name":"Omakase","lat":37.77066,"lng":-122.40289,"kind":"restaurant","cuisine":"sushi"},{"name":"Ben Tre","lat":37.65579,"lng":-122.41229,"kind":"restaurant","cuisine":"vietnamese"},{"name":"Dumpling Time","lat":37.76968,"lng":-122.40233,"kind":"restaurant","cuisine":"chinese"},{"name":"i'a poke","lat":37.77021,"lng":-122.40225,"kind":"cafe","cuisine":"sushi"},{"name":"Manora`s Thai Cuisine","lat":37.77085,"lng":-122.41521,"kind":"restaurant","cuisine":"thai"},{"name":"Eat Sushi","lat":37.77174,"lng":-122.41443,"kind":"restaurant","cuisine":"sushi"},{"name":"The Willows","lat":37.77109,"lng":-122.41505,"kind":"restaurant","cuisine":"american"},{"name":"Basil Canteen","lat":37.77188,"lng":-122.41378,"kind":"restaurant","cuisine":"thai"},{"name":"Elephant Sushi","lat":37.79865,"lng":-122.41881,"kind":"restaurant","cuisine":"sushi"},{"name":"Frascati","lat":37.79837,"lng":-122.41903,"kind":"restaurant","cuisine":"mediterranean"},{"name":"Hardwood Bar & Smokery","lat":37.77051,"lng":-122.40473,"kind":"restaurant","cuisine":"barbecue"},{"name":"Lazy Susan","lat":37.74059,"lng":-122.46546,"kind":"restaurant","cuisine":"chinese"},{"name":"Roti India Bistro","lat":37.74018,"lng":-122.46624,"kind":"restaurant","cuisine":"indian"},{"name":"Snow Bliss Cafe","lat":37.73847,"lng":-122.46876,"kind":"restaurant","cuisine":"chinese"},{"name":"Khao Tiew","lat":37.74106,"lng":-122.46502,"kind":"restaurant","cuisine":"thai"},{"name":"StreetTaco","lat":37.77657,"lng":-122.41492,"kind":"restaurant","cuisine":"mexican"},{"name":"Cordon Bleu","lat":37.79079,"lng":-122.42024,"kind":"restaurant","cuisine":"vietnamese"},{"name":"Turquaz","lat":37.77775,"lng":-122.41314,"kind":"restaurant","cuisine":"turkish"},{"name":"Mourad","lat":37.78687,"lng":-122.40003,"kind":"restaurant","cuisine":"moroccan"},{"name":"SOMA Eats","lat":37.78684,"lng":-122.39857,"kind":"cafe","cuisine":"american"},{"name":"Chalos","lat":37.74252,"lng":-122.49036,"kind":"cafe","cuisine":"empanada"},{"name":"Golden Lotus","lat":37.78383,"lng":-122.41779,"kind":"restaurant","cuisine":"vietnamese"},{"name":"Pho 2000","lat":37.78388,"lng":-122.4178,"kind":"restaurant","cuisine":"vietnamese"},{"name":"Los 3 Cachanillas","lat":37.78412,"lng":-122.41786,"kind":"restaurant","cuisine":"mexican"},{"name":"Hoa Phat","lat":37.78399,"lng":-122.41753,"kind":"restaurant","cuisine":"vietnamese"},{"name":"Spiral","lat":37.62732,"lng":-122.41639,"kind":"restaurant","cuisine":"japanese"},{"name":"Manna Korean Cuisine","lat":37.76388,"lng":-122.46725,"kind":"restaurant","cuisine":"korean"},{"name":"Qing Shu","lat":37.76415,"lng":-122.46671,"kind":"restaurant","cuisine":"chinese"},{"name":"Rose Indian Cusine","lat":37.76345,"lng":-122.46617,"kind":"restaurant","cuisine":"indian"},{"name":"Snowbird Coffee","lat":37.76307,"lng":-122.46613,"kind":"cafe","cuisine":"coffee shop"},{"name":"Mahalo!","lat":37.76267,"lng":-122.4661,"kind":"restaurant","cuisine":"asian"},{"name":"Zentarou Sushi & Sake Bar","lat":37.76262,"lng":-122.4661,"kind":"restaurant","cuisine":"sushi"},{"name":"Ushi Taro","lat":37.76256,"lng":-122.46609,"kind":"restaurant","cuisine":"ramen"},{"name":"Morning Vibes Cafe & Deli","lat":37.76241,"lng":-122.46607,"kind":"cafe","cuisine":"coffee shop"},{"name":"KoThai Republic","lat":37.76232,"lng":-122.46607,"kind":"restaurant","cuisine":"thai"},{"name":"New Eritrean Restaurant & Bar","lat":37.76385,"lng":-122.46767,"kind":"restaurant","cuisine":"eritrean"},{"name":"Pure Cane Juice Company","lat":37.76389,"lng":-122.46705,"kind":"cafe","cuisine":"bubble tea"},{"name":"Sriracha Thai Cuisine","lat":37.76364,"lng":-122.46645,"kind":"restaurant","cuisine":"thai"},{"name":"Cybelle's Front Room","lat":37.76244,"lng":-122.46636,"kind":"restaurant","cuisine":"regional"},{"name":"Sushi Kazu","lat":37.76389,"lng":-122.46711,"kind":"restaurant","cuisine":"japanese"},{"name":"Masala Dosa","lat":37.76265,"lng":-122.46637,"kind":"restaurant","cuisine":"indian"},{"name":"Donut World","lat":37.76231,"lng":-122.46634,"kind":"cafe","cuisine":"donut"},{"name":"iL cilentano","lat":37.80014,"lng":-122.41021,"kind":"restaurant","cuisine":"italian"},{"name":"Plow","lat":37.76253,"lng":-122.39539,"kind":"restaurant","cuisine":"regional"},{"name":"Picaro","lat":37.76501,"lng":-122.4225,"kind":"restaurant","cuisine":"spanish"},{"name":"Holy Crepe","lat":37.76395,"lng":-122.46552,"kind":"restaurant","cuisine":"crepe"},{"name":"Poke Origin","lat":37.76421,"lng":-122.46565,"kind":"cafe","cuisine":"poke"},{"name":"Nan King Road Bistro","lat":37.7629,"lng":-122.46611,"kind":"restaurant","cuisine":"chinese"},{"name":"Hing Wang Bakery","lat":37.76206,"lng":-122.46585,"kind":"restaurant","cuisine":"chinese"},{"name":"Flour + Water Pizzeria","lat":37.80005,"lng":-122.40958,"kind":"restaurant","cuisine":"italian"},{"name":"Jasmine Thai Blossom Cuisine","lat":37.84713,"lng":-122.29147,"kind":"restaurant","cuisine":"thai"},{"name":"Los Moles","lat":37.84695,"lng":-122.2914,"kind":"restaurant","cuisine":"mexican"},{"name":"Starbucks","lat":37.84659,"lng":-122.29161,"kind":"cafe","cuisine":"coffee shop"},{"name":"Peet's Coffee","lat":37.84136,"lng":-122.2936,"kind":"cafe","cuisine":"coffee shop"},{"name":"Hot Italian","lat":37.84153,"lng":-122.2936,"kind":"restaurant","cuisine":"pizza"},{"name":"Gordo Taqueria","lat":37.76522,"lng":-122.46659,"kind":"restaurant","cuisine":"mexican"},{"name":"Marnee Thai","lat":37.76513,"lng":-122.46658,"kind":"restaurant","cuisine":"thai"},{"name":"Little Sweet","lat":37.76493,"lng":-122.46657,"kind":"cafe","cuisine":"coffee shop"},{"name":"Kiki","lat":37.76465,"lng":-122.46653,"kind":"restaurant","cuisine":"japanese"},{"name":"Ebisu","lat":37.76445,"lng":-122.46652,"kind":"restaurant","cuisine":"japanese"},{"name":"Sip Tea Room","lat":37.7658,"lng":-122.46586,"kind":"cafe","cuisine":"tea"},{"name":"You See Sushi","lat":37.76246,"lng":-122.46274,"kind":"restaurant","cuisine":"japanese"},{"name":"Enjoy Vegetarian Restaurant","lat":37.76032,"lng":-122.46912,"kind":"restaurant","cuisine":"chinese"},{"name":"Banana Island","lat":37.69971,"lng":-122.48318,"kind":"restaurant","cuisine":"asian"},{"name":"Quickly","lat":37.69728,"lng":-122.4838,"kind":"cafe","cuisine":"bubble tea"},{"name":"Kasa","lat":37.76092,"lng":-122.43298,"kind":"restaurant","cuisine":"indian"},{"name":"Yummy Yummy","lat":37.7638,"lng":-122.46881,"kind":"restaurant","cuisine":"vietnamese"},{"name":"Gurung Kitchen","lat":37.7638,"lng":-122.46906,"kind":"restaurant","cuisine":"indian"},{"name":"Peasant Pies","lat":37.76379,"lng":-122.46916,"kind":"cafe","cuisine":"pie"},{"name":"Irving Subs dining room","lat":37.76406,"lng":-122.46925,"kind":"restaurant","cuisine":"sandwich"},{"name":"Kokio Republic","lat":37.78639,"lng":-122.41506,"kind":"restaurant","cuisine":"chicken"},{"name":"Lime Tree","lat":37.76437,"lng":-122.46272,"kind":"restaurant","cuisine":"asian"},{"name":"Marco Polo Italian Ice Cream","lat":37.74265,"lng":-122.48186,"kind":"cafe","cuisine":"ice cream"},{"name":"El Café","lat":37.74294,"lng":-122.48121,"kind":"cafe","cuisine":"sandwich"},{"name":"Lou's Cafe","lat":37.7429,"lng":-122.48241,"kind":"cafe","cuisine":"sandwich"},{"name":"D'Maize","lat":37.72536,"lng":-122.45285,"kind":"cafe","cuisine":"salvadoran"},{"name":"Tacolicious","lat":37.80013,"lng":-122.40901,"kind":"restaurant","cuisine":"mexican"},{"name":"Tony's Pizza Napoletana","lat":37.80033,"lng":-122.40905,"kind":"restaurant","cuisine":"pizza"},{"name":"Flavas Jamaican Grill","lat":37.65573,"lng":-122.40979,"kind":"restaurant","cuisine":"jamaican"},{"name":"Perfect Pour Cafe","lat":37.62977,"lng":-122.48991,"kind":"cafe","cuisine":"coffee shop"},{"name":"Taquerria Castillo B2","lat":37.78382,"lng":-122.40907,"kind":"restaurant","cuisine":"mexican"},{"name":"Delam","lat":37.75448,"lng":-122.42111,"kind":"restaurant","cuisine":"persian"},{"name":"NTR Biryani","lat":37.75463,"lng":-122.42107,"kind":"restaurant","cuisine":"indian"},{"name":"Bottega","lat":37.75476,"lng":-122.42108,"kind":"restaurant","cuisine":"italian"},{"name":"Great Dim Sum","lat":37.79594,"lng":-122.40594,"kind":"restaurant","cuisine":"chinese"},{"name":"Bistro Central Parc","lat":37.775,"lng":-122.44443,"kind":"restaurant","cuisine":"french"},{"name":"Tamarind Hall","lat":37.79868,"lng":-122.4071,"kind":"restaurant","cuisine":"thai"},{"name":"Guilin Rice Noodles House","lat":37.74291,"lng":-122.47585,"kind":"restaurant","cuisine":"asian"},{"name":"One Boiling Pot Mixian Noodles","lat":37.74279,"lng":-122.47873,"kind":"restaurant","cuisine":"asian"},{"name":"The Deli King","lat":37.7428,"lng":-122.47861,"kind":"cafe","cuisine":"mediterranean"},{"name":"Super Cue","lat":37.7428,"lng":-122.47857,"kind":"cafe","cuisine":"tea"},{"name":"Antigua","lat":37.74281,"lng":-122.4784,"kind":"cafe","cuisine":"coffee shop"},{"name":"Pizzetta Napoletana","lat":37.76573,"lng":-122.45723,"kind":"restaurant","cuisine":"pizza"},{"name":"café suspiro","lat":37.77451,"lng":-122.41094,"kind":"cafe","cuisine":"coffee shop"},{"name":"Taboun","lat":37.76437,"lng":-122.45289,"kind":"restaurant","cuisine":"mediterranean"},{"name":"Cole Valley Tavern","lat":37.76571,"lng":-122.44978,"kind":"restaurant","cuisine":"californian"},{"name":"Crepes on Cole","lat":37.76591,"lng":-122.45015,"kind":"restaurant","cuisine":"regional"},{"name":"Kamekyo","lat":37.76518,"lng":-122.45,"kind":"restaurant","cuisine":"japanese"},{"name":"Bambino's Ristorante","lat":37.76516,"lng":-122.44999,"kind":"restaurant","cuisine":"italian"},{"name":"Barrera's Cocina Mexicana","lat":37.76629,"lng":-122.45282,"kind":"restaurant","cuisine":"mexican"},{"name":"Zazie","lat":37.76526,"lng":-122.45002,"kind":"restaurant","cuisine":"french"},{"name":"Woods Cole Valley","lat":37.76612,"lng":-122.44989,"kind":"restaurant","cuisine":"beer"},{"name":"InoVino","lat":37.76588,"lng":-122.45043,"kind":"restaurant","cuisine":"italian"},{"name":"North India","lat":37.78775,"lng":-122.39924,"kind":"restaurant","cuisine":"indian"},{"name":"Coffee Cantata","lat":37.76967,"lng":-122.45061,"kind":"cafe","cuisine":"coffee shop"},{"name":"Citrus Club","lat":37.76954,"lng":-122.45164,"kind":"restaurant","cuisine":"asian"},{"name":"Java Supreme","lat":37.75984,"lng":-122.4235,"kind":"cafe","cuisine":"coffee shop"},{"name":"Maxfield's House of Caffeine","lat":37.76314,"lng":-122.42646,"kind":"cafe","cuisine":"coffee shop"},{"name":"Nick the Greek","lat":37.69953,"lng":-122.48232,"kind":"restaurant","cuisine":"greek"},{"name":"Blue Line Pizza","lat":37.69937,"lng":-122.48225,"kind":"restaurant","cuisine":"pizza"},{"name":"Spiral Japanese Cuisine","lat":37.69927,"lng":-122.48219,"kind":"restaurant","cuisine":"japanese"},{"name":"Piqueo's","lat":37.73883,"lng":-122.41405,"kind":"restaurant","cuisine":"peruvian"},{"name":"Hunan Chef Chinese Cuisine","lat":37.73912,"lng":-122.416,"kind":"restaurant","cuisine":"chinese"},{"name":"Tacos Los Altos","lat":37.73901,"lng":-122.41495,"kind":"restaurant","cuisine":"mexican"},{"name":"Toto's Pizzeria","lat":37.61379,"lng":-122.40453,"kind":"restaurant","cuisine":"pizza"},{"name":"IHOP","lat":37.64544,"lng":-122.4057,"kind":"restaurant","cuisine":"breakfast"},{"name":"Shanghai Dumpling King","lat":37.7678,"lng":-122.42951,"kind":"restaurant","cuisine":"chinese"},{"name":"Jasmine Garden","lat":37.76782,"lng":-122.42936,"kind":"restaurant","cuisine":"vietnamese"},{"name":"Chez Maman","lat":37.77698,"lng":-122.42315,"kind":"restaurant","cuisine":"american"},{"name":"Savor","lat":37.7641,"lng":-122.46217,"kind":"restaurant","cuisine":"arab"},{"name":"California Pizza Kitchen","lat":37.8343,"lng":-122.29199,"kind":"restaurant","cuisine":"pizza"},{"name":"The Spice Jar","lat":37.7543,"lng":-122.40945,"kind":"restaurant","cuisine":"asian"},{"name":"Loló","lat":37.75737,"lng":-122.42131,"kind":"restaurant","cuisine":"mexican"},{"name":"Mission Street Oyster Bar","lat":37.76057,"lng":-122.41943,"kind":"restaurant","cuisine":"seafood"},{"name":"The Little Chihuahua","lat":37.75117,"lng":-122.43464,"kind":"restaurant","cuisine":"mexican"},{"name":"Jules","lat":37.77178,"lng":-122.43052,"kind":"restaurant","cuisine":"pizza"},{"name":"Yo También Cantina","lat":37.76515,"lng":-122.46021,"kind":"cafe","cuisine":"mexican"},{"name":"Curio","lat":37.7606,"lng":-122.42132,"kind":"restaurant","cuisine":"bar and grill"},{"name":"Izakaya Yoki","lat":37.78986,"lng":-122.41238,"kind":"restaurant","cuisine":"japanese"},{"name":"Starbucks","lat":37.78212,"lng":-122.44721,"kind":"cafe","cuisine":"coffee shop"},{"name":"Ha Tea","lat":37.79556,"lng":-122.40977,"kind":"cafe","cuisine":"bubble tea"},{"name":"Taishan Cuisine","lat":37.79734,"lng":-122.40988,"kind":"restaurant","cuisine":"chinese"},{"name":"Kam Po Kitchen","lat":37.7972,"lng":-122.41037,"kind":"restaurant","cuisine":"chinese"},{"name":"Quickly - Kobe Bento","lat":37.79628,"lng":-122.40531,"kind":"cafe","cuisine":"bubble tea"},{"name":"Great Saigon","lat":37.79647,"lng":-122.40536,"kind":"restaurant","cuisine":"vietnamese"},{"name":"House of Xian Dumpling","lat":37.79654,"lng":-122.40537,"kind":"restaurant","cuisine":"chinese"},{"name":"Toppu Ramen & Dim Sum House","lat":37.79671,"lng":-122.4054,"kind":"restaurant","cuisine":"noodle"},{"name":"Brandy Ho's Hunan Food","lat":37.79723,"lng":-122.406,"kind":"restaurant","cuisine":"chinese"},{"name":"Tancca","lat":37.79759,"lng":-122.40996,"kind":"cafe","cuisine":"bubble tea"},{"name":"Wok Station","lat":37.76351,"lng":-122.48126,"kind":"restaurant","cuisine":"chinese"},{"name":"Yuanbao Jiaozi","lat":37.76354,"lng":-122.48067,"kind":"restaurant","cuisine":"chinese"},{"name":"Quê Huong Vietnamese Deli","lat":37.76352,"lng":-122.48102,"kind":"restaurant","cuisine":"vietnamese"},{"name":"Sushi Uma","lat":37.76357,"lng":-122.4798,"kind":"restaurant","cuisine":"sushi"},{"name":"Sunrise Deli","lat":37.76328,"lng":-122.48072,"kind":"cafe","cuisine":"middle eastern"},{"name":"iTea","lat":37.76351,"lng":-122.48119,"kind":"cafe","cuisine":"bubble tea"},{"name":"Riverside Seafood Restaurant","lat":37.73901,"lng":-122.47987,"kind":"restaurant","cuisine":"chinese"},{"name":"Big Joe's","lat":37.73137,"lng":-122.45158,"kind":"restaurant","cuisine":"diner"},{"name":"Andytown Coffee Roasters","lat":37.76406,"lng":-122.41283,"kind":"cafe","cuisine":"coffee shop"},{"name":"Farmhouse Kitchen","lat":37.76016,"lng":-122.41109,"kind":"restaurant","cuisine":"thai"},{"name":"Mikado Sushi","lat":37.76587,"lng":-122.41069,"kind":"restaurant","cuisine":"japanese"},{"name":"Hahn's Hibachi","lat":37.76404,"lng":-122.46371,"kind":"restaurant","cuisine":"korean"},{"name":"Oishii Matcha","lat":37.76409,"lng":-122.43296,"kind":"cafe","cuisine":"bubble tea"},{"name":"Wayo","lat":37.78867,"lng":-122.42222,"kind":"restaurant","cuisine":"japanese"},{"name":"Starbucks","lat":37.78858,"lng":-122.42221,"kind":"cafe","cuisine":"coffee shop"},{"name":"La Fina Estampa","lat":37.78852,"lng":-122.42071,"kind":"restaurant","cuisine":"peruvian"},{"name":"Doppio Zero","lat":37.7768,"lng":-122.42277,"kind":"restaurant","cuisine":"italian"},{"name":"Ramen Izakaya Goku","lat":37.76486,"lng":-122.42494,"kind":"restaurant","cuisine":"ramen"},{"name":"Stanza","lat":37.76948,"lng":-122.45012,"kind":"cafe","cuisine":"coffee shop"},{"name":"Burma Love","lat":37.76962,"lng":-122.42218,"kind":"restaurant","cuisine":"burmese"},{"name":"Hong Kong Fast Food","lat":37.80288,"lng":-122.2816,"kind":"restaurant","cuisine":"chinese"},{"name":"Pizza Love","lat":37.80303,"lng":-122.28177,"kind":"restaurant","cuisine":"pizza"},{"name":"Rimy Mediterranean Grocery and Grill","lat":37.80282,"lng":-122.28148,"kind":"restaurant","cuisine":"mediterranean"},{"name":"May Lee's Restaurant","lat":37.76489,"lng":-122.46409,"kind":"restaurant","cuisine":"chinese"},{"name":"Starbucks","lat":37.76369,"lng":-122.47741,"kind":"cafe","cuisine":"coffee shop"},{"name":"PPQ (Phở Phú Quốc) Beef Noodle House","lat":37.76369,"lng":-122.47758,"kind":"restaurant","cuisine":"vietnamese"},{"name":"Lomo Libre","lat":37.76368,"lng":-122.47765,"kind":"restaurant","cuisine":"peruvian"},{"name":"Saigon BBQ Noodle House","lat":37.76361,"lng":-122.4789,"kind":"restaurant","cuisine":"vietnamese"},{"name":"Sun Maxim's","lat":37.76357,"lng":-122.47988,"kind":"restaurant","cuisine":"chinese"},{"name":"SF Hole In The Wall Pizza","lat":37.76342,"lng":-122.47762,"kind":"restaurant","cuisine":"pizza"},{"name":"Oh Dessert Cafe","lat":37.76338,"lng":-122.47852,"kind":"cafe","cuisine":"dessert"},{"name":"Hon's Wun-Tun House 洪記面家","lat":37.76368,"lng":-122.47776,"kind":"restaurant","cuisine":"chinese"},{"name":"Szechuan Cuisine","lat":37.76363,"lng":-122.47866,"kind":"restaurant","cuisine":"chinese"},{"name":"Noori","lat":37.76362,"lng":-122.47869,"kind":"restaurant","cuisine":"indian"},{"name":"Gao Viet Kitchen","lat":37.76368,"lng":-122.47843,"kind":"restaurant","cuisine":"vietnamese"},{"name":"Happy Bakery / Dim Sum To Go","lat":37.76321,"lng":-122.48228,"kind":"cafe","cuisine":"dim sum"},{"name":"Lam Hoa Thun","lat":37.76318,"lng":-122.48321,"kind":"restaurant","cuisine":"vietnamese"},{"name":"SK Tea","lat":37.76347,"lng":-122.48236,"kind":"cafe","cuisine":"bubble tea"},{"name":"Sawaii Ramen","lat":37.76348,"lng":-122.48213,"kind":"cafe","cuisine":"japanese"},{"name":"Steam Rice Roll King","lat":37.76348,"lng":-122.482,"kind":"restaurant","cuisine":"chinese"},{"name":"1011 Sip Tea","lat":37.76328,"lng":-122.48085,"kind":"cafe","cuisine":"bubble tea"},{"name":"Guangdong Barbecue Restaurant","lat":37.76324,"lng":-122.48126,"kind":"restaurant","cuisine":"chinese"},{"name":"Marnee Thai","lat":37.76323,"lng":-122.48187,"kind":"restaurant","cuisine":"thai"},{"name":"TC Pastry","lat":37.76348,"lng":-122.48189,"kind":"cafe","cuisine":"dim sum"},{"name":"Bei Fang Style","lat":37.76348,"lng":-122.48183,"kind":"restaurant","cuisine":"chinese"},{"name":"Sushi Uma","lat":37.76351,"lng":-122.48115,"kind":"restaurant","cuisine":"sushi"},{"name":"Quickly","lat":37.76353,"lng":-122.48075,"kind":"cafe","cuisine":"bubble tea"},{"name":"Bangkok House","lat":37.76328,"lng":-122.48081,"kind":"restaurant","cuisine":"thai"},{"name":"Yummy Yummy","lat":37.79688,"lng":-122.40785,"kind":"restaurant","cuisine":"chinese"},{"name":"Korean Soul Chicken","lat":37.79259,"lng":-122.42096,"kind":"restaurant","cuisine":"korean"},{"name":"Fish N Gari","lat":37.79265,"lng":-122.42098,"kind":"restaurant","cuisine":"sushi"},{"name":"Thai Spice","lat":37.79282,"lng":-122.42101,"kind":"restaurant","cuisine":"thai"},{"name":"Yoyo's","lat":37.7977,"lng":-122.40124,"kind":"restaurant","cuisine":"japanese"},{"name":"Bus Stop Pizza","lat":37.77152,"lng":-122.43694,"kind":"cafe","cuisine":"pizza"},{"name":"Otra","lat":37.77183,"lng":-122.43345,"kind":"restaurant","cuisine":"mexican"},{"name":"Souvenir Coffee","lat":37.77161,"lng":-122.43697,"kind":"cafe","cuisine":"coffee shop"},{"name":"Duboce Park Cafe","lat":37.7692,"lng":-122.43154,"kind":"cafe","cuisine":"sandwich"},{"name":"Gyro King","lat":37.77865,"lng":-122.41569,"kind":"restaurant","cuisine":"mediterranean"},{"name":"Espetus Churrascaria","lat":37.7733,"lng":-122.42211,"kind":"restaurant","cuisine":"brazilian"},{"name":"Grant Place","lat":37.79508,"lng":-122.40617,"kind":"restaurant","cuisine":"chinese"},{"name":"Hon's Wun-Tun House","lat":37.79509,"lng":-122.40607,"kind":"restaurant","cuisine":"chinese"},{"name":"Shin Toe Bul Yi","lat":37.74239,"lng":-122.48771,"kind":"restaurant","cuisine":"korean"},{"name":"Jang Soo BBQ","lat":37.78017,"lng":-122.48724,"kind":"restaurant","cuisine":"korean"},{"name":"Rocket Sushi","lat":37.77264,"lng":-122.4221,"kind":"restaurant","cuisine":"sushi"},{"name":"La Oaxaqueña","lat":37.76294,"lng":-122.41965,"kind":"restaurant","cuisine":"mexican"},{"name":"Rose's Café","lat":37.79701,"lng":-122.437,"kind":"restaurant","cuisine":"italian"},{"name":"CityPop","lat":37.79095,"lng":-122.41893,"kind":"cafe","cuisine":"bubble tea"},{"name":"Hi Hat","lat":37.74993,"lng":-122.42062,"kind":"restaurant","cuisine":"pizza"},{"name":"Tonight Soju Bar","lat":37.743,"lng":-122.47415,"kind":"restaurant","cuisine":"soju"},{"name":"S & E Cafe","lat":37.74284,"lng":-122.47544,"kind":"restaurant","cuisine":"chinese"},{"name":"Seniore's Pizza","lat":37.7427,"lng":-122.47583,"kind":"restaurant","cuisine":"pizza"},{"name":"House of Pancakes","lat":37.7429,"lng":-122.47636,"kind":"restaurant","cuisine":"chinese"},{"name":"Cafe La Flore","lat":37.76392,"lng":-122.47239,"kind":"cafe","cuisine":"sandwich"},{"name":"Goemon","lat":37.76381,"lng":-122.47437,"kind":"restaurant","cuisine":"japanese"},{"name":"Jian Bao","lat":37.76356,"lng":-122.47439,"kind":"restaurant","cuisine":"chinese"},{"name":"Starbucks","lat":37.80455,"lng":-122.43382,"kind":"cafe","cuisine":"coffee shop"},{"name":"New Woey Loy Goey","lat":37.79597,"lng":-122.4065,"kind":"restaurant","cuisine":"chinese"},{"name":"Queen's Louisiana Po-Boy Cafe","lat":37.80694,"lng":-122.40566,"kind":"restaurant","cuisine":"cajun"},{"name":"Sightglass Coffee","lat":37.75922,"lng":-122.41129,"kind":"cafe","cuisine":"coffee shop"},{"name":"Elephant Sushi","lat":37.77794,"lng":-122.42336,"kind":"restaurant","cuisine":"sushi"},{"name":"SSAL","lat":37.79732,"lng":-122.42193,"kind":"restaurant","cuisine":"korean"},{"name":"Philz Coffee","lat":37.79742,"lng":-122.42195,"kind":"cafe","cuisine":"coffee shop"},{"name":"Fiorella Polk Street","lat":37.79755,"lng":-122.42196,"kind":"restaurant","cuisine":"pizza"},{"name":"House Rules","lat":37.79729,"lng":-122.42219,"kind":"restaurant","cuisine":"mexican"},{"name":"Bahn Mi & Boba","lat":37.76377,"lng":-122.47565,"kind":"cafe","cuisine":"bubble tea"},{"name":"Parada 22","lat":37.76924,"lng":-122.45209,"kind":"restaurant","cuisine":"puerto rican"},{"name":"Southpaw","lat":37.76232,"lng":-122.41961,"kind":"restaurant","cuisine":"barbecue"},{"name":"Yucatasia","lat":37.76237,"lng":-122.4196,"kind":"restaurant","cuisine":"yucatan"},{"name":"Feng Ze Yuan","lat":37.77518,"lng":-122.50605,"kind":"restaurant","cuisine":"chinese"},{"name":"Golden Star Vietnamese Restaurant","lat":37.79453,"lng":-122.40583,"kind":"restaurant","cuisine":"vietnamese"},{"name":"Al-Masri","lat":37.77537,"lng":-122.50212,"kind":"restaurant","cuisine":"egyptian"},{"name":"Empero Taste","lat":37.77562,"lng":-122.50252,"kind":"restaurant","cuisine":"chinese"},{"name":"Ruby's","lat":37.76044,"lng":-122.50827,"kind":"restaurant","cuisine":"american"},{"name":"Love Tea","lat":37.7977,"lng":-122.4071,"kind":"cafe","cuisine":"bubble tea"},{"name":"Yee's Restaurant","lat":37.79729,"lng":-122.40702,"kind":"restaurant","cuisine":"chinese"},{"name":"Primo Pizza","lat":37.77956,"lng":-122.43859,"kind":"restaurant","cuisine":"pizza"},{"name":"Komaaj","lat":37.74415,"lng":-122.42101,"kind":"restaurant","cuisine":"northern iranian"},{"name":"Fumi Curry & Ramen","lat":37.74405,"lng":-122.42073,"kind":"restaurant","cuisine":"japanese"},{"name":"Coco's Ramen","lat":37.74378,"lng":-122.4209,"kind":"restaurant","cuisine":"japanese"},{"name":"El Castillito","lat":37.76361,"lng":-122.4197,"kind":"restaurant","cuisine":"taqueria"},{"name":"Kusakabe","lat":37.79569,"lng":-122.40288,"kind":"restaurant","cuisine":"sushi"},{"name":"Tricolore","lat":37.79566,"lng":-122.40311,"kind":"restaurant","cuisine":"italian"},{"name":"Oasis Grill","lat":37.78304,"lng":-122.40271,"kind":"restaurant","cuisine":"mediterranean"},{"name":"The Grove","lat":37.78652,"lng":-122.40197,"kind":"restaurant","cuisine":"american"},{"name":"Osmanthus Dim Sum Lounge","lat":37.79811,"lng":-122.4057,"kind":"restaurant","cuisine":"chinese"},{"name":"The Italian Homemade Company","lat":37.8016,"lng":-122.41183,"kind":"restaurant","cuisine":"italian"},{"name":"Blue Bottle","lat":37.79132,"lng":-122.40095,"kind":"cafe","cuisine":"coffee shop"},{"name":"Muracci's Japanese Curry and Grill","lat":37.79102,"lng":-122.40426,"kind":"restaurant","cuisine":"japanese"},{"name":"Chicken G's","lat":37.79145,"lng":-122.40406,"kind":"restaurant","cuisine":"chicken"},{"name":"Leo's Oyster Bar","lat":37.79393,"lng":-122.40253,"kind":"restaurant","cuisine":"american"},{"name":"The Rabbit Hole","lat":37.74121,"lng":-122.42292,"kind":"restaurant","cuisine":"asian"},{"name":"Los Panchos","lat":37.74533,"lng":-122.42025,"kind":"restaurant","cuisine":"pupusa"},{"name":"Mi Lindo Peru","lat":37.74508,"lng":-122.4204,"kind":"restaurant","cuisine":"peruvian"},{"name":"Taqueria Can-Cún","lat":37.74534,"lng":-122.41989,"kind":"restaurant","cuisine":"mexican"},{"name":"Akiko's","lat":37.79058,"lng":-122.40468,"kind":"restaurant","cuisine":"sushi"},{"name":"Dumpling Kitchen","lat":37.74243,"lng":-122.48704,"kind":"restaurant","cuisine":"chinese"},{"name":"Playa Azul","lat":37.74366,"lng":-122.42134,"kind":"restaurant","cuisine":"mexican"},{"name":"Prubechu","lat":37.76133,"lng":-122.4195,"kind":"restaurant","cuisine":"guamanian"},{"name":"YAMO","lat":37.76192,"lng":-122.4197,"kind":"restaurant","cuisine":"burmese"},{"name":"Gourmet Delight B.B.Q.","lat":37.79559,"lng":-122.40837,"kind":"restaurant","cuisine":"chinese"},{"name":"New Golden Daisy","lat":37.7955,"lng":-122.40835,"kind":"restaurant","cuisine":"chinese"},{"name":"Taqueria El Buen Sabor","lat":37.76182,"lng":-122.42145,"kind":"restaurant","cuisine":"mexican"},{"name":"El Mil Amores","lat":37.76162,"lng":-122.42112,"kind":"restaurant","cuisine":"mexican"},{"name":"Sidewalk Juice","lat":37.7526,"lng":-122.41427,"kind":"cafe","cuisine":"juice"},{"name":"Hon's Wun-Tun House","lat":37.79425,"lng":-122.40463,"kind":"restaurant","cuisine":"chinese"},{"name":"R & G Lounge","lat":37.7941,"lng":-122.4049,"kind":"restaurant","cuisine":"chinese"},{"name":"T-28 Bakery & Cafe","lat":37.74251,"lng":-122.48517,"kind":"restaurant","cuisine":"chinese"},{"name":"Taraval Okazu Ya","lat":37.74252,"lng":-122.48489,"kind":"restaurant","cuisine":"japanese"},{"name":"Fiery","lat":37.74281,"lng":-122.48374,"kind":"restaurant","cuisine":"hotpot"},{"name":"Kingdom of Dumpling","lat":37.74253,"lng":-122.48463,"kind":"restaurant","cuisine":"chinese"},{"name":"Soho Mei","lat":37.75434,"lng":-122.47719,"kind":"restaurant","cuisine":"chinese"},{"name":"HD Rice Noodle","lat":37.75403,"lng":-122.47848,"kind":"restaurant","cuisine":"chinese"},{"name":"Noodle Stop","lat":37.75405,"lng":-122.47803,"kind":"cafe","cuisine":"chinese"},{"name":"Noriega Cafe","lat":37.75409,"lng":-122.47729,"kind":"restaurant","cuisine":"chinese"},{"name":"Twisted Donuts & Coffee","lat":37.75409,"lng":-122.47723,"kind":"cafe","cuisine":"donut"},{"name":"Fujimaya-ya","lat":37.75434,"lng":-122.47713,"kind":"restaurant","cuisine":"japanese"},{"name":"Peking Restaurant","lat":37.75403,"lng":-122.47839,"kind":"restaurant","cuisine":"chinese"},{"name":"The Crew","lat":37.7543,"lng":-122.47814,"kind":"restaurant","cuisine":"korean"},{"name":"China North Dumpling","lat":37.75405,"lng":-122.47792,"kind":"restaurant","cuisine":"chinese"},{"name":"Wise Sons","lat":37.75255,"lng":-122.41533,"kind":"restaurant","cuisine":"jewish"},{"name":"Quickly","lat":37.72321,"lng":-122.45378,"kind":"cafe","cuisine":"bubble tea"},{"name":"Orchids Cafe","lat":37.72321,"lng":-122.45369,"kind":"restaurant","cuisine":"chinese"},{"name":"The Coffee Lama","lat":37.77053,"lng":-122.4438,"kind":"cafe","cuisine":"coffee shop"},{"name":"La Playa Taqueria","lat":37.75285,"lng":-122.50472,"kind":"restaurant","cuisine":"mexican"},{"name":"The Pizza Place","lat":37.75282,"lng":-122.50557,"kind":"restaurant","cuisine":"pizza"},{"name":"Eggettes","lat":37.75346,"lng":-122.49759,"kind":"cafe","cuisine":"bubble tea"},{"name":"Hong's Kitchen","lat":37.75281,"lng":-122.50574,"kind":"restaurant","cuisine":"chinese"},{"name":"Toyose","lat":37.75314,"lng":-122.50468,"kind":"restaurant","cuisine":"korean"},{"name":"El Salvador Restaurant","lat":37.76063,"lng":-122.41943,"kind":"restaurant","cuisine":"salvadoran"},{"name":"Sweet Maple","lat":37.78575,"lng":-122.43505,"kind":"restaurant","cuisine":"breakfast"},{"name":"Jitra","lat":37.73141,"lng":-122.47298,"kind":"restaurant","cuisine":"thai"},{"name":"Shabu House","lat":37.73188,"lng":-122.47333,"kind":"restaurant","cuisine":"japanese"},{"name":"My Cup of Tea (Cool Tea Bar)","lat":37.73233,"lng":-122.47433,"kind":"cafe","cuisine":"bubble tea"},{"name":"Wang Dae Bak","lat":37.7321,"lng":-122.47383,"kind":"restaurant","cuisine":"korean"},{"name":"Lucho's","lat":37.73205,"lng":-122.47438,"kind":"restaurant","cuisine":"american"},{"name":"Wok & Go","lat":37.75307,"lng":-122.40655,"kind":"restaurant","cuisine":"chinese"},{"name":"El Faro","lat":37.7899,"lng":-122.39798,"kind":"restaurant","cuisine":"mexican"},{"name":"Philz Coffee","lat":37.76476,"lng":-122.4012,"kind":"cafe","cuisine":"coffee shop"},{"name":"Mo'z","lat":37.78339,"lng":-122.40755,"kind":"cafe","cuisine":"breakfast"},{"name":"Yemeni Kebab & Mediterranean","lat":37.78277,"lng":-122.41084,"kind":"restaurant","cuisine":"mediterranean"},{"name":"Little Window by Bicycle Banh Mi","lat":37.80099,"lng":-122.40209,"kind":"cafe","cuisine":"vietnamese"},{"name":"Sutter Street Cafe","lat":37.78952,"lng":-122.4078,"kind":"cafe","cuisine":"sandwich"},{"name":"Il Borgo","lat":37.77563,"lng":-122.42627,"kind":"restaurant","cuisine":"italian"},{"name":"Scott's Chowder House","lat":37.78191,"lng":-122.43258,"kind":"restaurant","cuisine":"seafood"},{"name":"City Chopsticks","lat":37.78967,"lng":-122.41172,"kind":"restaurant","cuisine":"chinese"},{"name":"Fresh Brew Coffee","lat":37.78989,"lng":-122.4118,"kind":"cafe","cuisine":"coffee shop"},{"name":"Parrot Pizzeria & Rotisserie","lat":37.78893,"lng":-122.41179,"kind":"restaurant","cuisine":"pizza"},{"name":"Bun Mee","lat":37.78845,"lng":-122.40289,"kind":"restaurant","cuisine":"sandwich"},{"name":"Starbucks","lat":37.64846,"lng":-122.49052,"kind":"cafe","cuisine":"coffee shop"},{"name":"La Mordida","lat":37.64869,"lng":-122.49042,"kind":"restaurant","cuisine":"mexican"},{"name":"Tea World","lat":37.6336,"lng":-122.48876,"kind":"cafe","cuisine":"bubble tea"},{"name":"Tekka House","lat":37.73458,"lng":-122.43365,"kind":"restaurant","cuisine":"japanese"},{"name":"Gialina","lat":37.73399,"lng":-122.43415,"kind":"restaurant","cuisine":"italian pizza"},{"name":"La Corneta Taqueria","lat":37.73408,"lng":-122.43412,"kind":"restaurant","cuisine":"mexican"},{"name":"Sears Fine Food","lat":37.78877,"lng":-122.40866,"kind":"restaurant","cuisine":"pancake"},{"name":"Doña Mago","lat":37.7683,"lng":-122.41763,"kind":"restaurant","cuisine":"mexican"},{"name":"Boudin Bakery & Cafe","lat":37.79491,"lng":-122.39569,"kind":"restaurant","cuisine":"sandwich"},{"name":"Starbucks","lat":37.78562,"lng":-122.28083,"kind":"cafe","cuisine":"coffee shop"},{"name":"Ono Hawaiian BBQ","lat":37.78685,"lng":-122.28081,"kind":"restaurant","cuisine":"barbecue"},{"name":"Starbucks","lat":37.78866,"lng":-122.28003,"kind":"cafe","cuisine":"coffee shop"},{"name":"Sunflower","lat":37.76475,"lng":-122.42204,"kind":"restaurant","cuisine":"vietnamese"},{"name":"Poke Bowl","lat":37.72394,"lng":-122.45579,"kind":"restaurant","cuisine":"hawaiian"},{"name":"Mujiri","lat":37.84823,"lng":-122.28564,"kind":"restaurant","cuisine":"sushi"},{"name":"Starbucks","lat":37.63876,"lng":-122.42095,"kind":"cafe","cuisine":"coffee shop"},{"name":"Hollywood Café","lat":37.80642,"lng":-122.41582,"kind":"restaurant","cuisine":"breakfast"},{"name":"The Center SF Tea House","lat":37.77453,"lng":-122.43065,"kind":"cafe","cuisine":"tea"},{"name":"Plentea","lat":37.79135,"lng":-122.40432,"kind":"cafe","cuisine":"bubble tea"},