{"generated_at":"2026-07-13T15:39:06.437Z","city":"sf","calls":16,"failed":0,"count":223,"nonnull_pct":{"amenities":100,"rating":100,"ftype":100},"facilities":[{"id":"152432","lat":37.807175,"lng":-122.417834,"title":"500 Beach St. - Anchorage Square Garage","ftype":"garage","amenities":["self_park","covered","touchless","in_out","attendant"],"rating":{"avg":4.7,"count":109}},{"id":"85199","lat":37.8063575589,"lng":-122.41627449999999,"title":"550 North Point St. - Holiday Inn Express Valet Garage","ftype":"garage","amenities":["valet","covered","attendant"],"rating":{"avg":4.7,"count":452}},{"id":"147898","lat":37.807356,"lng":-122.41649200000002,"title":"452 Beach Street - Wharf Central Parking Lot","ftype":"lot","amenities":["self_park","paved","touchless","in_out"],"rating":{"avg":4.7,"count":275}},{"id":"77205","lat":37.80735039999999,"lng":-122.41508470000001,"title":"380 Beach St. (2720 Taylor St) - Garage","ftype":"garage","amenities":["self_park","valet","covered"],"rating":{"avg":4.2,"count":38}},{"id":"1982","lat":37.805874,"lng":-122.41779099999998,"title":"1250 Columbus Ave. - Marriott Fisherman's Wharf Valet","ftype":"garage","amenities":["valet","attendant","wheelchair_accessible"],"rating":{"avg":4.4,"count":274}},{"id":"1980","lat":37.806546999999995,"lng":-122.42023700000001,"title":"655 Beach St. - Valet/Self Garage","ftype":"garage","amenities":["valet","covered","attendant","wheelchair_accessible","ev"],"rating":{"avg":4.4,"count":507}},{"id":"8117","lat":37.806021599999994,"lng":-122.41629440000001,"title":"555 North Point St. - Hyatt Centric Fisherman's Wharf - Valet Garage","ftype":"garage","amenities":["valet","covered","attendant","wheelchair_accessible","ev"],"rating":{"avg":4.7,"count":21}},{"id":"86050","lat":37.805370999999994,"lng":-122.41652599999999,"title":"590 Bay St. (2620 Jones St.) - Marriott Vacation Club Valet Garage","ftype":"garage","amenities":["valet","covered"],"rating":{"avg":4.6,"count":66}},{"id":"94530","lat":37.807695999999986,"lng":-122.414796,"title":"350 Beach St. - Fisherman's Wharf Parking Garage","ftype":"garage","amenities":["self_park","covered","touchless","in_out"],"rating":{"avg":4.6,"count":1841}},{"id":"100343","lat":37.806453700000006,"lng":-122.41478229999998,"title":"400 North Point St. - Lot","ftype":"lot","amenities":["self_park","paved","touchless","in_out"],"rating":{"avg":4.7,"count":516}},{"id":"6182","lat":37.80753959999999,"lng":-122.41363879999999,"title":"280 Beach St (2500 Mason St) - RIU Plaza Fisherman’s Wharf - Garage (Lot 309)","ftype":"garage","amenities":["self_park","covered","touchless","wheelchair_accessible"],"rating":{"avg":3.9,"count":2229}},{"id":"61200","lat":37.8060426,"lng":-122.4148466,"title":"2552 Taylor St. - Lot","ftype":"lot","amenities":["self_park","paved"],"rating":{"avg":4.3,"count":175}},{"id":"42291","lat":37.80596039999999,"lng":-122.41460559999997,"title":"451 North Point St. - Garage","ftype":"garage","amenities":["self_park","valet","covered"],"rating":{"avg":4.2,"count":387}},{"id":"13987","lat":37.80619449999999,"lng":-122.41420740000001,"title":"425 North Point St. - Hotel Zoe Valet Garage","ftype":"garage","amenities":["valet","covered","attendant","wheelchair_accessible"],"rating":{"avg":4.6,"count":306}},{"id":"14052","lat":37.807762700000005,"lng":-122.4132217,"title":"250 Beach St. - Hotel Zephyr - Garage","ftype":"garage","amenities":["self_park","valet","covered","wheelchair_accessible"],"rating":{"avg":4,"count":976}},{"id":"33420","lat":37.8059344,"lng":-122.4222409,"title":"3031 Larkin St - Ghirardelli Square Parking Garage","ftype":"garage","amenities":["self_park","covered","touchless","wheelchair_accessible","ev"],"rating":{"avg":4.3,"count":628}},{"id":"148540","lat":37.804926,"lng":-122.420638,"title":"812 Bay St. - Spot E Only","ftype":"lot","amenities":["self_park","paved","touchless","in_out","alley_access"],"rating":{"avg":5,"count":12}},{"id":"143074","lat":37.805623,"lng":-122.42207799999998,"title":"855 Beach Street","ftype":"garage","amenities":["self_park","covered","touchless","wheelchair_accessible","ev"],"rating":{"avg":4.3,"count":628}},{"id":"11121","lat":37.808123714299995,"lng":-122.41107347799998,"title":"175 Beach St - Pier 39 Garage","ftype":"garage","amenities":["self_park","covered","touchless","in_out","wheelchair_accessible","ev"],"rating":{"avg":4.8,"count":1432}},{"id":"89911","lat":37.805908,"lng":-122.41270900000002,"title":"350 Bay St. - North Point Centre Garage","ftype":"garage","amenities":["self_park","covered","touchless","in_out","attendant"],"rating":{"avg":4.7,"count":310}},{"id":"8122","lat":37.80727279999999,"lng":-122.41034349999998,"title":"2300 Stockton St. - Garage","ftype":"garage","amenities":["self_park","valet","in_out","attendant","wheelchair_accessible"],"rating":{"avg":3.3,"count":49}},{"id":"7392","lat":37.8065654,"lng":-122.40995639999998,"title":"2210 Stockton St. - C Garage (Lot 20)","ftype":"garage","amenities":["self_park","covered","touchless","in_out"],"rating":{"avg":4.7,"count":741}},{"id":"89423","lat":37.789458,"lng":-122.408367,"title":"524 Powell St. - Marriott Hotel Valet Garage","ftype":"valet_stand","amenities":["valet","covered"],"rating":{"avg":4.8,"count":1493}},{"id":"86030","lat":37.78844399999999,"lng":-122.40999899999998,"title":"520 Mason St. - 490 Post Valet Garage","ftype":"garage","amenities":["valet","covered","attendant","wheelchair_accessible"],"rating":{"avg":4.7,"count":1093}},{"id":"12725","lat":37.7884051,"lng":-122.41057910000002,"title":"515 Mason St. - JW Marriott Valet","ftype":"garage","amenities":["valet","attendant","wheelchair_accessible","ev"],"rating":{"avg":4.9,"count":752}},{"id":"9621","lat":37.789493,"lng":-122.40762699999998,"title":"450 Sutter St. - Valet Garage","ftype":"garage","amenities":["self_park","covered","attendant","wheelchair_accessible"],"rating":{"avg":4.7,"count":1002}},{"id":"6496","lat":37.7872512,"lng":-122.40918310000002,"title":"350 Geary St. - Westin St. Francis - Valet Garage (Lot 337)","ftype":"garage","amenities":["valet","covered","attendant","wheelchair_accessible","ev"],"rating":{"avg":4.9,"count":701}},{"id":"135108","lat":37.78794799999999,"lng":-122.41039800000001,"title":"481 Mason St. (501 Post St.) - Donatello Hotel Valet","ftype":"valet_stand","amenities":["valet","attendant"],"rating":{"avg":4.7,"count":71}},{"id":"105652","lat":37.787652,"lng":-122.410304,"title":"433 Mason St. - Valet Garage","ftype":"garage","amenities":["valet","covered","attendant","wheelchair_accessible"],"rating":{"avg":4.1,"count":157}},{"id":"85794","lat":37.787827,"lng":-122.41120800000002,"title":"569 Post St. (530 Taylor St.) - Valet Garage","ftype":"garage","amenities":["valet","covered","attendant","wheelchair_accessible"],"rating":{"avg":4.4,"count":675}},{"id":"13631","lat":37.786432,"lng":-122.409067,"title":"250 O'Farrell St. - Handlery Union Square Hotel Garage","ftype":"valet_stand","amenities":["valet","attendant","wheelchair_accessible"],"rating":{"avg":4.8,"count":990}},{"id":"85201","lat":37.788603599999995,"lng":-122.41128489999998,"title":"665 Sutter St. - Valet Olympic Garage","ftype":"garage","amenities":["valet","covered","attendant","wheelchair_accessible"],"rating":{"avg":4.6,"count":451}},{"id":"106278","lat":37.787546999999996,"lng":-122.41131,"title":"530 Taylor St. - Valet Garage","ftype":"garage","amenities":["valet","covered","attendant","wheelchair_accessible"],"rating":{"avg":4.4,"count":675}},{"id":"69285","lat":37.7891752,"lng":-122.41146400000001,"title":"660 Sutter St. - Lot","ftype":"lot","amenities":["valet","paved","attendant"],"rating":{"avg":4.4,"count":136}},{"id":"128489","lat":37.78816599999999,"lng":-122.412679,"title":"32 Cosmo Pl. (50 Cosmo Pl.) - Lot","ftype":"lot","amenities":["self_park","paved","touchless","in_out"],"rating":{"avg":4.3,"count":180}},{"id":"9614","lat":37.786393,"lng":-122.40998299999997,"title":"325 Mason St. - Mason O'Farrell Garage","ftype":"garage","amenities":["self_park","covered","touchless","attendant","wheelchair_accessible","ev"],"rating":{"avg":4.7,"count":1266}},{"id":"10628","lat":37.7858194,"lng":-122.409274,"title":"180 Ellis St. - Hotel Nikko Garage","ftype":"garage","amenities":["valet","covered","attendant","wheelchair_accessible"],"rating":{"avg":4.5,"count":28}},{"id":"9147","lat":37.7852115,"lng":-122.40571159999999,"title":"22 4th St. - Pacific Place Valet Garage","ftype":"garage","amenities":["valet","covered","attendant","wheelchair_accessible"],"rating":{"avg":4.5,"count":554}},{"id":"30610","lat":37.7869805,"lng":-122.41279149999997,"title":"560 Geary St. - Valet Garage","ftype":"garage","amenities":["valet","covered","attendant"],"rating":{"avg":4.1,"count":79}},{"id":"6213","lat":37.78706940000001,"lng":-122.41226049999999,"title":"542 Geary St. - Hotel Adagio - Valet Lot","ftype":"lot","amenities":["valet","paved","attendant","wheelchair_accessible"],"rating":{"avg":4.9,"count":88}},{"id":"100547","lat":37.786324,"lng":-122.411663,"title":"415 Taylor St. - Valet Garage","ftype":"garage","amenities":["valet","covered","attendant"],"rating":{"avg":4.5,"count":304}},{"id":"6565","lat":37.79184829999999,"lng":-122.40684279999998,"title":"600 Stockton St. - The Ritz Carlton - Valet Garage","ftype":"garage","amenities":["valet","covered","attendant","wheelchair_accessible"],"rating":{"avg":1,"count":1}},{"id":"112416","lat":37.789696,"lng":-122.403446,"title":"191 Sutter St. - Galleria Park Hotel Valet","ftype":"valet_stand","amenities":["valet","covered","attendant","ev"],"rating":{"avg":4.9,"count":262}},{"id":"86029","lat":37.79036599999999,"lng":-122.409817,"title":"750 Bush St. - Valet Garage","ftype":"garage","amenities":["valet","covered","attendant","wheelchair_accessible"],"rating":{"avg":4.7,"count":1075}},{"id":"6895","lat":37.7852344,"lng":-122.40998789999999,"title":"222 Ellis St. - Hilton San Francisco Union Square - Garage","ftype":"garage","amenities":["self_park","covered","touchless","attendant","wheelchair_accessible"],"rating":{"avg":4.7,"count":1892}},{"id":"33418","lat":37.7922834,"lng":-122.40937129999999,"title":"815 Powell St. - Fairmont Garage","ftype":"garage","amenities":["self_park","valet","covered","attendant","ev"],"rating":{"avg":4.5,"count":188}},{"id":"151280","lat":37.79020899999999,"lng":-122.40349899999998,"title":"222 Kearny St. - Garage","ftype":"garage","amenities":["valet","covered","attendant","alley_access"],"rating":{"avg":4.2,"count":39}},{"id":"11642","lat":37.7850769,"lng":-122.41016559999997,"title":"233 Ellis St. - Valet Garage","ftype":"garage","amenities":["valet","covered","attendant","wheelchair_accessible"],"rating":{"avg":4.2,"count":95}},{"id":"134169","lat":37.78692100000001,"lng":-122.414011,"title":"644 Geary St. - Temple Garage","ftype":"garage","amenities":["self_park","valet","covered","in_out","attendant"],"rating":{"avg":4.5,"count":218}},{"id":"83178","lat":37.7888117,"lng":-122.41440849999998,"title":"840 Sutter St. - Butterick Valet Garage","ftype":"garage","amenities":["valet","covered","attendant"],"rating":{"avg":4.7,"count":221}},{"id":"84927","lat":37.787182,"lng":-122.40266,"title":"Unlimited In/Out Access - 155 Stevenson St. - Hearst Garage","ftype":"garage","amenities":["self_park","covered","touchless","in_out","attendant","wheelchair_accessible"],"rating":{"avg":4.7,"count":340}},{"id":"1983","lat":37.784878000000006,"lng":-122.408965,"title":"55 Cyril Magnin St. - Parc 55 Hotel Valet","ftype":"garage","amenities":["valet","covered","attendant","wheelchair_accessible","ev"],"rating":{"avg":4.8,"count":410}},{"id":"1984","lat":37.786587000000004,"lng":-122.403097,"title":"50 3rd St. - Hyatt Regency SF Downtown SOMA","ftype":"garage","amenities":["valet","covered","attendant","wheelchair_accessible","ev"],"rating":{"avg":4.8,"count":650}},{"id":"104105","lat":37.786137,"lng":-122.413426,"title":"525 Jones St. - Garage","ftype":"garage","amenities":["self_park","valet","covered","attendant"],"rating":{"avg":3.5,"count":63}},{"id":"111298","lat":37.78597100000001,"lng":-122.40322,"title":"223 Stevenson St. (706 Mission St.) - Jessie Square Garage","ftype":"garage","amenities":["self_park","covered","attendant"],"rating":{"avg":4.7,"count":1037}},{"id":"1947","lat":37.784954,"lng":-122.40417399999998,"title":"780 Mission St. - Marriott Marquis Hotel Valet","ftype":"garage","amenities":["valet","covered","attendant","wheelchair_accessible","ev"],"rating":{"avg":4.4,"count":119}},{"id":"33421","lat":37.78733419999999,"lng":-122.40223059999997,"title":"155 Stevenson St. - Hearst Garage (No In/Out Access)","ftype":"garage","amenities":["self_park","covered","touchless","attendant","wheelchair_accessible"],"rating":{"avg":4.8,"count":5848}},{"id":"83640","lat":37.78400729999999,"lng":-122.40938219999997,"title":"51 Mason St. - Valet Garage","ftype":"garage","amenities":["valet","covered","attendant"],"rating":{"avg":4.8,"count":785}},{"id":"6347","lat":37.78698949999999,"lng":-122.4022313,"title":"181 Jessie St (680 Mission St) - Paramount Valet Garage","ftype":"garage","amenities":["valet","covered","attendant","wheelchair_accessible"],"rating":{"avg":4.5,"count":501}},{"id":"107486","lat":37.79079,"lng":-122.40311,"title":"333 Bush St. - Valet Garage","ftype":"garage","amenities":["valet","covered","wheelchair_accessible"],"rating":{"avg":4.9,"count":124}},{"id":"88293","lat":37.78876799999999,"lng":-122.41521999999999,"title":"818 Leavenworth St. - State Garage","ftype":"garage","amenities":["valet","covered"],"rating":{"avg":4.7,"count":367}},{"id":"86027","lat":37.783817,"lng":-122.40936200000002,"title":"25 Mason St. (Hotel Metropolis) - Valet Lot","ftype":"lot","amenities":["valet","paved","attendant","wheelchair_accessible"],"rating":{"avg":4.7,"count":708}},{"id":"64302","lat":37.78600410000001,"lng":-122.41403039999996,"title":"550 O'Farrell St. - Valet Garage","ftype":"garage","amenities":["valet","covered"],"rating":{"avg":4.6,"count":303}},{"id":"14926","lat":37.79171899999999,"lng":-122.41150299999998,"title":"1045 California St. - Crocker Valet Garage","ftype":"garage","amenities":["self_park","covered","touchless","in_out","attendant","wheelchair_accessible"],"rating":{"avg":4.3,"count":368}},{"id":"53084","lat":37.79105059999999,"lng":-122.40262610000002,"title":"320 Bush St (235 Montgomery St) - The Russ Building Garage","ftype":"garage","amenities":["valet","covered","attendant"],"rating":{"avg":4.9,"count":714}},{"id":"7202","lat":37.78314,"lng":-122.40652019999999,"title":"890 Mission St. - Pickwick Hotel - North Beach Parking Valet Garage","ftype":"garage","amenities":["valet","covered","attendant","wheelchair_accessible"],"rating":{"avg":4.6,"count":438}},{"id":"112425","lat":37.791109,"lng":-122.403362,"title":"441 Pine St. (350 Bush St.) - Valet Garage","ftype":"garage","amenities":["valet","covered","attendant"],"rating":{"avg":4.9,"count":451}},{"id":"69024","lat":37.782725,"lng":-122.408579,"title":"440 Stevenson St. (945 Market St.) - Valet-Assist Garage","ftype":"garage","amenities":["self_park","valet","covered","in_out","attendant"],"rating":{"avg":4.6,"count":949}},{"id":"42588","lat":37.79195500000001,"lng":-122.40332499999995,"title":"445 Pine St (555 California St.) - 555 California Garage LLC","ftype":"garage","amenities":["self_park","valet","covered"],"rating":{"avg":4.7,"count":1762}},{"id":"53742","lat":37.79168980000001,"lng":-122.40314709999998,"title":"435 Pine St. - The Russ Building -  Garage","ftype":"garage","amenities":["valet","covered","attendant"],"rating":{"avg":4.9,"count":714}},{"id":"2302","lat":37.79319100000001,"lng":-122.40518099999997,"title":"725 Sacramento St. - Valet (650 California Garage)","ftype":"garage","amenities":["valet","covered","attendant","ev"],"rating":{"avg":4.6,"count":344}},{"id":"6490","lat":37.7912557,"lng":-122.4127938,"title":"1101 California St. - Masonic Center Garage","ftype":"garage","amenities":["self_park","covered","touchless","attendant","wheelchair_accessible","ev"],"rating":{"avg":4.4,"count":255}},{"id":"110067","lat":37.792916000000005,"lng":-122.40469099999997,"title":"715 Sacramento St. (600 California) - Garage","ftype":"garage","amenities":["self_park","covered"],"rating":{"avg":4.7,"count":40}},{"id":"18376","lat":37.7922277,"lng":-122.4127546,"title":"1051 Taylor St. - Grace Cathedral Garage","ftype":"garage","amenities":["self_park","covered","touchless","in_out","wheelchair_accessible"],"rating":{"avg":3.8,"count":115}},{"id":"20842","lat":37.7908857,"lng":-122.4012094,"title":"225 Bush St. - Valet Garage","ftype":"garage","amenities":["valet","covered","attendant","ev"],"rating":{"avg":4.8,"count":328}},{"id":"6138","lat":37.7898082,"lng":-122.39959499999996,"title":"50 Stevenson St. (555 Market St.) - Market Center Valet Garage (Lot 358)","ftype":"garage","amenities":["valet","covered","attendant","wheelchair_accessible"],"rating":{"avg":4.9,"count":538}},{"id":"2319","lat":37.78429299999999,"lng":-122.413057,"title":"333 Jones St. - Valet Garage","ftype":"garage","amenities":["valet","covered","attendant","wheelchair_accessible"],"rating":{"avg":4.3,"count":82}},{"id":"89789","lat":37.788290999999994,"lng":-122.39949799999997,"title":"590 Mission St. (85 2nd St) - Red Cross Valet Garage","ftype":"garage","amenities":["valet","covered","attendant"],"rating":{"avg":4.7,"count":161}},{"id":"14927","lat":37.793182,"lng":-122.4101594,"title":"1040 Sacramento St. - Brocklebank - Valet Garage","ftype":"garage","amenities":["valet","covered","attendant","wheelchair_accessible"],"rating":{"avg":4.8,"count":223}},{"id":"12910","lat":37.7864801,"lng":-122.40041559999999,"title":"147 Minna St. - SFMOMA Garage","ftype":"garage","amenities":["self_park","covered","touchless","in_out","attendant","wheelchair_accessible","ev"],"rating":{"avg":4.7,"count":4120}},{"id":"140166","lat":37.781932,"lng":-122.40872599999999,"title":"469 Stevenson St. (486 Jessie St.) - lot","ftype":"lot","amenities":["self_park","valet","paved","in_out","attendant"],"rating":{"avg":4.1,"count":819}},{"id":"85786","lat":37.78200799999999,"lng":-122.40925099999998,"title":"486 Jessie St. - Valet Assist Lot","ftype":"lot","amenities":["self_park","valet","paved","in_out","attendant"],"rating":{"avg":4.1,"count":819}},{"id":"85196","lat":37.79018070389999,"lng":-122.399278161,"title":"40 Stevenson St. - Valet (525 Market Garage)","ftype":"garage","amenities":["valet","covered","attendant","wheelchair_accessible"],"rating":{"avg":4.6,"count":304}},{"id":"9741","lat":37.79141,"lng":-122.40128599999998,"title":"220 Bush St. - The Mills Building Garage","ftype":"garage","amenities":["valet","covered","attendant","wheelchair_accessible"],"rating":{"avg":5,"count":1288}},{"id":"1848","lat":37.792863999999994,"lng":-122.40411299999997,"title":"15 Spring St. (580 California St.) - Valet","ftype":"garage","amenities":["valet","covered","attendant","wheelchair_accessible"],"rating":{"avg":5,"count":44}},{"id":"9812","lat":37.7917219,"lng":-122.40202,"title":"369 Pine St. - The Mills Building - Garage","ftype":"garage","amenities":["valet","covered","attendant","wheelchair_accessible"],"rating":{"avg":5,"count":1288}},{"id":"113216","lat":37.79109499999999,"lng":-122.39983399999997,"title":"1 Bush St. - One Bush Garage","ftype":"garage","amenities":["valet","covered","attendant"],"rating":{"avg":4.8,"count":48}},{"id":"13296","lat":37.7822079,"lng":-122.4048266,"title":"888 Howard St. - InterContinental San Francisco Valet Garage (Lot 370)","ftype":"garage","amenities":["valet","attendant","wheelchair_accessible","ev"],"rating":{"avg":4.9,"count":1367}},{"id":"93442","lat":37.783742,"lng":-122.41194799999998,"title":"265 Eddy St. - Garage","ftype":"garage","amenities":["valet","covered","attendant"],"rating":{"avg":4.2,"count":224}},{"id":"2997","lat":37.79355,"lng":-122.40409799999999,"title":"665 Sacramento St. - Valet (550 Kearny Garage)","ftype":"garage","amenities":["valet","covered","attendant","wheelchair_accessible"],"rating":{"avg":4.9,"count":567}},{"id":"133637","lat":37.782418,"lng":-122.41177399999995,"title":"64 Golden Gate Ave. - Valet Garage","ftype":"garage","amenities":["valet","covered","attendant"],"rating":{"avg":4.8,"count":150}},{"id":"5181","lat":37.789345299999994,"lng":-122.39967120000001,"title":"71 Stevenson St. - Valet Garage","ftype":"garage","amenities":["valet","covered","attendant","wheelchair_accessible"],"rating":{"avg":4.5,"count":50}},{"id":"9469","lat":37.79312300000001,"lng":-122.40310099999999,"title":"500 California St. - Omni San Francisco Valet","ftype":"valet_stand","amenities":["valet","attendant","wheelchair_accessible"],"rating":{"avg":4.7,"count":55}},{"id":"2030","lat":37.793546,"lng":-122.403764,"title":"635 Sacramento St. - Valet (550 California Garage)","ftype":"garage","amenities":["valet","covered","attendant","wheelchair_accessible","ev","car_wash"],"rating":{"avg":4.9,"count":746}},{"id":"84399","lat":37.79193289999999,"lng":-122.40031290000002,"title":"235 Pine St. - Valet Garage","ftype":"garage","amenities":["valet","covered","attendant"],"rating":{"avg":4.9,"count":669}},{"id":"87900","lat":37.7812336,"lng":-122.4045732,"title":"206 5th St. - Lot","ftype":"lot","amenities":["self_park","paved","in_out"],"rating":{"avg":4.1,"count":192}},{"id":"123910","lat":37.78112599999999,"lng":-122.40485899999997,"title":"206 5th St. - Lot (RV Parking)","ftype":"lot","amenities":["self_park","paved","touchless","in_out","attendant"],"rating":{"avg":5,"count":1}},{"id":"1972","lat":37.7936853,"lng":-122.40130520000001,"title":"240 Halleck St (343 Sansome St.) - Garage","ftype":"garage","amenities":["self_park","attendant","wheelchair_accessible","alley_access"],"rating":{"avg":4.8,"count":88}},{"id":"3655","lat":37.8065056,"lng":-122.40683169999998,"title":"2 Bay St. - Pier 35 Valet-Assist Lot","ftype":"lot","amenities":["self_park","paved","touchless","in_out","wheelchair_accessible"],"rating":{"avg":4.2,"count":152}},{"id":"100115","lat":37.806001,"lng":-122.40674199999998,"title":"80 Francisco St. - Garage","ftype":"garage","amenities":["self_park","covered"],"rating":{"avg":4.7,"count":909}},{"id":"100114","lat":37.80554500000001,"lng":-122.405568,"title":"55 Francisco St. - Garage","ftype":"garage","amenities":["self_park","covered"],"rating":{"avg":4.6,"count":715}},{"id":"3659","lat":37.805639768,"lng":-122.403575754,"title":"1280 The Embarcadero - Pier 29.5 Garage","ftype":"garage","amenities":["self_park","covered","touchless","in_out"],"rating":{"avg":4.8,"count":295}},{"id":"8478","lat":37.805422,"lng":-122.40201899999998,"title":"Pier 27 Lot","ftype":"lot","amenities":["self_park","paved","touchless","in_out"],"rating":{"avg":4.1,"count":245}},{"id":"148398","lat":37.776475,"lng":-122.439076,"title":"1355 Fulton St. - Valet Garage","ftype":"garage","amenities":["valet","covered","attendant"],"rating":{"avg":4.3,"count":60}},{"id":"163564","lat":37.782415,"lng":-122.43017899999998,"title":"1498 Ellis St. (1280 Webster St.) - Glad Tidings Church - Lot","ftype":"lot","amenities":["self_park","paved","touchless"],"rating":{"avg":0,"count":0}},{"id":"155591","lat":37.795114000000005,"lng":-122.408832,"title":"20 Trenton St. - Spots #1, #2, #3 or #4 Only","ftype":"lot","amenities":["self_park","paved","touchless","in_out"],"rating":{"avg":3.1,"count":21}},{"id":"128567","lat":37.795503,"lng":-122.40568199999998,"title":"732 Washington St. - Lot","ftype":"lot","amenities":["self_park","valet","paved","attendant"],"rating":{"avg":4.4,"count":72}},{"id":"17612","lat":37.7974329,"lng":-122.40787989999998,"title":"661 Broadway - Valet-Assist Garage","ftype":"garage","amenities":["self_park","valet","covered","attendant"],"rating":{"avg":4.6,"count":219}},{"id":"12658","lat":37.7956119,"lng":-122.40399939999998,"title":"622 Washington St. - Garage","ftype":"garage","amenities":["self_park","valet","covered","attendant","wheelchair_accessible"],"rating":{"avg":4.1,"count":572}},{"id":"40542","lat":37.794757999999995,"lng":-122.40206399999998,"title":"533 Clay St. (475 Sansome St.) - Garage","ftype":"garage","amenities":["valet","covered"],"rating":{"avg":4.7,"count":624}},{"id":"10757","lat":37.7967093,"lng":-122.4049101,"title":"138 Columbus Ave. - Garage","ftype":"garage","amenities":["self_park","valet","covered","attendant","wheelchair_accessible"],"rating":{"avg":4.5,"count":461}},{"id":"13418","lat":37.7981655,"lng":-122.40594599999997,"title":"530 Broadway St. - Valet Assist Lot","ftype":"lot","amenities":["self_park","valet","paved","attendant","wheelchair_accessible"],"rating":{"avg":4.7,"count":72}},{"id":"8169","lat":37.7984817,"lng":-122.40650169999998,"title":"65 Fresno St. - North Beach Parking Lot","ftype":"lot","amenities":["self_park","paved","attendant","wheelchair_accessible"],"rating":{"avg":4,"count":80}},{"id":"7185","lat":37.799441,"lng":-122.40803500000001,"title":"535 Green St. - North Beach Parking Valet Lot","ftype":"lot","amenities":["valet","paved","attendant","wheelchair_accessible"],"rating":{"avg":4.7,"count":178}},{"id":"17485","lat":37.798279799999996,"lng":-122.40509209999999,"title":"470 Broadway - Valet-Assist Lot","ftype":"lot","amenities":["self_park","valet","paved"],"rating":{"avg":3.1,"count":60}},{"id":"7452","lat":37.79966610000001,"lng":-122.4110945,"title":"1625 Powell St. - Valet Garage","ftype":"garage","amenities":["valet","attendant","wheelchair_accessible"],"rating":{"avg":4.3,"count":141}},{"id":"9326","lat":37.799892,"lng":-122.41039800000001,"title":"1636 Powell St. - North Beach Parking Valet Garage","ftype":"garage","amenities":["valet","covered","attendant","wheelchair_accessible"],"rating":{"avg":4.5,"count":278}},{"id":"18569","lat":37.79792920000001,"lng":-122.40429559999998,"title":"425 Broadway - Valet-Assist Lot","ftype":"lot","amenities":["self_park","valet","paved","attendant"],"rating":{"avg":4.5,"count":103}},{"id":"8815","lat":37.7964485,"lng":-122.40203179999996,"title":"635 Sansome St. (401 Jackson St.) - Lot","ftype":"lot","amenities":["self_park","touchless","in_out","attendant","wheelchair_accessible"],"rating":{"avg":4.3,"count":374}},{"id":"101965","lat":37.793863,"lng":-122.40037399999997,"title":"162 Halleck St (275 Battery St) - Garage","ftype":"garage","amenities":["valet","covered","attendant","wheelchair_accessible","car_wash"],"rating":{"avg":4.5,"count":542}},{"id":"5036","lat":37.7936228,"lng":-122.40061350000002,"title":"145 Halleck St. (300 California St.) - Valet Garage","ftype":"garage","amenities":["valet","covered","attendant"],"rating":{"avg":4.7,"count":51}},{"id":"85202","lat":37.797259267,"lng":-122.40188503399999,"title":"768 Sansome St. - Lot","ftype":"lot","amenities":["self_park","valet","paved","attendant","wheelchair_accessible"],"rating":{"avg":4.7,"count":1576}},{"id":"33812","lat":37.794915,"lng":-122.39905699999998,"title":"370 Front St. - Two Embarcadero Center Garage","ftype":"garage","amenities":["self_park","touchless","wheelchair_accessible"],"rating":{"avg":4.6,"count":2610}},{"id":"84957","lat":37.79788359999999,"lng":-122.4024967,"title":"825 Sansome St. - Garage","ftype":"garage","amenities":["valet","covered","in_out","attendant","wheelchair_accessible"],"rating":{"avg":4.4,"count":281}},{"id":"100131","lat":37.793082999999996,"lng":-122.39984099999998,"title":"190 Battery St (255 California St) - Valet Garage","ftype":"garage","amenities":["valet","covered","attendant"],"rating":{"avg":4.7,"count":187}},{"id":"5320","lat":37.7924037,"lng":-122.40004210000001,"title":"111 Battery St. - (345 California Center) - Garage","ftype":"garage","amenities":["valet","covered","attendant","ev"],"rating":{"avg":4.8,"count":388}},{"id":"87245","lat":37.798787000000004,"lng":-122.40202399999998,"title":"900 Sansome St. - Garage (Semi-Valet)","ftype":"garage","amenities":["self_park","covered","touchless","in_out"],"rating":{"avg":4.3,"count":530}},{"id":"143553","lat":37.79185999999999,"lng":-122.399339,"title":"36 Battery St. - One Front St. Valet Garage","ftype":"garage","amenities":["valet","covered","attendant"],"rating":{"avg":4.9,"count":196}},{"id":"97011","lat":37.799057,"lng":-122.40271499999999,"title":"955 Sansome St. - Garage (Semi-Valet)","ftype":"garage","amenities":["self_park","covered","touchless","wheelchair_accessible"],"rating":{"avg":4.6,"count":1227}},{"id":"56778","lat":37.77728530000001,"lng":-122.3908417,"title":"920 3rd St. (185 Berry St) - China Basin Garage","ftype":"garage","amenities":["self_park","covered","touchless","in_out"],"rating":{"avg":4.5,"count":223}},{"id":"5111","lat":37.78,"lng":-122.391481,"title":"136 Townsend St. - Garage","ftype":"garage","amenities":["self_park","valet","covered","attendant"],"rating":{"avg":4.5,"count":989}},{"id":"71200","lat":37.779656,"lng":-122.39172299999998,"title":"Audi Premium Garage at 153 Townsend Street (Daily Parking)","ftype":"garage","amenities":["self_park","covered","touchless","wheelchair_accessible","ev","alley_access"],"rating":{"avg":4.8,"count":1871}},{"id":"94893","lat":37.779992,"lng":-122.39217,"title":"148 Townsend St. - Valet Garage","ftype":"garage","amenities":["self_park","valet","covered","attendant"],"rating":{"avg":4.3,"count":1042}},{"id":"91041","lat":37.78056399999999,"lng":-122.39187600000001,"title":"56 Stanford St. - Lot","ftype":"lot","amenities":["self_park","paved","touchless","in_out","attendant","wheelchair_accessible"],"rating":{"avg":4.6,"count":1436}},{"id":"104501","lat":37.77723799999999,"lng":-122.393985,"title":"225 Townsend St. (250 King St.) - The Beacon","ftype":"garage","amenities":["self_park","covered","touchless","in_out"],"rating":{"avg":4.7,"count":1494}},{"id":"8416","lat":37.77971039999999,"lng":-122.3950849,"title":"424 Brannan St. - Valet Assist Lot","ftype":"lot","amenities":["self_park","valet","paved","attendant","wheelchair_accessible"],"rating":{"avg":4.5,"count":1298}},{"id":"8467","lat":37.77289199999999,"lng":-122.390053,"title":"495 Mission Rock St. - Stadium Parking Lot C","ftype":"lot","amenities":["self_park","paved"],"rating":{"avg":4.6,"count":1838}},{"id":"64666","lat":37.783889,"lng":-122.39272199999999,"title":"342 Bryant St. - Spot #5 Only","ftype":"lot","amenities":["self_park","paved","touchless","in_out"],"rating":{"avg":4.6,"count":104}},{"id":"14872","lat":37.7842335320802,"lng":-122.3945848441803,"title":"423 2nd St. - Lot","ftype":"lot","amenities":["valet","paved","attendant"],"rating":{"avg":4.8,"count":955}},{"id":"89460","lat":37.778927,"lng":-122.396357,"title":"470 Brannan St. - Lot","ftype":"lot","amenities":["self_park","paved","touchless","in_out","wheelchair_accessible"],"rating":{"avg":4.6,"count":701}},{"id":"12002","lat":37.7838882,"lng":-122.39540880000001,"title":"400 2nd St. - Lot","ftype":"lot","amenities":["self_park","paved","touchless","in_out","attendant"],"rating":{"avg":4.5,"count":377}},{"id":"59362","lat":37.773725,"lng":-122.38753400000002,"title":"Oracle Park - Lot A (Daily Parking)","ftype":"lot","amenities":["self_park","paved","touchless","in_out","wheelchair_accessible"],"rating":{"avg":4.7,"count":4929}},{"id":"1950","lat":37.79195349999999,"lng":-122.39851679999998,"title":"36 Front St. - Valet (388 Market Garage)","ftype":"garage","amenities":["valet","covered","attendant"],"rating":{"avg":4.9,"count":2055}},{"id":"108435","lat":37.794971000000004,"lng":-122.39890999999999,"title":"291 Davis St. - Two Embarcadero Center Garage","ftype":"garage","amenities":["self_park","touchless","wheelchair_accessible"],"rating":{"avg":4.6,"count":2610}},{"id":"108489","lat":37.795314,"lng":-122.39691000000002,"title":"266 Davis St. - Three Embarcadero Center Garage","ftype":"garage","amenities":["self_park","covered","touchless","ev"],"rating":{"avg":4.7,"count":3289}},{"id":"7974","lat":37.7936408,"lng":-122.39863130000002,"title":"150 California St. - Valet Garage","ftype":"garage","amenities":["valet","covered","attendant","wheelchair_accessible"],"rating":{"avg":4.4,"count":651}},{"id":"100537","lat":37.792796,"lng":-122.39868799999996,"title":"139 Front St (100 Pine St.) - Valet Garage","ftype":"garage","amenities":["valet","covered","attendant","wheelchair_accessible","car_wash"],"rating":{"avg":4.8,"count":643}},{"id":"33810","lat":37.795251,"lng":-122.39685,"title":"175 Drumm St. - Three Embarcadero Center Garage","ftype":"garage","amenities":["self_park","covered","touchless","ev"],"rating":{"avg":4.7,"count":3289}},{"id":"12922","lat":37.79286799999999,"lng":-122.397512,"title":"94 Davis St. - One California Street Garage","ftype":"garage","amenities":["valet","covered","attendant","wheelchair_accessible"],"rating":{"avg":4.3,"count":89}},{"id":"6348","lat":37.79441792629999,"lng":-122.39624729299999,"title":"Hyatt Regency San Francisco - Valet Stand (Lot 332)","ftype":"valet_stand","amenities":["valet","attendant","wheelchair_accessible"],"rating":{"avg":4.8,"count":53}},{"id":"11634","lat":37.791534199999994,"lng":-122.3976135,"title":"7 Fremont St (333 Market St.) - Valet Garage","ftype":"garage","amenities":["valet","covered","attendant","wheelchair_accessible"],"rating":{"avg":4.9,"count":328}},{"id":"13652","lat":37.7981822,"lng":-122.39962259999999,"title":"750 Front St. - North Park - Valet-Assist Garage","ftype":"garage","amenities":["valet","covered","attendant"],"rating":{"avg":4.9,"count":934}},{"id":"100344","lat":37.798317,"lng":-122.40081000000002,"title":"123 Broadway (750 Battery St) - Garage","ftype":"garage","amenities":["self_park","valet","covered","attendant","wheelchair_accessible"],"rating":{"avg":4.5,"count":343}},{"id":"29686","lat":37.790684199999994,"lng":-122.39850559999996,"title":"23 1st St. (455 Market St.) - Garage","ftype":"garage","amenities":["self_park","covered","touchless","attendant"],"rating":{"avg":4.6,"count":188}},{"id":"31039","lat":37.79095529999999,"lng":-122.39680569999999,"title":"77 Fremont St. (350 Mission St.) - Salesforce East Garage","ftype":"garage","amenities":["valet","covered","attendant"],"rating":{"avg":4.9,"count":909}},{"id":"12842","lat":37.797061686296246,"lng":-122.39607,"title":"301 N The Embarcadero - Seawall Lot","ftype":"lot","amenities":["self_park","paved","touchless","attendant","wheelchair_accessible"],"rating":{"avg":4.5,"count":1759}},{"id":"3664","lat":37.7991225165,"lng":-122.39804740999996,"title":"50 Broadway - Aqua Parking Lot","ftype":"lot","amenities":["self_park","paved","touchless","in_out","wheelchair_accessible"],"rating":{"avg":4.8,"count":229}},{"id":"31006","lat":37.7891244,"lng":-122.39817500000001,"title":"531 Mission St. (100 1st St.) - Valet Garage","ftype":"garage","amenities":["valet","covered","attendant"],"rating":{"avg":4.8,"count":1013}},{"id":"50838","lat":37.791635799999995,"lng":-122.3944599,"title":"123a Main St. (123 Mission St.) - Valet Assist Garage","ftype":"garage","amenities":["self_park","valet","covered"],"rating":{"avg":4.8,"count":275}},{"id":"14689","lat":37.791077099999995,"lng":-122.39430989999997,"title":"110 Main St. - Lot","ftype":"lot","amenities":["self_park","valet","paved","attendant"],"rating":{"avg":4.5,"count":844}},{"id":"87242","lat":37.791361,"lng":-122.393955,"title":"145 Main St. (160 Spear St.) - Garage","ftype":"garage","amenities":["self_park","valet","covered"],"rating":{"avg":4.7,"count":62}},{"id":"3658","lat":37.8007946802,"lng":-122.40017047600001,"title":"1050 Front St. - Big Triangle Lot","ftype":"lot","amenities":["self_park","paved","touchless","in_out","wheelchair_accessible"],"rating":{"avg":4.8,"count":238}},{"id":"5763","lat":37.7918989,"lng":-122.3928335,"title":"121 Spear St. - Rincon Center - Valet-Assist Garage","ftype":"garage","amenities":["self_park","valet","covered","attendant","wheelchair_accessible"],"rating":{"avg":4.1,"count":298}},{"id":"86395","lat":37.788032,"lng":-122.39697699999999,"title":"524 Howard St. - Lot","ftype":"lot","amenities":["self_park","valet","paved","attendant"],"rating":{"avg":4.5,"count":285}},{"id":"113144","lat":37.789143,"lng":-122.39424999999999,"title":"216 Beale St. (215 Fremont St.) - Garage","ftype":"garage","amenities":["self_park","covered"],"rating":{"avg":4.2,"count":195}},{"id":"36351","lat":37.79126289999999,"lng":-122.39201519999996,"title":"201 Spear St. - Garage","ftype":"garage","amenities":["valet","covered","attendant","wheelchair_accessible","ev"],"rating":{"avg":4.8,"count":940}},{"id":"26261","lat":37.783575,"lng":-122.39894550000001,"title":"300 3rd St. (350 3rd St.) - Museum Parc Garage","ftype":"garage","amenities":["self_park","covered","touchless","in_out","wheelchair_accessible"],"rating":{"avg":4.7,"count":1612}},{"id":"14936","lat":37.78544329999999,"lng":-122.398651,"title":"55 Hawthorne St. - Garage","ftype":"garage","amenities":["self_park","covered","touchless","ev"],"rating":{"avg":4.6,"count":198}},{"id":"6606","lat":37.7821587,"lng":-122.4004835,"title":"55 Mabini St - 795 Folsom Valet Garage (Lot 79)","ftype":"garage","amenities":["valet","covered","attendant","wheelchair_accessible"],"rating":{"avg":4.8,"count":60}},{"id":"88937","lat":37.782987,"lng":-122.39787499999998,"title":"395 3rd St. - Lot","ftype":"lot","amenities":["self_park","valet","paved"],"rating":{"avg":4.5,"count":1762}},{"id":"107496","lat":37.786106,"lng":-122.398057,"title":"164 Tehama St. (222 2nd St.) - Valet Garage","ftype":"garage","amenities":["valet","covered","attendant","wheelchair_accessible"],"rating":{"avg":4.8,"count":111}},{"id":"87110","lat":37.782287,"lng":-122.39729500000001,"title":"400 3rd St. - Lot","ftype":"lot","amenities":["self_park","valet","paved","in_out"],"rating":{"avg":4.1,"count":331}},{"id":"86491","lat":37.782253999999995,"lng":-122.39890400000002,"title":"1 Rizal St. (360 3rd St.) - Garage","ftype":"lot","amenities":["self_park","covered","touchless","in_out"],"rating":{"avg":4.8,"count":579}},{"id":"1948","lat":37.785961,"lng":-122.396817,"title":"299 2nd St. - The Clancy Hotel- Valet","ftype":"garage","amenities":["valet","covered","attendant","wheelchair_accessible","ev"],"rating":{"avg":4.1,"count":100}},{"id":"13970","lat":37.7871819,"lng":-122.39693709999999,"title":"60 Tehama St - Valet - Assist Lot","ftype":"lot","amenities":["self_park","valet","paved","wheelchair_accessible"],"rating":{"avg":4.5,"count":471}},{"id":"145920","lat":37.780807,"lng":-122.399276,"title":"777 Harrison St. - Valet Garage","ftype":"garage","amenities":["valet","covered","attendant"],"rating":{"avg":3.9,"count":85}},{"id":"116904","lat":37.781839,"lng":-122.39805299999998,"title":"725 Harrison St. - Semi-Valet - Lot","ftype":"lot","amenities":["self_park","paved","touchless","in_out"],"rating":{"avg":4.5,"count":403}},{"id":"6698","lat":37.787707,"lng":-122.39601279999998,"title":"17 Tehama St. - (505 Howard St.) Valet-Assist Garage (Lot 73)","ftype":"garage","amenities":["self_park","valet","covered","attendant","wheelchair_accessible"],"rating":{"avg":4.8,"count":916}},{"id":"5834","lat":37.78412560000001,"lng":-122.3958262,"title":"600 Harrison St. - Garage","ftype":"garage","amenities":["self_park","covered","attendant","wheelchair_accessible","ev"],"rating":{"avg":4.9,"count":794}},{"id":"51631","lat":37.78455919999999,"lng":-122.39568699999998,"title":"350 2nd St. - Lot","ftype":"lot","amenities":["valet","paved","in_out"],"rating":{"avg":4.5,"count":372}},{"id":"32329","lat":37.78465880000001,"lng":-122.39486029999999,"title":"582 Harrison St. (303 2nd St.) - Garage","ftype":"garage","amenities":["self_park","covered","touchless","attendant","wheelchair_accessible"],"rating":{"avg":4.6,"count":3658}},{"id":"94894","lat":37.778513999999994,"lng":-122.405158,"title":"301 6th St. - Lot","ftype":"lot","amenities":["self_park","paved","touchless","in_out"],"rating":{"avg":3.9,"count":168}},{"id":"69913","lat":37.778753,"lng":-122.39899499999999,"title":"645 Bryant St. (588 Brannan St.) - Covered Lot","ftype":"lot","amenities":["self_park","valet","paved"],"rating":{"avg":4.7,"count":799}},{"id":"5835","lat":37.786024999999995,"lng":-122.39584799999999,"title":"567 Folsom St. (303 2nd St.) - Garage","ftype":"garage","amenities":["self_park","covered","touchless","attendant","wheelchair_accessible"],"rating":{"avg":4.6,"count":3658}},{"id":"6900","lat":37.77796,"lng":-122.400747,"title":"450 5th St - Valet-Assist Lot","ftype":"lot","amenities":["self_park","valet","paved","wheelchair_accessible"],"rating":{"avg":4.6,"count":1408}},{"id":"13902","lat":37.786878,"lng":-122.39638059999999,"title":"60 Clementina St - Lot","ftype":"lot","amenities":["self_park","paved","attendant","wheelchair_accessible"],"rating":{"avg":4.4,"count":441}},{"id":"30543","lat":37.777012600000006,"lng":-122.39932139999999,"title":"572 5th St. (610 Brannan St.) - Lot","ftype":"lot","amenities":["self_park","paved","touchless","in_out","wheelchair_accessible"],"rating":{"avg":4.6,"count":1579}},{"id":"2794","lat":37.777581,"lng":-122.41745199999997,"title":"67 Hayes St. - Fox Plaza Garage (Lot 356)","ftype":"garage","amenities":["self_park","valet","covered","attendant","wheelchair_accessible"],"rating":{"avg":4.8,"count":222}},{"id":"83938","lat":37.77832879999999,"lng":-122.41436700000001,"title":"700 Stevenson St. - Hotel Whitcomb Valet Assist","ftype":"garage","amenities":["self_park","valet","paved","attendant","wheelchair_accessible","ev"],"rating":{"avg":4.8,"count":2849}},{"id":"86445","lat":37.78239099999999,"lng":-122.41887699999998,"title":"580 Turk St. - Embassy Hotel Lot","ftype":"lot","amenities":["self_park","paved","touchless","attendant"],"rating":{"avg":4.3,"count":128}},{"id":"93804","lat":37.78235599999999,"lng":-122.41807599999999,"title":"530 Turk St. - Lot","ftype":"lot","amenities":["self_park","paved","touchless"],"rating":{"avg":4.6,"count":138}},{"id":"105300","lat":37.777984,"lng":-122.414207,"title":"38 8th St (701 Stevenson St) - Valet Lot","ftype":"lot","amenities":["self_park","valet","paved","attendant","wheelchair_accessible"],"rating":{"avg":4.7,"count":696}},{"id":"7958","lat":37.778129699999994,"lng":-122.4137777,"title":"33 8th St. (1188 Mission St) - Trinity Place Garage","ftype":"garage","amenities":["self_park","covered","attendant","wheelchair_accessible","ev"],"rating":{"avg":4.6,"count":2470}},{"id":"55854","lat":37.781537,"lng":-122.42128799999998,"title":"739 Turk St. - Opera Plaza Valet Garage","ftype":"garage","amenities":["valet","covered"],"rating":{"avg":4.7,"count":946}},{"id":"8875","lat":37.77783776128389,"lng":-122.41379654416127,"title":"50 8th St. - BEI Hotel Garage","ftype":"garage","amenities":["self_park","covered","touchless"],"rating":{"avg":4.4,"count":515}},{"id":"11250","lat":37.776355,"lng":-122.4158259,"title":"840 Jessie St. (1355 Market St) - Market Square Garage","ftype":"garage","amenities":["self_park","covered","touchless","attendant","wheelchair_accessible"],"rating":{"avg":4,"count":195}},{"id":"83939","lat":37.775566999999995,"lng":-122.4170076,"title":"998 Jessie St (8 10th St. ) - NEMA Valet Garage","ftype":"garage","amenities":["valet","covered","attendant","wheelchair_accessible"],"rating":{"avg":4.4,"count":64}},{"id":"7282","lat":37.775427,"lng":-122.41680699999999,"title":"999 Jessie St. (1400 Mission St.) - Valet Garage","ftype":"garage","amenities":["valet","covered","attendant","wheelchair_accessible"],"rating":{"avg":3.9,"count":142}},{"id":"53182","lat":37.782137999999996,"lng":-122.42128259999998,"title":"740 Turk Street. (711 Van Ness Ave) - Garage","ftype":"valet_stand","amenities":["self_park","valet","covered","attendant"],"rating":{"avg":4.9,"count":248}},{"id":"5743","lat":37.7750262,"lng":-122.4179773,"title":"43 11th St. (1455 Market St.) - Garage","ftype":"garage","amenities":["self_park","valet","covered","attendant","wheelchair_accessible"],"rating":{"avg":4.7,"count":2643}},{"id":"3210","lat":37.7850634,"lng":-122.4211732,"title":"950 O'Farrell St. - 1000 Van Ness Garage","ftype":"garage","amenities":["self_park","covered","touchless","attendant","wheelchair_accessible"],"rating":{"avg":4.7,"count":795}},{"id":"101793","lat":37.775204,"lng":-122.419738,"title":"15 Oak St. - Lot","ftype":"lot","amenities":["self_park","paved","touchless","in_out"],"rating":{"avg":4.3,"count":714}},{"id":"114201","lat":37.776755,"lng":-122.41434099999998,"title":"35 Laskie St. (1270 Mission St.)  - Lot","ftype":"lot","amenities":["self_park","paved","touchless","in_out"],"rating":{"avg":3.8,"count":272}},{"id":"107268","lat":37.784045,"lng":-122.41679999999998,"title":"655 Ellis St. - Cova Hotel Valet Garage","ftype":"garage","amenities":["valet","covered","attendant","wheelchair_accessible"],"rating":{"avg":4.7,"count":226}},{"id":"6294","lat":37.783304,"lng":-122.41531900000001,"title":"469 Eddy St. - Valet Garage","ftype":"garage","amenities":["self_park","valet","covered","attendant","wheelchair_accessible"],"rating":{"avg":4.5,"count":360}},{"id":"15504","lat":37.7746147,"lng":-122.41748749999996,"title":"90 11th St. - 1550 Mission Street Garage","ftype":"garage","amenities":["valet","covered","attendant","wheelchair_accessible","ev"],"rating":{"avg":4.7,"count":289}},{"id":"97671","lat":37.775489,"lng":-122.42084100000001,"title":"110 Franklin St. - Semi-Valet Lot","ftype":"lot","amenities":["self_park","paved","touchless","in_out","wheelchair_accessible"],"rating":{"avg":4.7,"count":970}},{"id":"137456","lat":37.775081,"lng":-122.420623,"title":"98 Franklin St - Lot (Semi-Valet)","ftype":"lot","amenities":["self_park","valet","paved","attendant"],"rating":{"avg":4.9,"count":142}},{"id":"100082","lat":37.77887499999999,"lng":-122.41015899999998,"title":"121 7th St. - SoMa House  Valet Garage","ftype":"garage","amenities":["valet","covered","attendant","wheelchair_accessible"],"rating":{"avg":4.8,"count":169}},{"id":"88934","lat":37.77360099999999,"lng":-122.41759899999997,"title":"1537 Mission St - Lot 13","ftype":"lot","amenities":["self_park","paved","touchless","in_out"],"rating":{"avg":4.4,"count":459}},{"id":"88833","lat":37.773658,"lng":-122.418992,"title":"98 12th St (30 Otis St.) - Chorus  Valet Garage","ftype":"garage","amenities":["valet","covered","attendant"],"rating":{"avg":4.3,"count":150}},{"id":"107285","lat":37.780255,"lng":-122.40909499999998,"title":"1023 Mission St. - Garage","ftype":"garage","amenities":["valet","covered","in_out"],"rating":{"avg":4.8,"count":297}},{"id":"26793","lat":37.8008066,"lng":-122.41164099999996,"title":"721 Filbert St - Valet Garage","ftype":"garage","amenities":["valet","covered","attendant"],"rating":{"avg":4.6,"count":247}},{"id":"85300","lat":37.800481,"lng":-122.43696359999998,"title":"2055 Chestnut St. - Wells Fargo Lot - Lot","ftype":"lot","amenities":["self_park","paved","touchless","in_out","wheelchair_accessible"],"rating":{"avg":4.3,"count":873}},{"id":"156966","lat":37.798535,"lng":-122.44392299999998,"title":"2599 Lombard St. - La Luna Inn","ftype":"garage","amenities":["self_park","covered","touchless","in_out"],"rating":{"avg":5,"count":10}},{"id":"144470","lat":37.79797,"lng":-122.43103000000002,"title":"1910 Union St. - Valet Garage","ftype":"garage","amenities":["valet","covered","attendant"],"rating":{"avg":4.7,"count":26}},{"id":"6491","lat":37.76347859999999,"lng":-122.42254689999999,"title":"3434 17th St. - Valet Lot","ftype":"lot","amenities":["valet","paved","attendant","wheelchair_accessible"],"rating":{"avg":4.6,"count":803}},{"id":"17442","lat":37.7685148,"lng":-122.42115390000001,"title":"344 14th St. - Lot","ftype":"lot","amenities":["self_park","paved","attendant","wheelchair_accessible"],"rating":{"avg":4.7,"count":72}},{"id":"131721","lat":37.759343,"lng":-122.418897,"title":"2351 Mission St. - El Capitan Hotel - Lot","ftype":"lot","amenities":["self_park","paved","touchless","in_out","attendant"],"rating":{"avg":4.4,"count":287}},{"id":"134034","lat":37.783606,"lng":-122.43924799999999,"title":"2186 Geary Blvd. - Med Complex Lot","ftype":"lot","amenities":["valet","paved","attendant"],"rating":{"avg":4.6,"count":101}},{"id":"119808","lat":37.786628,"lng":-122.42370599999998,"title":"1314 Post St. - Lot","ftype":"lot","amenities":["self_park","paved","touchless","in_out","wheelchair_accessible"],"rating":{"avg":4.1,"count":544}},{"id":"99646","lat":37.784115,"lng":-122.44062399999999,"title":"2355 Post St. - Valet Assist Lot","ftype":"lot","amenities":["self_park","valet","paved","attendant"],"rating":{"avg":4.5,"count":389}},{"id":"11247","lat":37.78497229999999,"lng":-122.44067610000002,"title":"2453 Sutter St (1635 Divisadero) - Mount Zion Medical Garage","ftype":"garage","amenities":["self_park","covered","touchless","wheelchair_accessible"],"rating":{"avg":3.7,"count":12}}]}