{"generated_at":"2026-07-20T15:05:40.545Z","city":"nsh","calls":16,"failed":0,"count":260,"nonnull_pct":{"amenities":100,"rating":100,"ftype":100},"facilities":[{"id":"151549","lat":36.160426,"lng":-86.776435,"title":"315 Broadway - Lot","ftype":"lot","amenities":["self_park","paved","touchless","in_out","wheelchair_accessible"],"rating":{"avg":2.9,"count":20}},{"id":"113551","lat":36.162226999999994,"lng":-86.779148,"title":"138 Rep. John Lewis Wy. N - Lot P3715","ftype":"lot","amenities":["self_park","paved","touchless","in_out"],"rating":{"avg":4.6,"count":68}},{"id":"7255","lat":36.1631341,"lng":-86.7772781,"title":"310 Commerce St. - Commerce A Garage","ftype":"garage","amenities":["self_park","covered","attendant","wheelchair_accessible"],"rating":{"avg":4.7,"count":2191}},{"id":"100133","lat":36.16252000000001,"lng":-86.776977,"title":"128 4th Ave N. (333 Commerce St.) - Garage","ftype":"garage","amenities":["self_park","covered","touchless","wheelchair_accessible"],"rating":{"avg":4.4,"count":1719}},{"id":"107484","lat":36.160630999999995,"lng":-86.776474,"title":"110 4th Ave. S - Smead Lot","ftype":"lot","amenities":["self_park","paved","touchless","in_out"],"rating":{"avg":4.2,"count":95}},{"id":"92259","lat":36.162034,"lng":-86.777919,"title":"141 4th Ave. N (401 Commerce St.) - Truist Plaza Garage","ftype":"garage","amenities":["self_park","covered","touchless"],"rating":{"avg":4.4,"count":1447}},{"id":"100134","lat":36.159496,"lng":-86.776153,"title":"161 4th Ave South - Walk of Fame Park Garage","ftype":"garage","amenities":["self_park","covered","touchless","wheelchair_accessible"],"rating":{"avg":4.6,"count":1570}},{"id":"92258","lat":36.162689,"lng":-86.778633,"title":"147 4th Ave. N - 4th & Commerce Garage","ftype":"garage","amenities":["self_park","covered"],"rating":{"avg":4.3,"count":358}},{"id":"153855","lat":36.16211500000001,"lng":-86.776067,"title":"126 3rd Ave. N - Garage","ftype":"garage","amenities":["self_park","covered","touchless","in_out"],"rating":{"avg":4.3,"count":156}},{"id":"107491","lat":36.162521,"lng":-86.779953,"title":"147 Rep John Lewis Way N- MDHA Garage","ftype":"garage","amenities":["self_park","covered","attendant"],"rating":{"avg":4.5,"count":36}},{"id":"108038","lat":36.16190399999999,"lng":-86.779778,"title":"133 Rep. John Lewis Way N - Lot P3716","ftype":"lot","amenities":["self_park","paved","touchless","in_out","wheelchair_accessible","ev"],"rating":{"avg":4.6,"count":87}},{"id":"120945","lat":36.162536,"lng":-86.779261,"title":"144 5th Ave. N - L&C Garage","ftype":"garage","amenities":["self_park","covered","wheelchair_accessible"],"rating":{"avg":4.3,"count":28}},{"id":"114241","lat":36.158647,"lng":-86.780501,"title":"101 7th Ave. S (120 7th Ave. S) - First Baptist Lot B","ftype":"lot","amenities":["self_park","paved","touchless","wheelchair_accessible","alley_access"],"rating":{"avg":2.9,"count":8}},{"id":"109847","lat":36.163666,"lng":-86.778732,"title":"170 4th Ave. N - Courtyard Nashville Downtown Valet","ftype":"valet_stand","amenities":["valet"],"rating":{"avg":4.4,"count":215}},{"id":"9573","lat":36.164006,"lng":-86.778751,"title":"200 4th Ave. N - Noelle Nashville Valet","ftype":"valet_stand","amenities":["valet","attendant"],"rating":{"avg":3.6,"count":77}},{"id":"14334","lat":36.160785999999995,"lng":-86.77414799999997,"title":"134 2nd Ave. S - Lot","ftype":"lot","amenities":["self_park","touchless","attendant","wheelchair_accessible"],"rating":{"avg":2.9,"count":7}},{"id":"100668","lat":36.162874,"lng":-86.780381,"title":"505 Church St. - Valet","ftype":"valet_stand","amenities":["valet","covered","in_out","attendant","wheelchair_accessible"],"rating":{"avg":4.6,"count":136}},{"id":"8678","lat":36.16043669999999,"lng":-86.7811291,"title":"118 7th Ave. N - Holston House","ftype":"valet_stand","amenities":["self_park","valet","attendant"],"rating":{"avg":4.6,"count":390}},{"id":"115287","lat":36.15813,"lng":-86.779452,"title":"600 Demonbreun St. - First Baptist Lot C","ftype":"lot","amenities":["self_park","paved","touchless","in_out","wheelchair_accessible"],"rating":{"avg":3.9,"count":26}},{"id":"111756","lat":36.164202,"lng":-86.778967,"title":"210 4th Ave. N - Dream Hotel Nashville Valet Stand","ftype":"valet_stand","amenities":["self_park","attendant"],"rating":{"avg":4.1,"count":147}},{"id":"119677","lat":36.160472,"lng":-86.782008,"title":"125 7th Ave. N - Lot P3740","ftype":"lot","amenities":["self_park","paved","touchless","in_out","wheelchair_accessible"],"rating":{"avg":4.7,"count":129}},{"id":"114662","lat":36.158597,"lng":-86.780325,"title":"118 7th Ave. S - First Baptist Lot A","ftype":"lot","amenities":["self_park","paved","touchless","wheelchair_accessible","alley_access"],"rating":{"avg":4.7,"count":8}},{"id":"120704","lat":36.16015899999999,"lng":-86.773582,"title":"150 2nd Ave. S (100 Demonbreun St.) - Four Seasons Garage","ftype":"garage","amenities":["self_park","covered","touchless","wheelchair_accessible"],"rating":{"avg":4.4,"count":244}},{"id":"107493","lat":36.164139,"lng":-86.778325,"title":"314 Church St. - Printers Alley Garage","ftype":"garage","amenities":["self_park","covered","touchless","in_out"],"rating":{"avg":4.3,"count":173}},{"id":"119150","lat":36.163057,"lng":-86.781144,"title":"514 Church St. - Lot P3742","ftype":"lot","amenities":["self_park","paved","touchless","in_out","wheelchair_accessible"],"rating":{"avg":4.7,"count":107}},{"id":"9569","lat":36.164692,"lng":-86.779065,"title":"230 4th Ave. N - Nash Hotel - Valet","ftype":"valet_stand","amenities":["valet","covered","attendant","wheelchair_accessible"],"rating":{"avg":4.4,"count":85}},{"id":"16090","lat":36.1577104,"lng":-86.7747464,"title":"310 4th Ave. S - Hampton Inn Downtown Nashville - Valet","ftype":"garage","amenities":["valet","covered","attendant","wheelchair_accessible"],"rating":{"avg":4.5,"count":124}},{"id":"110805","lat":36.159499,"lng":-86.774124,"title":"212 3rd Ave. S (205 Demonbreun St.) - SoBro Tower Garage","ftype":"garage","amenities":["self_park","covered","touchless","in_out"],"rating":{"avg":4.5,"count":801}},{"id":"119148","lat":36.16001099999999,"lng":-86.782375,"title":"132 Rosa L Parks Blvd. - Lot P3736","ftype":"lot","amenities":["self_park","paved","touchless","in_out"],"rating":{"avg":4.8,"count":96}},{"id":"122186","lat":36.161944999999996,"lng":-86.780511,"title":"140 6th Ave. N - McKendree Garage","ftype":"garage","amenities":["self_park","covered","touchless"],"rating":{"avg":4.6,"count":301}},{"id":"119151","lat":36.164099,"lng":-86.777338,"title":"215 Church St. - Lot P3743","ftype":"lot","amenities":["self_park","paved","touchless","in_out","wheelchair_accessible"],"rating":{"avg":4.6,"count":30}},{"id":"107490","lat":36.157894,"lng":-86.781932,"title":"123 8th Ave. S - American Lot","ftype":"lot","amenities":["self_park","paved","touchless","in_out"],"rating":{"avg":4,"count":205}},{"id":"119413","lat":36.159711,"lng":-86.783051,"title":"Tempo by Hilton Valet. - 127 Rosa L Parks Blvd","ftype":"valet_stand","amenities":["valet","covered","attendant","wheelchair_accessible","ev"],"rating":{"avg":4.5,"count":116}},{"id":"136111","lat":36.1648,"lng":-86.779929,"title":"401 Union St. - Fairlane Hotel Nashville Valet Stand","ftype":"valet_stand","amenities":["valet","covered","attendant"],"rating":{"avg":4.2,"count":155}},{"id":"146761","lat":36.15958899999999,"lng":-86.773928,"title":"207 2nd Ave. S - SoBro Tower Garage","ftype":"garage","amenities":["self_park","covered","touchless","in_out","wheelchair_accessible"],"rating":{"avg":4,"count":271}},{"id":"90538","lat":36.157523000000005,"lng":-86.781009,"title":"118 8th Ave. S - Cambria Hotel Nashville Valet Garage","ftype":"garage","amenities":["valet","covered","attendant"],"rating":{"avg":4.3,"count":191}},{"id":"107489","lat":36.16465399999999,"lng":-86.777702,"title":"200 3rd Ave. N - Third Lot","ftype":"lot","amenities":["self_park","paved","touchless","in_out"],"rating":{"avg":3.8,"count":16}},{"id":"106905","lat":36.159494,"lng":-86.773294,"title":"222 2nd Ave. S – 222 Hines Garage","ftype":"garage","amenities":["self_park","covered","wheelchair_accessible"],"rating":{"avg":4.6,"count":378}},{"id":"14922","lat":36.15833249999999,"lng":-86.774236,"title":"301 3rd Ave. S - Hyatt Place - Garage","ftype":"garage","amenities":["self_park","covered","touchless","attendant","wheelchair_accessible"],"rating":{"avg":4.1,"count":60}},{"id":"125847","lat":36.164859,"lng":-86.777376,"title":"205 2nd Ave. N - White Front Garage- P3739 Lot","ftype":"garage","amenities":["self_park","covered","touchless","in_out","wheelchair_accessible"],"rating":{"avg":4.5,"count":78}},{"id":"77271","lat":36.157261999999996,"lng":-86.775414,"title":"Omni Nashville - Valet","ftype":"valet_stand","amenities":["valet","covered","attendant"],"rating":{"avg":4.9,"count":567}},{"id":"134448","lat":36.158728,"lng":-86.784247,"title":"920 Broadway - Self Park Lot","ftype":"lot","amenities":["self_park","paved","touchless","in_out","wheelchair_accessible"],"rating":{"avg":4.4,"count":152}},{"id":"139489","lat":36.15817899999999,"lng":-86.774059,"title":"311 3rd Ave. S - Motto by Hilton Nashville Downtown Valet","ftype":"valet_stand","amenities":["valet","covered","attendant","wheelchair_accessible"],"rating":{"avg":3.1,"count":3}},{"id":"122103","lat":36.164683,"lng":-86.778446,"title":"215 3rd Ave. N - Briley Lot","ftype":"lot","amenities":["self_park","paved","touchless","wheelchair_accessible"],"rating":{"avg":4.3,"count":67}},{"id":"119417","lat":36.156367,"lng":-86.775357,"title":"AC Hotel Valet . - 410 Rep. John Lewis Way S","ftype":"valet_stand","amenities":["valet","covered","attendant","wheelchair_accessible","ev"],"rating":{"avg":4.9,"count":16}},{"id":"79086","lat":36.158727999999996,"lng":-86.7842469,"title":"920 Broadway - Holiday Inn Express","ftype":"valet_stand","amenities":["valet","attendant","wheelchair_accessible"],"rating":{"avg":4.7,"count":221}},{"id":"116607","lat":36.156456999999996,"lng":-86.773901,"title":"416 4th Ave. S - Lot","ftype":"lot","amenities":["self_park","paved","touchless","in_out"],"rating":{"avg":4.8,"count":34}},{"id":"8145","lat":36.1568502,"lng":-86.7734621,"title":"305 Korean Veterans Blvd. - Hilton Garden Inn - Valet","ftype":"valet_stand","amenities":["valet","attendant","wheelchair_accessible"],"rating":{"avg":4.9,"count":241}},{"id":"109567","lat":36.158397,"lng":-86.773201,"title":"321 2nd Ave. S - Ragland Lot","ftype":"lot","amenities":["self_park","paved","touchless"],"rating":{"avg":4.3,"count":87}},{"id":"76314","lat":36.15597699999999,"lng":-86.774236,"title":"420 Peabody St. (415 4th Ave. S) - Holiday Inn & Suites","ftype":"garage","amenities":["self_park","covered","touchless","attendant"],"rating":{"avg":4.6,"count":574}},{"id":"119149","lat":36.162084,"lng":-86.783859,"title":"714 Church St. - Lot P3741","ftype":"lot","amenities":["self_park","paved","touchless","in_out","wheelchair_accessible"],"rating":{"avg":4.7,"count":63}},{"id":"164815","lat":36.156312,"lng":-86.780566,"title":"201 8th Ave. S - JW Marriott Valet","ftype":"valet_stand","amenities":["valet","covered","in_out","attendant"],"rating":{"avg":0,"count":0}},{"id":"6481","lat":36.1621098,"lng":-86.7833707,"title":"706 Church St. - Homewood Suites Valet","ftype":"valet_stand","amenities":["valet","covered","attendant","wheelchair_accessible"],"rating":{"avg":4,"count":6}},{"id":"163465","lat":36.165580000000006,"lng":-86.777968,"title":"201 Union St. - Washington Square Garage","ftype":"garage","amenities":["self_park","covered","touchless","in_out","wheelchair_accessible"],"rating":{"avg":5,"count":1}},{"id":"105448","lat":36.162503,"lng":-86.783348,"title":"207 7th Ave. N - Castner Knott Garage","ftype":"garage","amenities":["self_park","covered","touchless"],"rating":{"avg":4.7,"count":67}},{"id":"149451","lat":36.155739,"lng":-86.773255,"title":"504 4th Ave. S - Lot","ftype":"lot","amenities":["self_park","paved","touchless","in_out"],"rating":{"avg":4.7,"count":22}},{"id":"138345","lat":36.155363,"lng":-86.773848,"title":"515 4th Ave. S - Lot","ftype":"lot","amenities":["self_park","paved","touchless","in_out"],"rating":{"avg":4.2,"count":14}},{"id":"163185","lat":36.157311,"lng":-86.782307,"title":"800 Demonbreun St. (811 McGavock St.) - Lot","ftype":"lot","amenities":["self_park","paved","touchless","in_out"],"rating":{"avg":3,"count":3}},{"id":"149445","lat":36.155968,"lng":-86.773541,"title":"319 Peabody St. - Lot","ftype":"lot","amenities":["self_park","paved","touchless","in_out","wheelchair_accessible"],"rating":{"avg":4,"count":5}},{"id":"79581","lat":36.155521199999995,"lng":-86.7756842,"title":"425 Rep John Lewis Way S. - Margaritaville Hotel Nashville Valet","ftype":"garage","amenities":["valet","covered","attendant","wheelchair_accessible"],"rating":{"avg":3.6,"count":21}},{"id":"27474","lat":36.16297189999999,"lng":-86.782873,"title":"226 7th Ave N - Sheraton Grand Nashville Downtown - Garage","ftype":"garage","amenities":["self_park","covered","ev"],"rating":{"avg":4.6,"count":1526}},{"id":"26948","lat":36.156792,"lng":-86.783502,"title":"1011 Demonbreun St. - Gateway - Lot","ftype":"lot","amenities":["valet","paved"],"rating":{"avg":4.3,"count":353}},{"id":"136116","lat":36.163122999999985,"lng":-86.783776,"title":"231 7th Ave. N (711 Union St.) - The Capitol Hotel Valet Stand","ftype":"valet_stand","amenities":["self_park","valet","covered","attendant"],"rating":{"avg":4.3,"count":85}},{"id":"132865","lat":36.156048,"lng":-86.7728,"title":"307 Peabody St. (501 3rd Ave. S) - The Printing House Hotel Valet","ftype":"valet_stand","amenities":["valet","covered","attendant"],"rating":{"avg":4.6,"count":47}},{"id":"111625","lat":36.166121,"lng":-86.781808,"title":"400 Charlotte Ave. - Metro Transit Garage","ftype":"garage","amenities":["self_park","covered","touchless"],"rating":{"avg":4,"count":103}},{"id":"119152","lat":36.16503099999999,"lng":-86.776665,"title":"210 2nd Ave. N - Lot P3744","ftype":"lot","amenities":["self_park","paved","touchless","in_out","wheelchair_accessible"],"rating":{"avg":4.4,"count":35}},{"id":"121128","lat":36.160223,"lng":-86.784964,"title":"130 10th Ave. N (910 Exchange Ln.) - East Garage","ftype":"garage","amenities":["self_park","covered","in_out"],"rating":{"avg":4.8,"count":181}},{"id":"120214","lat":36.159742,"lng":-86.785718,"title":"131 10th Ave. N (21 Platform Way S.) - Lower Level  West Garage","ftype":"garage","amenities":["self_park","covered","touchless","in_out"],"rating":{"avg":4.4,"count":69}},{"id":"113739","lat":36.154485,"lng":-86.772968,"title":"600 4th Ave. S - Lot","ftype":"lot","amenities":["self_park","paved","touchless","in_out","wheelchair_accessible"],"rating":{"avg":5,"count":3}},{"id":"86811","lat":36.157333,"lng":-86.772149,"title":"Lot 23 - 418 2nd Ave S.","ftype":"lot","amenities":["self_park","paved","touchless","in_out","wheelchair_accessible"],"rating":{"avg":3.7,"count":111}},{"id":"119414","lat":36.155263,"lng":-86.780639,"title":"The Westin Nashville Valet. - 807 Clark Pl","ftype":"valet_stand","amenities":["valet","attendant"],"rating":{"avg":4.7,"count":42}},{"id":"104104","lat":36.154649,"lng":-86.773556,"title":"533 4th Ave. S - Lot","ftype":"lot","amenities":["self_park","paved","in_out"],"rating":{"avg":4.6,"count":18}},{"id":"157570","lat":36.157894,"lng":-86.772133,"title":"413 Hermitage Ave. (133 Korean Veterans Blvd.) - Lot","ftype":"lot","amenities":["self_park","paved","touchless","in_out"],"rating":{"avg":5,"count":1}},{"id":"112434","lat":36.154286,"lng":-86.774243,"title":"522 Rep. John Lewis Wy. S - White Lot","ftype":"lot","amenities":["self_park","paved","touchless"],"rating":{"avg":3.8,"count":14}},{"id":"95531","lat":36.154868,"lng":-86.776164,"title":"502 6th Ave. S - Peabody Street Parking Lot","ftype":"lot","amenities":["self_park","paved","touchless","in_out"],"rating":{"avg":4.8,"count":699}},{"id":"101104","lat":36.166634,"lng":-86.779821,"title":"301 James Robertson Pkwy. - Lot","ftype":"lot","amenities":["self_park","paved","touchless","in_out","attendant","wheelchair_accessible"],"rating":{"avg":4,"count":140}},{"id":"95533","lat":36.15444899999999,"lng":-86.777006,"title":"625 Peabody St. (660 Lafayette St.) - Music City Center Parking Lot","ftype":"lot","amenities":["self_park","paved","touchless","in_out","wheelchair_accessible"],"rating":{"avg":4.7,"count":101}},{"id":"97467","lat":36.154926999999994,"lng":-86.781577,"title":"300 10th Ave. S - Lot","ftype":"lot","amenities":["self_park","paved","touchless","wheelchair_accessible"],"rating":{"avg":4.7,"count":42}},{"id":"26755","lat":36.155299,"lng":-86.782103,"title":"209 10th Ave. S - Lot A","ftype":"lot","amenities":["self_park","paved","touchless"],"rating":{"avg":4.7,"count":124}},{"id":"130480","lat":36.15739399999999,"lng":-86.771112,"title":"94 Peabody St. - Kitch Lot","ftype":"lot","amenities":["self_park","paved","touchless"],"rating":{"avg":3.9,"count":7}},{"id":"130471","lat":36.155851,"lng":-86.771582,"title":"517 President Ronald Reagan Wy. (511 2nd Ave. S) - 2nd & Lea Lot","ftype":"lot","amenities":["self_park","paved","touchless"],"rating":{"avg":4.2,"count":4}},{"id":"91042","lat":36.156127999999995,"lng":-86.77134,"title":"500 2nd Ave. - Cumulus Lot","ftype":"lot","amenities":["self_park","paved","touchless","in_out","wheelchair_accessible"],"rating":{"avg":4.7,"count":464}},{"id":"27078","lat":36.15499199999999,"lng":-86.782956,"title":"Cummins Station (Top Landport) - Lot","ftype":"lot","amenities":["self_park","paved","touchless"],"rating":{"avg":4.6,"count":33}},{"id":"152042","lat":36.157121,"lng":-86.770271,"title":"9 Hermitage Ave. - Shell Lot","ftype":"lot","amenities":["self_park","paved","touchless","in_out","wheelchair_accessible"],"rating":{"avg":3.4,"count":11}},{"id":"114561","lat":36.153788999999996,"lng":-86.775651,"title":"520 Lea Ave. - Lot","ftype":"lot","amenities":["self_park","paved","touchless"],"rating":{"avg":4.9,"count":20}},{"id":"94827","lat":36.157507,"lng":-86.769772,"title":"10 Lea Ave. - Peabody Plaza Garage","ftype":"garage","amenities":["self_park","covered","touchless","in_out"],"rating":{"avg":4.5,"count":225}},{"id":"120239","lat":36.15823399999999,"lng":-86.770256,"title":"92 Peabody St. - Rolling Mill Hill Lot","ftype":"lot","amenities":["self_park","paved","touchless","in_out","wheelchair_accessible"],"rating":{"avg":4.5,"count":30}},{"id":"26947","lat":36.154234,"lng":-86.781595,"title":"Bottom Landport - Lot - 398 10th Ave S","ftype":"lot","amenities":["self_park","paved","touchless","in_out"],"rating":{"avg":3.5,"count":34}},{"id":"115980","lat":36.158006,"lng":-86.769956,"title":"90 Peabody St. (77 Guthrie St.) - Peabody Union South Garage","ftype":"garage","amenities":["self_park","covered","touchless","in_out","wheelchair_accessible","alley_access"],"rating":{"avg":4.6,"count":457}},{"id":"113266","lat":36.15307,"lng":-86.777141,"title":"639 Lafayette St. - Nashville Rescue Mission Lot","ftype":"lot","amenities":["self_park","paved","touchless","in_out","wheelchair_accessible"],"rating":{"avg":3.7,"count":45}},{"id":"103968","lat":36.154364,"lng":-86.779875,"title":"800 Lea Ave. - Lot","ftype":"lot","amenities":["self_park","paved","touchless","in_out","wheelchair_accessible"],"rating":{"avg":4.7,"count":407}},{"id":"115849","lat":36.16757199999999,"lng":-86.77769,"title":"101 James Robertson Pkwy. - Courthouse Garage","ftype":"garage","amenities":["self_park","covered","touchless","wheelchair_accessible","ev"],"rating":{"avg":4.6,"count":430}},{"id":"95256","lat":36.15365499999999,"lng":-86.772813,"title":"Lot 20 - 625 4th Ave. S","ftype":"lot","amenities":["self_park","paved","touchless","in_out","wheelchair_accessible"],"rating":{"avg":4.6,"count":244}},{"id":"113268","lat":36.1535184,"lng":-86.7710747,"title":"348 Elm St. (705 3rd Ave. S) - Lot","ftype":"lot","amenities":["self_park","paved","touchless","in_out","wheelchair_accessible"],"rating":{"avg":4.7,"count":22}},{"id":"130470","lat":36.152961999999995,"lng":-86.771527,"title":"712 4th Ave. S - BNA South Lot","ftype":"lot","amenities":["self_park","paved","touchless","in_out","wheelchair_accessible"],"rating":{"avg":0,"count":0}},{"id":"149754","lat":36.15306999999999,"lng":-86.771096,"title":"348 Ash St. (719 3rd Ave. S) - Lot","ftype":"lot","amenities":["self_park","paved","touchless","in_out"],"rating":{"avg":3.4,"count":11}},{"id":"109933","lat":36.155824,"lng":-86.76921,"title":"34 Rutledge St. - The Hill Lot","ftype":"lot","amenities":["self_park","paved","touchless"],"rating":{"avg":4,"count":5}},{"id":"116115","lat":36.156122,"lng":-86.768484,"title":"37 Lea Ave. (35 Hermitage Ave.) - Behind The Hill Lot","ftype":"lot","amenities":["self_park","paved","touchless"],"rating":{"avg":1,"count":2}},{"id":"161548","lat":36.155983,"lng":-86.767977,"title":"43 Hermitage Ave. - Lot","ftype":"lot","amenities":["self_park","paved","touchless","in_out"],"rating":{"avg":0,"count":0}},{"id":"94993","lat":36.156923,"lng":-86.768337,"title":"15 Lea Ave. - Bus Barns Garage","ftype":"garage","amenities":["self_park","covered","attendant"],"rating":{"avg":4.3,"count":64}},{"id":"26795","lat":36.15360769999998,"lng":-86.78126420000001,"title":"821 Palmer Place- Lot B","ftype":"lot","amenities":["self_park","paved","touchless"],"rating":{"avg":4.4,"count":52}},{"id":"130478","lat":36.151825,"lng":-86.7781,"title":"635 7th Ave. S (629 7th Ave. S) - Hyve Lower Garage","ftype":"garage","amenities":["self_park","covered","touchless"],"rating":{"avg":3.3,"count":35}},{"id":"92991","lat":36.151140999999996,"lng":-86.776034,"title":"717 Ewing Ave. - Camera Lot","ftype":"lot","amenities":["self_park","paved","touchless","in_out"],"rating":{"avg":4.6,"count":69}},{"id":"124076","lat":36.154830999999994,"lng":-86.784477,"title":"220 11th Ave. S (1033 Demonbreun St.) - Gulch Crossings Garage","ftype":"garage","amenities":["self_park","covered","touchless"],"rating":{"avg":4.6,"count":28}},{"id":"123757","lat":36.154266,"lng":-86.78496,"title":"225 11th Ave. S - Lower Cummins Laurel House Lot","ftype":"lot","amenities":["self_park","paved","touchless"],"rating":{"avg":5,"count":7}},{"id":"123755","lat":36.153404,"lng":-86.783265,"title":"320 11th Ave. S - Velocity Mrktst Garage","ftype":"garage","amenities":["self_park","covered","touchless"],"rating":{"avg":4.5,"count":48}},{"id":"113746","lat":36.17065759999999,"lng":-86.7686183,"title":"110 Interstate Dr. - Lot","ftype":"lot","amenities":["self_park","paved","touchless","in_out","wheelchair_accessible"],"rating":{"avg":4.4,"count":51}},{"id":"113264","lat":36.17145099999999,"lng":-86.764712,"title":"414 Woodland St. (120 South 5th St.) - Eastside Heights Garage","ftype":"garage","amenities":["self_park","covered","touchless","in_out","wheelchair_accessible"],"rating":{"avg":4.6,"count":7}},{"id":"113738","lat":36.172487999999994,"lng":-86.76724,"title":"14 James Robertson Pkwy. - Lot","ftype":"lot","amenities":["self_park","paved","touchless","in_out","wheelchair_accessible"],"rating":{"avg":3.8,"count":18}},{"id":"109563","lat":36.145778,"lng":-86.813239,"title":"113 28th Ave. N - Jed S Lot","ftype":"lot","amenities":["self_park","paved","touchless"],"rating":{"avg":4.5,"count":42}},{"id":"119282","lat":36.14522899999999,"lng":-86.809107,"title":"Nashville Marriott at Vanderbilt University Valet. - 130 Natchez Trace (2555 West End Ave.)","ftype":"valet_stand","amenities":["valet","attendant","wheelchair_accessible"],"rating":{"avg":4.7,"count":17}},{"id":"132943","lat":36.14485999999999,"lng":-86.811011,"title":"2613 W End Ave. - Holiday Inn Nashville-Vanderbilt Lot","ftype":"lot","amenities":["self_park","paved","touchless","attendant","wheelchair_accessible"],"rating":{"avg":4.3,"count":50}},{"id":"96114","lat":36.145355,"lng":-86.814174,"title":"109 29th Ave. N - Fairfield Inn & Suites Nashville Near Vanderbilt Garage","ftype":"garage","amenities":["self_park","touchless","in_out","attendant","wheelchair_accessible"],"rating":{"avg":4.6,"count":70}},{"id":"142326","lat":36.14514799999999,"lng":-86.813071,"title":"2814 West End Ave. - Lot 41","ftype":"lot","amenities":["self_park","paved","touchless","in_out","wheelchair_accessible"],"rating":{"avg":4.3,"count":11}},{"id":"111626","lat":36.14965,"lng":-86.808093,"title":"217 24th Ave. N - Ice Lot","ftype":"lot","amenities":["self_park","paved","touchless"],"rating":{"avg":3.7,"count":7}},{"id":"121623","lat":36.15225199999999,"lng":-86.819231,"title":"4 City Blvd. - Element Nashville Vanderbilt West End Valet","ftype":"valet_stand","amenities":["valet","covered","attendant","wheelchair_accessible"],"rating":{"avg":3.1,"count":9}},{"id":"109566","lat":36.150946,"lng":-86.806537,"title":"2308 Brandau Pl. (201 23rd Ave. N) - TMFM Lot","ftype":"lot","amenities":["self_park","paved","touchless"],"rating":{"avg":4.5,"count":15}},{"id":"119416","lat":36.148139,"lng":-86.80691,"title":"Homewood Suites Vanderbilt Valet. - 2400 W End Ave","ftype":"valet_stand","amenities":["valet","attendant","wheelchair_accessible"],"rating":{"avg":4,"count":15}},{"id":"106984","lat":36.15136,"lng":-86.805165,"title":"207 Louise Ave. - Elliston Place Garage","ftype":"garage","amenities":["self_park","covered","touchless"],"rating":{"avg":4.3,"count":7}},{"id":"156142","lat":36.151053999999995,"lng":-86.820222,"title":"8 City Pl. (8 City Ave.) - ONEC1TY Garage","ftype":"garage","amenities":["self_park","covered","touchless","in_out","wheelchair_accessible"],"rating":{"avg":5,"count":1}},{"id":"20711","lat":36.149246999999995,"lng":-86.8052864,"title":"107 23rd Ave. N (2305 Elliston Pl.) - Grace Lot","ftype":"lot","amenities":["self_park","paved","touchless","in_out"],"rating":{"avg":4.5,"count":91}},{"id":"143875","lat":36.15140800000001,"lng":-86.804381,"title":"204 Louise Ave. (2208 Elliston Pl.) - Lot","ftype":"lot","amenities":["self_park","paved","touchless","in_out","wheelchair_accessible"],"rating":{"avg":4.7,"count":4}},{"id":"113548","lat":36.151751,"lng":-86.804772,"title":"206 Louise Ave. - Lot P3724","ftype":"lot","amenities":["self_park","paved","touchless","in_out"],"rating":{"avg":5,"count":3}},{"id":"126672","lat":36.150974,"lng":-86.804204,"title":"2221 Elliston Pl. - Holiday Inn Express Nashville West End Valet","ftype":"valet_stand","amenities":["self_park","valet","paved","attendant"],"rating":{"avg":4,"count":14}},{"id":"82980","lat":36.152318099999995,"lng":-86.790644,"title":"1515 Demonbreun St. - Garage","ftype":"garage","amenities":["self_park","covered","touchless","in_out"],"rating":{"avg":4,"count":22}},{"id":"114430","lat":36.153602,"lng":-86.793059,"title":"1601 Broadway - Lot 34","ftype":"lot","amenities":["self_park","paved","touchless","in_out"],"rating":{"avg":4.8,"count":132}},{"id":"102945","lat":36.15270399999999,"lng":-86.793807,"title":"111 17th Ave. S - Skyhouse Nashville","ftype":"garage","amenities":["self_park","covered","touchless","in_out"],"rating":{"avg":4.8,"count":193}},{"id":"113271","lat":36.152021999999995,"lng":-86.792374,"title":"600 Music Sq. W (1600 Division St.) - Roundabout Garage","ftype":"garage","amenities":["self_park","covered","touchless","in_out","wheelchair_accessible"],"rating":{"avg":3.6,"count":23}},{"id":"132061","lat":36.15285099999999,"lng":-86.792556,"title":"115 16th Ave. S - Lot","ftype":"lot","amenities":["self_park","paved","touchless","in_out","wheelchair_accessible"],"rating":{"avg":4.3,"count":2}},{"id":"147118","lat":36.151755,"lng":-86.793153,"title":"1 Music Sq. W - Virgin Hotels Valet Stand","ftype":"valet_stand","amenities":["valet","attendant","ev"],"rating":{"avg":4.4,"count":11}},{"id":"113265","lat":36.15383299999999,"lng":-86.788747,"title":"1500 Demonbreun St. - Lot","ftype":"lot","amenities":["self_park","paved","touchless","in_out","wheelchair_accessible"],"rating":{"avg":4.9,"count":8}},{"id":"130732","lat":36.153629,"lng":-86.789036,"title":"1504 Demonbreun St. - Rhythm Lot","ftype":"lot","amenities":["self_park","paved","touchless"],"rating":{"avg":0,"count":0}},{"id":"10225","lat":36.151503,"lng":-86.787824,"title":"1302 Division St. - Lewis Lot","ftype":"lot","amenities":["self_park","paved","touchless","in_out","wheelchair_accessible"],"rating":{"avg":3.3,"count":5}},{"id":"121195","lat":36.15153899999999,"lng":-86.794373,"title":"1800 Division St. - Home2 Suites by Hilton Nashville Vanderbilt Valet Stand","ftype":"valet_stand","amenities":["valet","covered","attendant","wheelchair_accessible"],"rating":{"avg":0,"count":0}},{"id":"113272","lat":36.153633,"lng":-86.790544,"title":"1525 McGavock St. - Lot","ftype":"lot","amenities":["self_park","paved","touchless","in_out","wheelchair_accessible"],"rating":{"avg":4.7,"count":3}},{"id":"92255","lat":36.154,"lng":-86.786752,"title":"1201 Demonbreun St. - Garage","ftype":"garage","amenities":["self_park","covered","wheelchair_accessible"],"rating":{"avg":4.7,"count":50}},{"id":"20393","lat":36.154451300000005,"lng":-86.78762549999999,"title":"1222 Demonbreun St. - Garage P3706","ftype":"garage","amenities":["self_park","covered","touchless","in_out"],"rating":{"avg":4.9,"count":373}},{"id":"121194","lat":36.152142999999995,"lng":-86.794766,"title":"1715 Broadway St. - Hilton Garden Inn Vanderbilt Valet Stand","ftype":"valet_stand","amenities":["valet","covered","attendant","wheelchair_accessible"],"rating":{"avg":0,"count":0}},{"id":"134902","lat":36.14820199999999,"lng":-86.793226,"title":"1611 Chet Atkins Pl. (50 Music Sq. W) - Motif Hotel Nashville Valet","ftype":"valet_stand","amenities":["self_park","valet","covered","attendant"],"rating":{"avg":2.2,"count":2}},{"id":"146449","lat":36.147682,"lng":-86.792645,"title":"55 Music Square","ftype":"lot","amenities":["self_park","paved","touchless","in_out","wheelchair_accessible"],"rating":{"avg":5,"count":1}},{"id":"101890","lat":36.15067,"lng":-86.794744,"title":"Lot 36 - 709 18th Ave. S","ftype":"lot","amenities":["self_park","paved","touchless","in_out"],"rating":{"avg":3.5,"count":15}},{"id":"124075","lat":36.154638,"lng":-86.785966,"title":"202 12th Ave. S - Cummins Signs Lot","ftype":"lot","amenities":["self_park","paved","touchless"],"rating":{"avg":4.8,"count":16}},{"id":"108426","lat":36.150096,"lng":-86.796051,"title":"809 19th Ave. S (1901 Division St.) - Lot","ftype":"lot","amenities":["self_park","paved","touchless"],"rating":{"avg":4.2,"count":4}},{"id":"136109","lat":36.15147399999999,"lng":-86.785231,"title":"1200 Division St. - Lot P3751","ftype":"lot","amenities":["self_park","paved","touchless","in_out","wheelchair_accessible"],"rating":{"avg":4.9,"count":16}},{"id":"128755","lat":36.151092,"lng":-86.795878,"title":"1811 Broadway - Embassy Suites by Hilton Nashville at Vanderbilt - Garage","ftype":"garage","amenities":["self_park","covered","attendant","wheelchair_accessible"],"rating":{"avg":2.7,"count":5}},{"id":"109961","lat":36.15271599999999,"lng":-86.796111,"title":"159 18th Ave. S (1801 West End Ave.) - Palmer Plaza Garage","ftype":"garage","amenities":["self_park","covered","touchless"],"rating":{"avg":4.9,"count":25}},{"id":"143466","lat":36.150224,"lng":-86.795524,"title":"800 19th Ave. S - Kenect Nashville Garage","ftype":"garage","amenities":["self_park","covered","touchless","in_out"],"rating":{"avg":4.5,"count":14}},{"id":"31566","lat":36.152931,"lng":-86.79562229999999,"title":"154 18th Ave. S (1719 W End Ave.) - Aloft Hotel Nashville West End - Self Park - Garage","ftype":"garage","amenities":["self_park","covered","touchless","attendant","wheelchair_accessible","heated"],"rating":{"avg":4.5,"count":30}},{"id":"113545","lat":36.155255,"lng":-86.787202,"title":"1207 McGavock St. - Lot P3707","ftype":"lot","amenities":["self_park","paved","touchless","in_out"],"rating":{"avg":4.9,"count":35}},{"id":"128752","lat":36.151092,"lng":-86.795878,"title":"1811 Broadway - Embassy Suites by Hilton Nashville at Vanderbilt - Valet Stand","ftype":"valet_stand","amenities":["valet","covered","attendant","wheelchair_accessible"],"rating":{"avg":0,"count":0}},{"id":"117102","lat":36.149409,"lng":-86.79559,"title":"818 19th Ave. S - The Morris Garage","ftype":"garage","amenities":["self_park","covered","touchless","in_out","wheelchair_accessible"],"rating":{"avg":4.3,"count":29}},{"id":"147119","lat":36.151578,"lng":-86.796284,"title":"1810 Broadway - Hotel Fraye Valet Stand","ftype":"valet_stand","amenities":["valet","attendant"],"rating":{"avg":5,"count":1}},{"id":"102952","lat":36.15640799999999,"lng":-86.792193,"title":"1518 Hayes St. - Lot","ftype":"lot","amenities":["self_park","paved","touchless","in_out"],"rating":{"avg":4.7,"count":4}},{"id":"114565","lat":36.15574,"lng":-86.787152,"title":"1204 McGavock St. (109 12th Ave. S) - 109 12th Ave. S Lot","ftype":"lot","amenities":["self_park","paved","touchless"],"rating":{"avg":4.7,"count":57}},{"id":"106983","lat":36.153184,"lng":-86.785667,"title":"1201 Laurel St. - Data Lot in the Gulch","ftype":"lot","amenities":["self_park","paved","touchless"],"rating":{"avg":4.9,"count":58}},{"id":"102962","lat":36.15088999999999,"lng":-86.784751,"title":"701 12th Ave. S - Lot","ftype":"lot","amenities":["self_park","paved","touchless","in_out"],"rating":{"avg":4.7,"count":12}},{"id":"147116","lat":36.156745,"lng":-86.794618,"title":"1612 Church St. - Cambria Midtown Valet Stand","ftype":"valet_stand","amenities":["valet","paved","attendant"],"rating":{"avg":0,"count":0}},{"id":"122104","lat":36.149743,"lng":-86.797244,"title":"1915 Division St. - Salon Lot","ftype":"lot","amenities":["self_park","paved","touchless","wheelchair_accessible"],"rating":{"avg":3.9,"count":16}},{"id":"108028","lat":36.14691899999999,"lng":-86.792843,"title":"1653 Music Sq. S (67 Music Sq. E) - Lot P3709","ftype":"lot","amenities":["self_park","paved","touchless","in_out","wheelchair_accessible"],"rating":{"avg":5,"count":5}},{"id":"146865","lat":36.148176,"lng":-86.793863,"title":"908 18th Ave. S (49 Music Sq. W) - Music Square Garage","ftype":"garage","amenities":["self_park","covered","touchless","in_out","wheelchair_accessible"],"rating":{"avg":5,"count":5}},{"id":"124073","lat":36.151634,"lng":-86.783658,"title":"1108 Division St. (600 12th Ave. S) - Icon Garage","ftype":"garage","amenities":["self_park","covered","touchless"],"rating":{"avg":4.8,"count":11}},{"id":"122184","lat":36.14887,"lng":-86.796282,"title":"1902 Chet Atkins Pl. (827 19th Ave. S) - Moore Building Garage","ftype":"garage","amenities":["self_park","covered","touchless"],"rating":{"avg":4.1,"count":9}},{"id":"109949","lat":36.155868,"lng":-86.788251,"title":"1221 Broadway - One22One Garage","ftype":"garage","amenities":["self_park","covered","touchless"],"rating":{"avg":4.6,"count":48}},{"id":"112442","lat":36.145337000000005,"lng":-86.79248,"title":"1016 16th Ave. S - Trio Music City Lot","ftype":"lot","amenities":["self_park","paved","touchless"],"rating":{"avg":5,"count":1}},{"id":"109941","lat":36.146375000000006,"lng":-86.794276,"title":"1005 17th Ave. S - 17th And Grand Garage","ftype":"garage","amenities":["self_park","covered","touchless"],"rating":{"avg":4.1,"count":4}},{"id":"14392","lat":36.15286999999999,"lng":-86.79708199999999,"title":"1808 West End Ave. - Hutton Hotel Valet - Assist Garage","ftype":"garage","amenities":["valet","covered","attendant","wheelchair_accessible","ev"],"rating":{"avg":1,"count":1}},{"id":"114566","lat":36.151356,"lng":-86.797709,"title":"110 Lyle Ave. - The Row Lot","ftype":"lot","amenities":["self_park","paved","touchless"],"rating":{"avg":5,"count":21}},{"id":"111627","lat":36.156941999999994,"lng":-86.792953,"title":"1501 Church St. - Med Supply Lot","ftype":"lot","amenities":["self_park","paved"],"rating":{"avg":4.8,"count":25}},{"id":"106982","lat":36.152558,"lng":-86.785817,"title":"1208 Pine St. - Contractors Lot","ftype":"lot","amenities":["self_park","paved","touchless"],"rating":{"avg":4.9,"count":22}},{"id":"124074","lat":36.151821,"lng":-86.785057,"title":"1209 Pine St. - Javanco Lot Mercury View","ftype":"lot","amenities":["self_park","paved","touchless"],"rating":{"avg":5,"count":10}},{"id":"147121","lat":36.148599,"lng":-86.79859,"title":"2021 Broadway - Kimpton Aertson Hotel Valet Stand","ftype":"valet_stand","amenities":["valet","attendant","wheelchair_accessible","ev"],"rating":{"avg":3.9,"count":7}},{"id":"108026","lat":36.151071,"lng":-86.782681,"title":"609 Overton St. (1002 Division St.) - Garage P3728","ftype":"garage","amenities":["self_park","covered","in_out","wheelchair_accessible"],"rating":{"avg":4.6,"count":82}},{"id":"111638","lat":36.149312,"lng":-86.78524,"title":"801 12th Ave. S - Novel Edgehill Garage","ftype":"garage","amenities":["self_park","covered","touchless"],"rating":{"avg":5,"count":4}},{"id":"9320","lat":36.151795,"lng":-86.797575,"title":"Courtyard by Marriott Nashville West End","ftype":"garage","amenities":["self_park","paved","touchless","attendant","wheelchair_accessible"],"rating":{"avg":5,"count":3}},{"id":"136159","lat":36.156511,"lng":-86.788525,"title":"111 12th Ave. N (1200 Broadway) - Garage","ftype":"garage","amenities":["self_park","covered","in_out"],"rating":{"avg":3.7,"count":4}},{"id":"116116","lat":36.145987,"lng":-86.794835,"title":"1010 18th Ave. S Lot","ftype":"lot","amenities":["self_park","paved","touchless"],"rating":{"avg":4.6,"count":6}},{"id":"115344","lat":36.156722,"lng":-86.7963,"title":"216 17th Ave. N - Lot","ftype":"lot","amenities":["self_park","paved","touchless","in_out"],"rating":{"avg":5,"count":2}},{"id":"106987","lat":36.14834199999999,"lng":-86.78491,"title":"1100 Hawkins St. - Auto Body Lot","ftype":"lot","amenities":["self_park","paved"],"rating":{"avg":0,"count":0}},{"id":"113267","lat":36.15739909999999,"lng":-86.7928189,"title":"212 McMillin St. (1500 Church St.) - Lot","ftype":"lot","amenities":["self_park","paved","touchless","in_out","wheelchair_accessible"],"rating":{"avg":0,"count":0}},{"id":"134921","lat":36.150482999999994,"lng":-86.800156,"title":"2001 Terrace Pl. - Lot","ftype":"lot","amenities":["self_park","paved","touchless","in_out","wheelchair_accessible"],"rating":{"avg":4.8,"count":23}},{"id":"126476","lat":36.147764,"lng":-86.784757,"title":"810 12th Ave. S - The 810 Building Lot","ftype":"lot","amenities":["self_park","paved","touchless","in_out","attendant","wheelchair_accessible"],"rating":{"avg":5,"count":7}},{"id":"10008","lat":36.157332999999994,"lng":-86.788355,"title":"119 12th Ave. N - Dunn Lot","ftype":"lot","amenities":["self_park","paved","touchless","in_out","wheelchair_accessible"],"rating":{"avg":3.6,"count":14}},{"id":"123756","lat":36.15245199999999,"lng":-86.782559,"title":"1079 Pine St. (1055 Pine St.) - Garage","ftype":"garage","amenities":["self_park","covered","touchless"],"rating":{"avg":4.6,"count":26}},{"id":"123763","lat":36.148272,"lng":-86.782859,"title":"1100 Hawkins St. - Wellsprire Lot","ftype":"lot","amenities":["self_park","paved","touchless"],"rating":{"avg":0,"count":0}},{"id":"123749","lat":36.157993,"lng":-86.788889,"title":"133 12th Ave. N - Gossett On Church Garage","ftype":"garage","amenities":["self_park","covered","touchless"],"rating":{"avg":4.3,"count":68}},{"id":"147160","lat":36.15146299999999,"lng":-86.79976,"title":"101 20th Ave. N - Graduate Nashville Valet Stand","ftype":"valet_stand","amenities":["valet","attendant"],"rating":{"avg":4.2,"count":10}},{"id":"113263","lat":36.1559111,"lng":-86.7983705,"title":"1800 State St. -  Lot","ftype":"lot","amenities":["self_park","paved","touchless","in_out","wheelchair_accessible"],"rating":{"avg":1,"count":1}},{"id":"123764","lat":36.153709,"lng":-86.799475,"title":"1911 Church St.  - Lot","ftype":"lot","amenities":["self_park","paved","touchless"],"rating":{"avg":5,"count":3}},{"id":"113745","lat":36.154244,"lng":-86.799652,"title":"1908 Church St. - Lot","ftype":"lot","amenities":["self_park","paved","touchless","in_out","wheelchair_accessible"],"rating":{"avg":5,"count":1}},{"id":"113416","lat":36.137388,"lng":-86.800617,"title":"2047 Wedgewood Ave. (1704 21st Ave. S) - Hillsboro Village Lot","ftype":"lot","amenities":["self_park","paved","touchless","in_out"],"rating":{"avg":4.7,"count":20}},{"id":"149148","lat":36.14465400000001,"lng":-86.794511,"title":"Lot #42 - 1101-1107 17th Ave. S","ftype":"lot","amenities":["self_park","paved","touchless","in_out","alley_access"],"rating":{"avg":3.5,"count":2}},{"id":"119153","lat":36.16925799999999,"lng":-86.780578,"title":"518 3rd Ave. N - Lot P3745","ftype":"lot","amenities":["self_park","paved","touchless","in_out","wheelchair_accessible"],"rating":{"avg":4.5,"count":58}},{"id":"157672","lat":36.169749,"lng":-86.780904,"title":"530 3rd Ave. N - Lot","ftype":"lot","amenities":["self_park","paved","touchless","in_out"],"rating":{"avg":4.2,"count":7}},{"id":"119678","lat":36.169632,"lng":-86.781582,"title":"601 3rd Ave. N - Lot P3746","ftype":"lot","amenities":["self_park","paved","touchless","in_out","wheelchair_accessible"],"rating":{"avg":4.3,"count":53}},{"id":"109569","lat":36.169188999999996,"lng":-86.78365,"title":"710 Rep. John Lewis Wy. N (480 James Robertson Pkwy) - Jacobs Cohen Lot","ftype":"lot","amenities":["self_park","paved","touchless"],"rating":{"avg":4.4,"count":84}},{"id":"151242","lat":36.16966599999999,"lng":-86.780843,"title":"528 3rd Ave. N - Lot","ftype":"lot","amenities":["self_park","paved","touchless","alley_access"],"rating":{"avg":2.9,"count":16}},{"id":"102825","lat":36.169749,"lng":-86.780382,"title":"577 2nd Ave N- Boyd Lot","ftype":"lot","amenities":["self_park","paved","touchless","in_out"],"rating":{"avg":4.3,"count":62}},{"id":"102824","lat":36.170199,"lng":-86.782127,"title":"703 3rd Ave. N","ftype":"lot","amenities":["self_park","paved","touchless","in_out"],"rating":{"avg":4.2,"count":145}},{"id":"112441","lat":36.151136,"lng":-86.781628,"title":"908 Division St. - 908 Division Garage","ftype":"garage","amenities":["self_park","covered","touchless"],"rating":{"avg":4.4,"count":92}},{"id":"109565","lat":36.151499,"lng":-86.780148,"title":"602 9th Ave. S - Spring Lot","ftype":"lot","amenities":["self_park","paved","touchless"],"rating":{"avg":5,"count":4}},{"id":"15414","lat":36.1503489,"lng":-86.7815775,"title":"901 Division St. - Fairfield Inn and Suites Lot","ftype":"lot","amenities":["self_park","attendant"],"rating":{"avg":4.7,"count":216}},{"id":"114564","lat":36.15031299999999,"lng":-86.780012,"title":"813 Old Division St. (810 Division St.) - Modera Gulch Garage","ftype":"garage","amenities":["self_park","covered","touchless"],"rating":{"avg":4.4,"count":62}},{"id":"109963","lat":36.150817,"lng":-86.779599,"title":"631 8th Ave. S - Riggans (Non-Marketstreet) Lot","ftype":"lot","amenities":["self_park","paved","touchless"],"rating":{"avg":4.5,"count":6}},{"id":"113273","lat":36.15033799999999,"lng":-86.779575,"title":"811 Old Division St. (701 8th Ave. S) - Marble Fox Brewing Lot","ftype":"lot","amenities":["self_park","paved","touchless","in_out","wheelchair_accessible"],"rating":{"avg":4.7,"count":4}},{"id":"124082","lat":36.151084,"lng":-86.778995,"title":"750 Paseo Pl. (620 8th Ave. S) - Prima Garage","ftype":"garage","amenities":["self_park","covered","touchless"],"rating":{"avg":3.9,"count":6}},{"id":"139230","lat":36.15049100000001,"lng":-86.777545,"title":"706 7th Ave. S - Lot","ftype":"lot","amenities":["self_park","paved","touchless","in_out"],"rating":{"avg":3,"count":11}},{"id":"108035","lat":36.175063,"lng":-86.790015,"title":"1215 6th Ave. N - Lot P3718","ftype":"lot","amenities":["self_park","paved","touchless","in_out","wheelchair_accessible"],"rating":{"avg":2.5,"count":8}},{"id":"70407","lat":36.1779736,"lng":-86.7913696,"title":"602 Taylor St. - Taylor Place Lot","ftype":"lot","amenities":["self_park","paved","touchless","in_out","ev"],"rating":{"avg":4.9,"count":55}},{"id":"113415","lat":36.174651,"lng":-86.790984,"title":"1209 7th Ave. N - Lot","ftype":"lot","amenities":["self_park","paved","touchless","in_out"],"rating":{"avg":5,"count":22}},{"id":"113422","lat":36.175089,"lng":-86.787601,"title":"411 Madison St. (1114 5th Ave. N) - 5th & Jefferson Lot","ftype":"lot","amenities":["self_park","paved","touchless"],"rating":{"avg":4.9,"count":22}},{"id":"108024","lat":36.178382,"lng":-86.789803,"title":"408 Taylor St. -  Lot P3726","ftype":"lot","amenities":["self_park","paved","in_out","wheelchair_accessible"],"rating":{"avg":5,"count":6}},{"id":"113423","lat":36.174742,"lng":-86.784149,"title":"1014 3rd Ave. N - Jefferson & 3rd Lot","ftype":"lot","amenities":["self_park","paved","touchless"],"rating":{"avg":4.3,"count":15}},{"id":"106980","lat":36.174221,"lng":-86.784616,"title":"1009 3rd Ave. N - Bowtruss Lot","ftype":"lot","amenities":["self_park","paved","touchless"],"rating":{"avg":3.2,"count":109}},{"id":"124069","lat":36.174424,"lng":-86.783912,"title":"1000 3rd Ave. N - Bowtruss 2 Lot","ftype":"lot","amenities":["self_park","paved","touchless"],"rating":{"avg":4.2,"count":26}},{"id":"130472","lat":36.173255,"lng":-86.783483,"title":"936 3rd Ave. N - Vision Lot","ftype":"lot","amenities":["self_park","paved","touchless","wheelchair_accessible"],"rating":{"avg":3.7,"count":66}},{"id":"107456","lat":36.1749,"lng":-86.783771,"title":"1015 2nd Ave. N - Dugout Lot","ftype":"lot","amenities":["self_park","paved","touchless"],"rating":{"avg":4.5,"count":50}},{"id":"130479","lat":36.179807,"lng":-86.786847,"title":"1401 2nd Ave. N - Treasure Lot","ftype":"lot","amenities":["self_park","paved","touchless"],"rating":{"avg":0,"count":0}},{"id":"132592","lat":36.179614,"lng":-86.783011,"title":"1306 Adams St. - Cumberland River Lot","ftype":"lot","amenities":["self_park","paved","touchless","in_out"],"rating":{"avg":5,"count":1}},{"id":"113743","lat":36.180637,"lng":-86.787929,"title":"298 Van Buren St. (1420 3rd Ave N) - Lot","ftype":"lot","amenities":["self_park","paved","touchless","in_out","wheelchair_accessible","alley_access"],"rating":{"avg":4.5,"count":5}},{"id":"113744","lat":36.18110399999999,"lng":-86.787945,"title":"1500 3rd Ave. N - Lot","ftype":"lot","amenities":["self_park","paved","touchless","in_out","wheelchair_accessible"],"rating":{"avg":4.3,"count":3}},{"id":"99546","lat":36.179945999999994,"lng":-86.783245,"title":"1312 Adams St. -  Neuhoff Garage","ftype":"garage","amenities":["self_park","covered","touchless","in_out"],"rating":{"avg":4.6,"count":31}},{"id":"95322","lat":36.18151,"lng":-86.786906,"title":"100 Van Buren St. - Lot","ftype":"lot","amenities":["self_park","paved","touchless","in_out"],"rating":{"avg":5,"count":6}},{"id":"70506","lat":36.180682,"lng":-86.785023,"title":"96 Taylor St. - Hops Lot","ftype":"lot","amenities":["self_park","paved","touchless","in_out","wheelchair_accessible"],"rating":{"avg":4.5,"count":10}},{"id":"146447","lat":36.17771299999999,"lng":-86.751898,"title":"974 Main St. - Lot","ftype":"lot","amenities":["self_park","paved","touchless","in_out","wheelchair_accessible"],"rating":{"avg":0,"count":0}},{"id":"134064","lat":36.177710999999995,"lng":-86.753412,"title":"949 Main St. - Lot","ftype":"lot","amenities":["self_park","paved","touchless","in_out","alley_access"],"rating":{"avg":5,"count":1}},{"id":"139803","lat":36.177331,"lng":-86.750733,"title":"1009 Woodland St. - Woodland Lot","ftype":"lot","amenities":["self_park","paved","touchless","in_out","wheelchair_accessible"],"rating":{"avg":5,"count":4}},{"id":"130476","lat":36.176652,"lng":-86.751105,"title":"103 S 10th St. (1000 Woodland St.) - Lot","ftype":"lot","amenities":["self_park","paved","touchless","wheelchair_accessible"],"rating":{"avg":5,"count":1}},{"id":"124071","lat":36.17797099999999,"lng":-86.750133,"title":"1015 Clearview Ave. - Five Points Lot","ftype":"lot","amenities":["self_park","paved","touchless"],"rating":{"avg":5,"count":2}},{"id":"113418","lat":36.176559,"lng":-86.752175,"title":"106 S 10th St. (960 Woodland St.) - Woodland & 10th Lot","ftype":"lot","amenities":["self_park","paved","touchless","in_out"],"rating":{"avg":5,"count":1}},{"id":"109957","lat":36.178764,"lng":-86.749512,"title":"1105 Forest Ave. (203 N 11th St.) - Book Lot","ftype":"lot","amenities":["self_park","paved","touchless"],"rating":{"avg":4.8,"count":4}},{"id":"108423","lat":36.177303,"lng":-86.749577,"title":"1104 Woodland St. (101 S 11th St.) - Lot","ftype":"lot","amenities":["self_park","paved","touchless","in_out"],"rating":{"avg":4,"count":5}},{"id":"109958","lat":36.176202,"lng":-86.752687,"title":"948 Woodland St. - Center Lot","ftype":"lot","amenities":["self_park","paved","touchless"],"rating":{"avg":5,"count":1}},{"id":"130733","lat":36.176452999999995,"lng":-86.75113,"title":"105 S 10th St. - BTE Lot","ftype":"lot","amenities":["self_park","paved","touchless","alley_access"],"rating":{"avg":5,"count":1}},{"id":"102859","lat":36.176161,"lng":-86.756064,"title":"912 Main St. - Lot","ftype":"lot","amenities":["self_park","paved","in_out"],"rating":{"avg":4.5,"count":22}},{"id":"114442","lat":36.176297000000005,"lng":-86.757402,"title":"819 Main St. - Lotus Lot","ftype":"lot","amenities":["self_park","paved","touchless"],"rating":{"avg":4.8,"count":40}},{"id":"163866","lat":36.175314,"lng":-86.754876,"title":"920 Woodland St. - Backfield Lot","ftype":"lot","amenities":["self_park","paved","touchless","in_out"],"rating":{"avg":0,"count":0}},{"id":"124081","lat":36.175269,"lng":-86.756368,"title":"905 Woodland St. (901 Woodland St.) - Wabash Deck Lot","ftype":"lot","amenities":["self_park","covered","touchless","alley_access"],"rating":{"avg":4.6,"count":18}},{"id":"109943","lat":36.175138,"lng":-86.755445,"title":"914 Woodland St. - Woodland Street Lot","ftype":"lot","amenities":["self_park","paved","touchless"],"rating":{"avg":4.9,"count":5}},{"id":"116121","lat":36.175965999999995,"lng":-86.756693,"title":"901 Woodland St. - Wabash Main Street Lot","ftype":"lot","amenities":["self_park","paved"],"rating":{"avg":5,"count":1}},{"id":"114563","lat":36.175269,"lng":-86.756368,"title":"7 S 9th St. (901 Woodland St.) - Wabash Fluffo Lot","ftype":"lot","amenities":["self_park","paved","touchless"],"rating":{"avg":0,"count":0}},{"id":"120673","lat":36.183883,"lng":-86.748984,"title":"700 Gallatin Ave. - Lot","ftype":"lot","amenities":["self_park","paved","touchless","in_out","wheelchair_accessible"],"rating":{"avg":1.7,"count":3}},{"id":"109942","lat":36.174973,"lng":-86.758545,"title":"806 Main St. (800 Main St.) - 800 Main Storage Lot","ftype":"lot","amenities":["self_park","paved","touchless"],"rating":{"avg":4.6,"count":5}},{"id":"148003","lat":36.151586,"lng":-86.801046,"title":"2011 Hayes St. - Hayes Street Garage","ftype":"garage","amenities":["self_park","covered","touchless","in_out","wheelchair_accessible"],"rating":{"avg":2.7,"count":24}},{"id":"15151","lat":36.151586599999995,"lng":-86.8025359,"title":"2100 Hayes St. - Hyatt House Nashville at Vanderbilt - Garage","ftype":"garage","amenities":["self_park","covered","attendant","wheelchair_accessible"],"rating":{"avg":4.6,"count":17}},{"id":"111234","lat":36.15197499999999,"lng":-86.802811,"title":"2103 Elliston Pl. - Lot","ftype":"lot","amenities":["self_park","paved","touchless","in_out","wheelchair_accessible"],"rating":{"avg":4.7,"count":30}},{"id":"119601","lat":36.15175399999999,"lng":-86.80391,"title":"2200 Elliston Pl. - Lot","ftype":"lot","amenities":["self_park","paved","touchless","in_out","wheelchair_accessible"],"rating":{"avg":4.1,"count":44}},{"id":"101103","lat":36.152317,"lng":-86.804339,"title":"209 22nd Ave. N - Lot","ftype":"lot","amenities":["self_park","paved","touchless","in_out","wheelchair_accessible"],"rating":{"avg":4.7,"count":9}},{"id":"136370","lat":36.124437,"lng":-86.789193,"title":"1115 Gilmore Ave. (2510 12th Ave. S)  - Garage","ftype":"garage","amenities":["self_park","covered","touchless","in_out"],"rating":{"avg":4.9,"count":14}},{"id":"87572","lat":36.122527,"lng":-86.790481,"title":"1205 Dallas Ave. (2803 12th Ave S) - Garage","ftype":"garage","amenities":["self_park","covered","touchless","in_out","wheelchair_accessible"],"rating":{"avg":4.7,"count":20}},{"id":"109948","lat":36.126715999999995,"lng":-86.789604,"title":"1202 Elmwood Ave. (2311 12th Ave. S) - Keeper Lot","ftype":"lot","amenities":["self_park","paved","touchless"],"rating":{"avg":5,"count":2}},{"id":"125848","lat":36.126725,"lng":-86.789098,"title":"2304 12th Ave. S (2316 12th Ave. S) - Lot P3737","ftype":"lot","amenities":["self_park","paved","touchless","in_out","wheelchair_accessible"],"rating":{"avg":4.6,"count":4}},{"id":"108427","lat":36.126803,"lng":-86.789902,"title":"1204 Elmwood Ave. - Lot","ftype":"unknown","amenities":["self_park","paved","touchless"],"rating":{"avg":3.1,"count":20}},{"id":"111639","lat":36.138275,"lng":-86.772074,"title":"715 Hagan Street - Queens WeHo Garage","ftype":"garage","amenities":["self_park","covered","touchless"],"rating":{"avg":4.3,"count":13}},{"id":"75291","lat":36.13962119999999,"lng":-86.77059589999999,"title":"Lot 18 - 609 Merritt Ave.","ftype":"lot","amenities":["self_park","paved","touchless","in_out"],"rating":{"avg":3.7,"count":13}},{"id":"120733","lat":36.131854,"lng":-86.767738,"title":"516-518 Benton Ave. - Lot","ftype":"lot","amenities":["self_park","paved","touchless","in_out"],"rating":{"avg":4.6,"count":8}},{"id":"136410","lat":36.139529,"lng":-86.774481,"title":"700 Hamilton Ave. - Westerly House Garage","ftype":"garage","amenities":["self_park","covered","in_out"],"rating":{"avg":2.9,"count":11}},{"id":"113741","lat":36.14051,"lng":-86.772316,"title":"526 Hagan St. - Lot","ftype":"lot","amenities":["self_park","paved","touchless","in_out","wheelchair_accessible"],"rating":{"avg":0,"count":0}},{"id":"109950","lat":36.14014399999999,"lng":-86.773313,"title":"715 Merritt Ave - Standard Assembly Garage","ftype":"garage","amenities":["self_park","covered","touchless"],"rating":{"avg":4,"count":15}},{"id":"103048","lat":36.14121999999999,"lng":-86.771381,"title":"509 Hagan St. - Lot","ftype":"lot","amenities":["self_park","paved","touchless","in_out"],"rating":{"avg":5,"count":1}},{"id":"146556","lat":36.142735,"lng":-86.771008,"title":"469 Chestnut St. - Lot P3757","ftype":"lot","amenities":["self_park","paved","touchless","in_out","alley_access"],"rating":{"avg":4,"count":1}}]}