{"generated_at":"2026-07-20T15:03:59.991Z","city":"sea","calls":16,"failed":0,"count":268,"nonnull_pct":{"amenities":100,"rating":100,"ftype":100},"facilities":[{"id":"89416","lat":47.61054599999999,"lng":-122.341199,"title":"110 Stewart St. - Thompson Seattle Valet","ftype":"valet_stand","amenities":["valet","covered"],"rating":{"avg":4.9,"count":182}},{"id":"8832","lat":47.61136667788856,"lng":-122.33990117438886,"title":"275 Stewart St. - 3rd & Stewart Garage","ftype":"garage","amenities":["self_park","covered","touchless","in_out"],"rating":{"avg":4.5,"count":3491}},{"id":"142827","lat":47.610933,"lng":-122.34497100000002,"title":"1983 Western Ave. (65 Lenora St.) - Marketplace I & II Garage","ftype":"garage","amenities":["self_park","covered","touchless","in_out","wheelchair_accessible"],"rating":{"avg":4.6,"count":889}},{"id":"71729","lat":47.610938299999994,"lng":-122.34006930000001,"title":"1610 2nd Ave. (The Charter Hotel) - Valet Garage","ftype":"valet_stand","amenities":["valet","attendant"],"rating":{"avg":4.7,"count":332}},{"id":"138907","lat":47.61134599999999,"lng":-122.341601,"title":"1929 2nd Ave. - Lot","ftype":"lot","amenities":["self_park","paved","touchless","in_out"],"rating":{"avg":3.6,"count":77}},{"id":"125794","lat":47.60946299999999,"lng":-122.34013800000001,"title":"1516 1st Ave. - Liberty Lot","ftype":"lot","amenities":["self_park","paved","touchless","in_out","wheelchair_accessible"],"rating":{"avg":3.7,"count":250}},{"id":"143510","lat":47.60996899999999,"lng":-122.33931999999997,"title":"1528 2nd Ave. - Lot (A431)","ftype":"lot","amenities":["self_park","paved","touchless","in_out","wheelchair_accessible"],"rating":{"avg":3.3,"count":19}},{"id":"142112","lat":47.610933,"lng":-122.34497100000002,"title":"65 Lenora St. - Marketplace I & II Garage","ftype":"garage","amenities":["self_park","covered","touchless","in_out","wheelchair_accessible"],"rating":{"avg":4.6,"count":889}},{"id":"42258","lat":47.6115951,"lng":-122.3440444,"title":"89 Lenora Street (2025 1st Ave) - Market Place Tower Garage","ftype":"garage","amenities":["self_park","covered","touchless","ev"],"rating":{"avg":4.4,"count":737}},{"id":"9398","lat":47.612164,"lng":-122.33995499999997,"title":"1922 3rd Ave. - Securities Building Garage 1","ftype":"garage","amenities":["self_park","attendant"],"rating":{"avg":4.4,"count":339}},{"id":"90441","lat":47.61142043611397,"lng":-122.34577809413156,"title":"2139 Elliott Ave. - World Market Garage (A1016)","ftype":"garage","amenities":["self_park","covered","touchless","in_out"],"rating":{"avg":4.2,"count":175}},{"id":"134526","lat":47.612049999999996,"lng":-122.341012,"title":"249 Virginia St. - Lot (A781)","ftype":"lot","amenities":["self_park","paved","touchless","in_out","alley_access"],"rating":{"avg":4.5,"count":82}},{"id":"132678","lat":47.612049999999996,"lng":-122.341012,"title":"1931 3rd Ave. - Garage (A1171)","ftype":"garage","amenities":["self_park","covered","touchless","in_out"],"rating":{"avg":2.6,"count":35}},{"id":"102361","lat":47.607783999999995,"lng":-122.34152199999998,"title":"1422 Alaskan Wy. - Hillclimb Garage","ftype":"garage","amenities":["self_park","covered","touchless"],"rating":{"avg":4.3,"count":664}},{"id":"117663","lat":47.60782,"lng":-122.338341,"title":"103 Union St. - JP Morgan Chase Center Garage","ftype":"garage","amenities":["self_park","covered","touchless"],"rating":{"avg":3.1,"count":8}},{"id":"108308","lat":47.60864999999999,"lng":-122.33878999999997,"title":"174 Union St. - Target Seattle Garage","ftype":"garage","amenities":["self_park","covered","in_out","wheelchair_accessible"],"rating":{"avg":4.8,"count":82}},{"id":"26716","lat":47.608563,"lng":-122.33764799999999,"title":"1406 2nd Ave. - 2nd and Union Garage","ftype":"garage","amenities":["self_park","covered","touchless"],"rating":{"avg":4.7,"count":5753}},{"id":"27244","lat":47.61233299999999,"lng":-122.33779499999999,"title":"457 Olive Way (1601 5th Ave.) - Westlake Tower Garage","ftype":"garage","amenities":["self_park","covered","touchless","in_out","attendant","wheelchair_accessible"],"rating":{"avg":4.4,"count":227}},{"id":"9928","lat":47.607927,"lng":-122.33775399999999,"title":"200 Union St. (1321 2nd Ave.) - Benaroya Hall Garage 146","ftype":"garage","amenities":["self_park","covered","attendant","wheelchair_accessible","ev"],"rating":{"avg":4.7,"count":166}},{"id":"10523","lat":47.61289589999999,"lng":-122.33838039999999,"title":"1903 5th Ave. - Lot #001","ftype":"lot","amenities":["self_park","paved","touchless","in_out","wheelchair_accessible"],"rating":{"avg":4.8,"count":843}},{"id":"125783","lat":47.61290900000001,"lng":-122.342766,"title":"248 Lenora St. - Army Lot","ftype":"lot","amenities":["self_park","paved","touchless","in_out","wheelchair_accessible"],"rating":{"avg":3.7,"count":161}},{"id":"62949","lat":47.612666,"lng":-122.347033,"title":"2282 Western Ave. - Lot #040","ftype":"lot","amenities":["self_park","paved","touchless","in_out"],"rating":{"avg":4.5,"count":186}},{"id":"132283","lat":47.613189999999996,"lng":-122.34086,"title":"2015 4th Ave - Lot (A1169)","ftype":"lot","amenities":["self_park","paved","touchless","in_out","wheelchair_accessible"],"rating":{"avg":4.7,"count":110}},{"id":"21633","lat":47.608821999999996,"lng":-122.33618499999997,"title":"315 Union St. - Puget Sound Plaza Garage","ftype":"garage","amenities":["self_park","covered","touchless"],"rating":{"avg":4.6,"count":2021}},{"id":"141906","lat":47.60608599999999,"lng":-122.33852599999999,"title":"1200 Western Ave. - Harbor Steps Apartments Garage","ftype":"garage","amenities":["self_park","covered","touchless"],"rating":{"avg":4.4,"count":114}},{"id":"3434","lat":47.61004499999999,"lng":-122.33556979999996,"title":"1415 5th Ave. - Motif Seattle Hotel Garage","ftype":"garage","amenities":["self_park","covered","touchless","in_out","ev"],"rating":{"avg":4.7,"count":1672}},{"id":"115260","lat":47.606529,"lng":-122.337371,"title":"150 Seneca St. (1201 2nd Ave) - 2+U Garage","ftype":"garage","amenities":["self_park","covered","touchless"],"rating":{"avg":4.4,"count":104}},{"id":"114858","lat":47.61244699999999,"lng":-122.34651599999998,"title":"2220 Western Ave.  - Lot (A1156)","ftype":"lot","amenities":["self_park","paved","touchless","in_out"],"rating":{"avg":3.7,"count":34}},{"id":"89387","lat":47.612171999999994,"lng":-122.34772700000002,"title":"55 Bell St. - Lot (A977)","ftype":"lot","amenities":["self_park","paved","touchless","in_out"],"rating":{"avg":3.9,"count":12}},{"id":"9626","lat":47.61396799999999,"lng":-122.337614,"title":"1901 Westlake Ave. (1900 5th Ave.) - The Westin Garage","ftype":"garage","amenities":["self_park","covered","touchless","attendant","wheelchair_accessible"],"rating":{"avg":4.5,"count":244}},{"id":"78459","lat":47.6061703,"lng":-122.3367829,"title":"159 Seneca St. - Second & Seneca Garage","ftype":"garage","amenities":["self_park","covered","touchless"],"rating":{"avg":4.5,"count":254}},{"id":"102355","lat":47.60534,"lng":-122.33820799999995,"title":"1108 Western Ave. - Watermark Garage (Lot 107)","ftype":"garage","amenities":["self_park","covered","touchless"],"rating":{"avg":4.7,"count":132}},{"id":"15399","lat":47.6131341,"lng":-122.33705139999998,"title":"500 Olive Way - Lot","ftype":"lot","amenities":["self_park","paved","touchless","in_out","wheelchair_accessible"],"rating":{"avg":4.2,"count":30}},{"id":"103704","lat":47.61305599999999,"lng":-122.350624,"title":"2323 Elliott Ave (9 Wall St.) -  Pier 66 Cruise Port Garage (Lot 28)","ftype":"garage","amenities":["self_park","covered","touchless","in_out"],"rating":{"avg":4.5,"count":658}},{"id":"102354","lat":47.605143,"lng":-122.33869499999997,"title":"1101 Western Ave. - Waterfront Surface (Lot 110)","ftype":"lot","amenities":["self_park","paved","touchless"],"rating":{"avg":4.6,"count":57}},{"id":"11195","lat":47.61310499999999,"lng":-122.34851100000002,"title":"2333 Western Ave - Lot 245","ftype":"lot","amenities":["self_park","paved","touchless","in_out","wheelchair_accessible"],"rating":{"avg":4.5,"count":443}},{"id":"94695","lat":47.61281799999999,"lng":-122.336131,"title":"1623 6th Ave. (509 Olive Way) - Medical Dental Building Garage - Valet 192","ftype":"garage","amenities":["valet","covered","attendant"],"rating":{"avg":4.8,"count":258}},{"id":"157903","lat":47.612850999999985,"lng":-122.33603,"title":"1673 7th Ave. -  (600 Pine St.) Pacific Place Garage","ftype":"garage","amenities":["self_park","covered","touchless","in_out","ev"],"rating":{"avg":4.8,"count":1446}},{"id":"15397","lat":47.61342799999999,"lng":-122.336186,"title":"600 Olive Way - Garage","ftype":"garage","amenities":["self_park","covered","touchless","attendant"],"rating":{"avg":4.6,"count":17}},{"id":"100545","lat":47.614242999999995,"lng":-122.340434,"title":"2019 5th Ave. (2021 5th Ave) - Lot","ftype":"lot","amenities":["self_park","paved","touchless"],"rating":{"avg":4.5,"count":211}},{"id":"9664","lat":47.614232,"lng":-122.339491,"title":"2010 5th Ave. - Digital Realty Garage 3","ftype":"garage","amenities":["self_park","covered"],"rating":{"avg":4.8,"count":453}},{"id":"30545","lat":47.61071299999998,"lng":-122.334276,"title":"1465 6th Ave - U.S. Bank Center Garage","ftype":"garage","amenities":["self_park","covered","touchless","ev"],"rating":{"avg":4.8,"count":5612}},{"id":"143290","lat":47.611359,"lng":-122.33435,"title":"606 Pike St. - Meridian Garage West","ftype":"garage","amenities":["self_park","covered","in_out"],"rating":{"avg":4.5,"count":200}},{"id":"88697","lat":47.60803799999999,"lng":-122.335296,"title":"324 University St. - Financial Center Garage","ftype":"garage","amenities":["self_park","covered","touchless"],"rating":{"avg":4.6,"count":1414}},{"id":"15400","lat":47.6135734,"lng":-122.3364161,"title":"1818 6th Ave. - Lot","ftype":"lot","amenities":["self_park","paved","touchless","in_out","wheelchair_accessible"],"rating":{"avg":4.1,"count":26}},{"id":"145369","lat":47.614214,"lng":-122.33660699999996,"title":"620 Stewart St. - Hotel Max Valet Stand","ftype":"valet_stand","amenities":["valet","covered","in_out","attendant","wheelchair_accessible","ev"],"rating":{"avg":4.2,"count":4}},{"id":"16885","lat":47.606914258971656,"lng":-122.3357987367706,"title":"1201 3rd Garage (Enter at 266 Seneca St.)","ftype":"garage","amenities":["self_park","covered","touchless","attendant","wheelchair_accessible","ev"],"rating":{"avg":4.7,"count":3382}},{"id":"15402","lat":47.61388969999998,"lng":-122.33608859999995,"title":"1825 7th Ave. - Lot","ftype":"lot","amenities":["self_park","paved","touchless","in_out","wheelchair_accessible"],"rating":{"avg":4.5,"count":8}},{"id":"21044","lat":47.61362799999999,"lng":-122.33479099999995,"title":"735 Olive Way (1600 7th Ave.) - Garage","ftype":"garage","amenities":["self_park","covered","touchless","wheelchair_accessible"],"rating":{"avg":4.5,"count":59}},{"id":"12559","lat":47.61319400000001,"lng":-122.334995,"title":"600 Pine St - Pacific Place Garage","ftype":"garage","amenities":["self_park","covered","touchless","in_out","ev"],"rating":{"avg":4.8,"count":1446}},{"id":"143293","lat":47.612066999999996,"lng":-122.334074,"title":"1515 7th Ave. - Meridian East Garage","ftype":"garage","amenities":["self_park","covered","in_out"],"rating":{"avg":4.2,"count":110}},{"id":"6841","lat":47.61193939999999,"lng":-122.3335743,"title":"1508 7th Ave. - 7th & Pike Garage","ftype":"garage","amenities":["self_park","covered","in_out","attendant","wheelchair_accessible"],"rating":{"avg":4.6,"count":1462}},{"id":"5905","lat":47.61117709999999,"lng":-122.33296109999999,"title":"1457 7th Ave. (701 Pike St.) - Garage","ftype":"garage","amenities":["self_park","covered","touchless","attendant","wheelchair_accessible","ev"],"rating":{"avg":4.3,"count":708}},{"id":"101166","lat":47.604408,"lng":-122.338026,"title":"68 Madison St - Waterfront Place Garage","ftype":"garage","amenities":["self_park","covered","touchless"],"rating":{"avg":4.2,"count":707}},{"id":"98032","lat":47.60672199999999,"lng":-122.33542,"title":"256 Spring St (1111 3rd Ave.) - Garage","ftype":"garage","amenities":["self_park","covered"],"rating":{"avg":4,"count":140}},{"id":"88691","lat":47.60876699999999,"lng":-122.333263,"title":"511 University St. - 1200 Fifth Avenue Garage","ftype":"garage","amenities":["self_park","covered","touchless"],"rating":{"avg":4.3,"count":743}},{"id":"90159","lat":47.61378999999999,"lng":-122.33414,"title":"1635 8th Ave. - Hyatt Olive 8 Valet Garage","ftype":"valet_stand","amenities":["valet","covered","wheelchair_accessible"],"rating":{"avg":4.8,"count":38}},{"id":"34178","lat":47.61472409999999,"lng":-122.3372444,"title":"1919 7th Ave.(1942 Westlake Ave.) -Metropolitan Tower Garage","ftype":"garage","amenities":["self_park","covered","touchless"],"rating":{"avg":4.7,"count":1031}},{"id":"105763","lat":47.61503299999999,"lng":-122.34060999999998,"title":"2106 5th Ave. - Kings Inn Lot (A1149)","ftype":"lot","amenities":["self_park","paved","touchless","in_out"],"rating":{"avg":4.1,"count":86}},{"id":"96544","lat":47.614169999999994,"lng":-122.33474099999997,"title":"1859 8th Ave (720 Olive Way) - 8th and Olive Garage","ftype":"garage","amenities":["self_park","covered","touchless"],"rating":{"avg":4.6,"count":500}},{"id":"9397","lat":47.613935999999995,"lng":-122.35108799999999,"title":"2538 Elliott Ave. -  Skyway Luggage Lot 84","ftype":"lot","amenities":["self_park","paved","touchless","in_out"],"rating":{"avg":4.2,"count":485}},{"id":"9392","lat":47.61539799999999,"lng":-122.341422,"title":"2120 5th Ave. - Lot 13","ftype":"lot","amenities":["self_park","paved","touchless","in_out"],"rating":{"avg":4.8,"count":318}},{"id":"4482","lat":47.609482799999995,"lng":-122.33298339999997,"title":"1301 6th Ave. - Garage","ftype":"garage","amenities":["self_park","covered","touchless","in_out"],"rating":{"avg":4.6,"count":1005}},{"id":"7268","lat":47.60895289999999,"lng":-122.33305199999998,"title":"515 University St. - Plymouth Church Garage","ftype":"garage","amenities":["self_park","covered","touchless","in_out","attendant","ev"],"rating":{"avg":4.8,"count":486}},{"id":"143509","lat":47.615111999999996,"lng":-122.34884899999997,"title":"2506 1st Ave. - Lot (A525)","ftype":"lot","amenities":["self_park","paved","touchless","in_out","wheelchair_accessible"],"rating":{"avg":3.1,"count":23}},{"id":"12208","lat":47.6146765,"lng":-122.33457700000001,"title":"1844 8th Avenue - Hyatt Regency Seattle Garage","ftype":"garage","amenities":["self_park","covered","touchless","wheelchair_accessible","ev"],"rating":{"avg":4.5,"count":229}},{"id":"141968","lat":47.615520999999994,"lng":-122.34178699999998,"title":"2202 5th Ave. - Hotel Five Garage","ftype":"garage","amenities":["self_park","covered"],"rating":{"avg":4.5,"count":35}},{"id":"10149","lat":47.60538848862566,"lng":-122.33451600770002,"title":"248 Madison St. (999 3rd Ave.) - Garage","ftype":"garage","amenities":["self_park","covered","touchless","wheelchair_accessible","ev"],"rating":{"avg":4.6,"count":533}},{"id":"94503","lat":47.60575,"lng":-122.333912,"title":"310 Madison St (1001 4th Ave. ) - Safeco Plaza Garage","ftype":"garage","amenities":["self_park","covered","touchless"],"rating":{"avg":4.7,"count":291}},{"id":"22491","lat":47.606972999999996,"lng":-122.33278499999999,"title":"465 Spring St (1000 4th Ave) - Seattle Public Library Garage","ftype":"garage","amenities":["self_park","covered","touchless","in_out","attendant","wheelchair_accessible","ev"],"rating":{"avg":4.5,"count":299}},{"id":"12917","lat":47.608325,"lng":-122.33221,"title":"575 Seneca St - Crowne Plaza - Valet Garage","ftype":"valet_stand","amenities":["valet","covered","attendant"],"rating":{"avg":4.2,"count":85}},{"id":"86350","lat":47.607677,"lng":-122.33233199999998,"title":"1100 5th Ave. - Hotel Vintage Valet Garage","ftype":"garage","amenities":["valet","covered","attendant"],"rating":{"avg":4.8,"count":147}},{"id":"109282","lat":47.615829,"lng":-122.345319,"title":"2335 4th Ave. - Lot #097","ftype":"lot","amenities":["self_park","paved","touchless","in_out","alley_access"],"rating":{"avg":4.6,"count":321}},{"id":"106382","lat":47.615703,"lng":-122.34703700000001,"title":"2413 3rd Ave. - Lot (A801)","ftype":"lot","amenities":["self_park","paved","touchless","in_out"],"rating":{"avg":4.5,"count":120}},{"id":"9394","lat":47.615939999999995,"lng":-122.34251500000002,"title":"2230 5th Ave. - Lot 14","ftype":"lot","amenities":["self_park","paved","touchless","in_out"],"rating":{"avg":4.6,"count":93}},{"id":"127761","lat":47.61933499999999,"lng":-122.348045,"title":"467 John St. - KOMO Plaza Garage","ftype":"garage","amenities":["self_park","covered","touchless"],"rating":{"avg":4.8,"count":2363}},{"id":"14153","lat":47.62056299999999,"lng":-122.34486300000002,"title":"220 6th Ave. N - Lot 20","ftype":"lot","amenities":["self_park","paved","touchless","in_out"],"rating":{"avg":4.6,"count":387}},{"id":"108295","lat":47.619439,"lng":-122.34724999999999,"title":"130 5th Ave. N - P5549 Lot","ftype":"lot","amenities":["self_park","paved","in_out","wheelchair_accessible"],"rating":{"avg":3.5,"count":39}},{"id":"102168","lat":47.620476,"lng":-122.34714800000002,"title":"532 Thomas St (222 5th Ave. N) - Garage","ftype":"garage","amenities":["self_park","covered","touchless","in_out"],"rating":{"avg":4.6,"count":454}},{"id":"116805","lat":47.619483,"lng":-122.35271099999997,"title":"164 2nd Ave. N - Claypool Garage (A1153)","ftype":"garage","amenities":["self_park","covered","touchless","in_out","ev"],"rating":{"avg":3.9,"count":402}},{"id":"135881","lat":47.618855,"lng":-122.34713499999997,"title":"508 Denny Way - Garage (A1165)","ftype":"garage","amenities":["self_park","covered","touchless","in_out"],"rating":{"avg":3.9,"count":178}},{"id":"155389","lat":47.621039,"lng":-122.35382699999998,"title":"Climate Pledge Arena Garage - 158 Lenny Wilkens Way (Daily Parking)","ftype":"garage","amenities":["self_park","covered","touchless","in_out","wheelchair_accessible","ev"],"rating":{"avg":4.1,"count":22}},{"id":"155422","lat":47.62032899999999,"lng":-122.35451699999999,"title":"1st Ave N Arena Garage - 225 Warren Ave. N (Daily Parking)","ftype":"garage","amenities":["self_park","covered","touchless","in_out","wheelchair_accessible","ev"],"rating":{"avg":4,"count":4}},{"id":"62918","lat":47.61835629999998,"lng":-122.3461326,"title":"551 Denny Way - Lot #090","ftype":"lot","amenities":["self_park","paved","touchless","in_out"],"rating":{"avg":4.7,"count":206}},{"id":"129481","lat":47.620196,"lng":-122.344262,"title":"616 John St. - Lot (A1166)","ftype":"lot","amenities":["self_park","paved","touchless","in_out"],"rating":{"avg":4.8,"count":165}},{"id":"111803","lat":47.617017,"lng":-122.34936199999999,"title":"272 Cedar St. (2701 3rd Ave.) - Lot (A1129)","ftype":"lot","amenities":["self_park","paved","touchless","in_out"],"rating":{"avg":4.8,"count":160}},{"id":"101229","lat":47.620698999999995,"lng":-122.34462899999998,"title":"605 Thomas St. - Lot (A1116)","ftype":"lot","amenities":["self_park","paved","touchless"],"rating":{"avg":4.4,"count":54}},{"id":"112516","lat":47.61785499999999,"lng":-122.352737,"title":"2929 2nd Ave. - Lot (A021)","ftype":"lot","amenities":["self_park","paved","touchless","in_out"],"rating":{"avg":4.3,"count":219}},{"id":"124296","lat":47.619431999999996,"lng":-122.35582299999997,"title":"185 1st Ave N (133 1st Ave N) - Lot (A1162)","ftype":"lot","amenities":["self_park","paved","touchless"],"rating":{"avg":3.7,"count":65}},{"id":"10827","lat":47.61668649999999,"lng":-122.35111380000001,"title":"148 Clay St. (2815 2nd Ave.) - Bay Vista Garage","ftype":"garage","amenities":["self_park","covered","touchless","in_out"],"rating":{"avg":4.7,"count":252}},{"id":"113708","lat":47.616682999999995,"lng":-122.35075700000002,"title":"2725 2nd Ave. - Lot #003 - Alley Access","ftype":"lot","amenities":["self_park","paved","touchless","in_out","alley_access"],"rating":{"avg":4.2,"count":317}},{"id":"99316","lat":47.61856300000001,"lng":-122.343566,"title":"700 Denny Wy. - Murata Lot","ftype":"lot","amenities":["self_park","paved","touchless","in_out"],"rating":{"avg":4.6,"count":323}},{"id":"15008","lat":47.623644,"lng":-122.35431799999999,"title":"507 Warren Ave N. (118 Republican St.)  - Expo Apartments Garage","ftype":"garage","amenities":["self_park","paved","touchless","in_out","wheelchair_accessible"],"rating":{"avg":4.7,"count":471}},{"id":"63774","lat":47.62244449999999,"lng":-122.3558033,"title":"429 1st Ave. N - Lot #034","ftype":"lot","amenities":["self_park","paved","touchless","in_out"],"rating":{"avg":4.6,"count":334}},{"id":"28563","lat":47.617953,"lng":-122.34397499999999,"title":"2458 6th Ave - Lot 211","ftype":"lot","amenities":["self_park","paved","touchless","in_out"],"rating":{"avg":4.3,"count":153}},{"id":"99516","lat":47.619130999999996,"lng":-122.342601,"title":"113 Dexter Ave. N - Vulcan Surface Lot","ftype":"lot","amenities":["self_park","paved","touchless","in_out"],"rating":{"avg":4.6,"count":140}},{"id":"71794","lat":47.622415290594745,"lng":-122.35630660793454,"title":"50 Harrison St. - Artix Garage","ftype":"garage","amenities":["self_park","covered","touchless","in_out","ev","alley_access"],"rating":{"avg":4.2,"count":968}},{"id":"89388","lat":47.616012999999995,"lng":-122.35069999999999,"title":"2700 1st Ave. - Lot (A1127)","ftype":"lot","amenities":["self_park","paved","touchless","in_out"],"rating":{"avg":4.4,"count":203}},{"id":"104536","lat":47.622078,"lng":-122.34363199999999,"title":"701 Harrison St. - 400 Aurora Lot","ftype":"lot","amenities":["self_park","paved","touchless","in_out"],"rating":{"avg":4.7,"count":121}},{"id":"142947","lat":47.619064,"lng":-122.357713,"title":"115 Queen Anne Ave. N - Lot #015","ftype":"lot","amenities":["self_park","paved","touchless","in_out","wheelchair_accessible"],"rating":{"avg":4.6,"count":150}},{"id":"106416","lat":47.618373,"lng":-122.34277799999998,"title":"713 Denny Wy (2404 7th Ave.) - Lot (A953)","ftype":"lot","amenities":["self_park","paved","touchless","in_out"],"rating":{"avg":3.1,"count":12}},{"id":"63907","lat":47.620401,"lng":-122.35747999999998,"title":"51 W Thomas St - Rooftop Lot #060C - Alley Access","ftype":"garage","amenities":["self_park","paved","touchless","in_out","alley_access"],"rating":{"avg":4.7,"count":27}},{"id":"94797","lat":47.616136999999995,"lng":-122.35370599999997,"title":"2901 Western Ave. - Olympic Sculpture Park Garage 137","ftype":"garage","amenities":["self_park","covered","touchless"],"rating":{"avg":4.7,"count":470}},{"id":"143554","lat":47.62575799999999,"lng":-122.349686,"title":"356 Roy St. - Lot (A1110)","ftype":"lot","amenities":["self_park","paved","touchless","in_out","wheelchair_accessible"],"rating":{"avg":4.3,"count":116}},{"id":"22557","lat":47.6213901,"lng":-122.3583745,"title":"315 1st Ave. W - The Counterbalance Garage A0776","ftype":"garage","amenities":["self_park","covered","attendant"],"rating":{"avg":4.1,"count":686}},{"id":"149296","lat":47.620704,"lng":-122.341403,"title":"285 8th Ave. N - Mark on 8th Garage","ftype":"garage","amenities":["self_park","covered","touchless","attendant","ev","alley_access"],"rating":{"avg":0,"count":0}},{"id":"138378","lat":47.625654999999995,"lng":-122.35131599999998,"title":"300 Roy St. - The Maxwell Hotel Garage","ftype":"garage","amenities":["self_park","covered","attendant","wheelchair_accessible"],"rating":{"avg":4.7,"count":91}},{"id":"104001","lat":47.621799,"lng":-122.34195599999997,"title":"330 Dexter Ave. N - Lot","ftype":"lot","amenities":["self_park","paved","touchless"],"rating":{"avg":4.8,"count":323}},{"id":"63346","lat":47.61877969999999,"lng":-122.35736020000002,"title":"22 Western Ave W. (110 1st Ave W.) - Lot #036","ftype":"lot","amenities":["self_park","paved","touchless","in_out"],"rating":{"avg":5,"count":15}},{"id":"35922","lat":47.61781599999999,"lng":-122.34205299999996,"title":"2300 7th Ave. - Lot 230","ftype":"lot","amenities":["self_park","valet","paved","in_out"],"rating":{"avg":4.5,"count":144}},{"id":"10427","lat":47.61541069999999,"lng":-122.35298819999997,"title":"36 Clay St. - Olympus Apartments Garage","ftype":"garage","amenities":["self_park","covered","touchless","in_out","wheelchair_accessible"],"rating":{"avg":4.8,"count":766}},{"id":"109083","lat":47.62564499999999,"lng":-122.35386899999997,"title":"704 Warren Ave. N (110 Roy St.) - Garage (A1026)","ftype":"garage","amenities":["self_park","covered","touchless","in_out","attendant"],"rating":{"avg":4.4,"count":833}},{"id":"99320","lat":47.62300499999999,"lng":-122.34158799999999,"title":"435 8th Ave. N - Block 56 Lot","ftype":"lot","amenities":["self_park","paved","touchless","in_out"],"rating":{"avg":4.8,"count":85}},{"id":"99319","lat":47.622628,"lng":-122.34143800000001,"title":"421 8th Ave. N - Rexland Lot","ftype":"lot","amenities":["self_park","paved","touchless","in_out"],"rating":{"avg":4.8,"count":126}},{"id":"143916","lat":47.62503699999999,"lng":-122.35652299999998,"title":"600 Queen Anne Ave. N - MarQueen Hotel Valet Stand","ftype":"valet_stand","amenities":["valet","covered","attendant"],"rating":{"avg":5,"count":3}},{"id":"3138","lat":47.624154,"lng":-122.34240499999999,"title":"525 Dexter Ave. - Bozotronic Lot","ftype":"lot","amenities":["self_park","touchless","in_out","wheelchair_accessible"],"rating":{"avg":4.7,"count":360}},{"id":"99321","lat":47.62188999999999,"lng":-122.33942399999998,"title":"318 9th Ave N.  (901 Harrison St.) - City Hardware Lot","ftype":"lot","amenities":["self_park","paved","touchless","in_out","alley_access"],"rating":{"avg":4.9,"count":114}},{"id":"8820","lat":47.61903519999999,"lng":-122.35938139999998,"title":"101 Elliott Ave W. - Garage 554","ftype":"garage","amenities":["self_park","covered","touchless","ev"],"rating":{"avg":3.9,"count":40}},{"id":"84986","lat":47.61402499999999,"lng":-122.35148499999997,"title":"2600 Elliott Ave. (2601 Elliott) - Garage","ftype":"garage","amenities":["self_park","covered","ev"],"rating":{"avg":4.1,"count":392}},{"id":"120303","lat":47.62485399999999,"lng":-122.359742,"title":"616 3rd Ave. W (200 W Mercer St.) - Queen Anne Square Garage (P5573)","ftype":"garage","amenities":["self_park","covered","touchless","in_out"],"rating":{"avg":4,"count":27}},{"id":"148895","lat":47.622564000000004,"lng":-122.361577,"title":"400-498 4th Ave. W - Lot (A1045)","ftype":"lot","amenities":["self_park","paved","touchless","in_out"],"rating":{"avg":4.8,"count":178}},{"id":"155973","lat":47.620597999999994,"lng":-122.36049499999997,"title":"290 Western Ave. W (220 Elliott Ave. W) - Lot","ftype":"lot","amenities":["self_park","paved","touchless","in_out"],"rating":{"avg":4.9,"count":9}},{"id":"127507","lat":47.602323999999996,"lng":-122.334602,"title":"615 1st Ave - Lot (A035)","ftype":"lot","amenities":["self_park","paved","touchless","in_out"],"rating":{"avg":4.4,"count":31}},{"id":"14842","lat":47.6040989,"lng":-122.33222999999998,"title":"335 Columbia St. - The Pacific Building Garage","ftype":"garage","amenities":["self_park","covered","touchless","wheelchair_accessible"],"rating":{"avg":4.7,"count":567}},{"id":"154776","lat":47.603072999999995,"lng":-122.33680799999998,"title":"815 Western Ave. - Lot A1180","ftype":"lot","amenities":["self_park","paved","touchless","in_out","wheelchair_accessible"],"rating":{"avg":4.8,"count":10}},{"id":"18343","lat":47.6027288,"lng":-122.33486319999999,"title":"721 1st Ave. - Pioneer Square Garage","ftype":"garage","amenities":["self_park","covered"],"rating":{"avg":4.6,"count":1922}},{"id":"99844","lat":47.602231999999994,"lng":-122.332939,"title":"114 James St. - Butler Garage","ftype":"garage","amenities":["self_park","covered","touchless","wheelchair_accessible","ev"],"rating":{"avg":4.6,"count":1764}},{"id":"87008","lat":47.6030129052792,"lng":-122.33451005837665,"title":"714 1st Ave. - Garage","ftype":"garage","amenities":["self_park","covered","touchless","in_out"],"rating":{"avg":4.4,"count":829}},{"id":"162231","lat":47.60191999999999,"lng":-122.33281799999997,"title":"505 2nd Ave. - Lot","ftype":"lot","amenities":["self_park","paved","touchless","in_out"],"rating":{"avg":0,"count":0}},{"id":"10714","lat":47.60354399999999,"lng":-122.33500099999998,"title":"800 1st Ave. - Norton Building Garage","ftype":"garage","amenities":["self_park","covered","touchless","attendant"],"rating":{"avg":4.6,"count":496}},{"id":"10340","lat":47.60346499999999,"lng":-122.33424400000001,"title":"111 Columbia St. (719 2nd Ave.) - Millennium Tower Garage","ftype":"garage","amenities":["self_park","covered","touchless","attendant","wheelchair_accessible","ev"],"rating":{"avg":4.7,"count":499}},{"id":"10429","lat":47.6033389,"lng":-122.33242400000002,"title":"213 Cherry St. - Garage","ftype":"garage","amenities":["self_park","covered","touchless","in_out","wheelchair_accessible"],"rating":{"avg":3.7,"count":375}},{"id":"71728","lat":47.6036932,"lng":-122.33189699999997,"title":"320 Cherry St. (Arctic Club Hotel) - Valet","ftype":"garage","amenities":["valet","covered","attendant"],"rating":{"avg":4.4,"count":40}},{"id":"93573","lat":47.6012467,"lng":-122.33058220000001,"title":"117 3rd Ave S. - Frye Valet Garage","ftype":"garage","amenities":["valet","covered","attendant","wheelchair_accessible"],"rating":{"avg":4.6,"count":123}},{"id":"135716","lat":47.604042,"lng":-122.33147800000002,"title":"703 4th Ave. - 4/C Lot","ftype":"lot","amenities":["self_park","paved","touchless","in_out"],"rating":{"avg":4.7,"count":432}},{"id":"105760","lat":47.60209499999999,"lng":-122.32878800000002,"title":"400 4th Ave. - Garage (A507)","ftype":"garage","amenities":["self_park","covered","touchless","in_out"],"rating":{"avg":2.7,"count":39}},{"id":"98033","lat":47.60251099999999,"lng":-122.32962900000001,"title":"414 4th Ave. - Lot (A474)","ftype":"lot","amenities":["self_park","paved","touchless","in_out"],"rating":{"avg":4.1,"count":69}},{"id":"106385","lat":47.60044099999999,"lng":-122.32873500000001,"title":"204 4th Ave. S - Lot (A037)","ftype":"lot","amenities":["self_park","paved","touchless","in_out"],"rating":{"avg":3.9,"count":272}},{"id":"132981","lat":47.604541999999995,"lng":-122.33071299999996,"title":"409 Columbia St. - Columbia Center Garage","ftype":"garage","amenities":["self_park","covered","touchless"],"rating":{"avg":3.4,"count":61}},{"id":"62916","lat":47.60073,"lng":-122.327904,"title":"475 S Washington St. - Lot #053","ftype":"lot","amenities":["self_park","paved","touchless","in_out"],"rating":{"avg":4.6,"count":651}},{"id":"62917","lat":47.601027,"lng":-122.32744199999999,"title":"180 5th Ave S. - Lot #088","ftype":"lot","amenities":["self_park","paved","touchless","in_out"],"rating":{"avg":4.3,"count":82}},{"id":"62850","lat":47.60065799999999,"lng":-122.326949,"title":"551 S Washington St - Lot #021","ftype":"lot","amenities":["self_park","paved","touchless","in_out"],"rating":{"avg":4.2,"count":235}},{"id":"134918","lat":47.60038699999999,"lng":-122.32739199999999,"title":"214 5th Ave. S - Lot","ftype":"lot","amenities":["self_park","paved","touchless","in_out"],"rating":{"avg":4.4,"count":154}},{"id":"94696","lat":47.60483599999999,"lng":-122.327905,"title":"610 6th Ave. - 6th and Cherry Lot 134","ftype":"lot","amenities":["self_park","paved","touchless","in_out"],"rating":{"avg":3.9,"count":470}},{"id":"101107","lat":47.60046599999999,"lng":-122.32673199999998,"title":"241 6th Ave. S - Lot (A0085)","ftype":"lot","amenities":["self_park","paved","touchless","in_out"],"rating":{"avg":4.1,"count":92}},{"id":"9029","lat":47.622105,"lng":-122.321488,"title":"401 Broadway Ave. E - Broadway Market - Garage 154","ftype":"garage","amenities":["self_park","covered","touchless","in_out","wheelchair_accessible"],"rating":{"avg":4.7,"count":661}},{"id":"101694","lat":47.620554,"lng":-122.32221699999998,"title":"218 Harvard Ave. E - Lot (A496)","ftype":"lot","amenities":["self_park","paved","touchless","in_out"],"rating":{"avg":4.7,"count":5}},{"id":"18829","lat":47.61974519999999,"lng":-122.32013080000002,"title":"915 E John St. (118 Broadway E.) - Connection on Broadway Garage","ftype":"garage","amenities":["self_park","covered","touchless","in_out","wheelchair_accessible","ev"],"rating":{"avg":4.3,"count":149}},{"id":"101064","lat":47.619055,"lng":-122.324422,"title":"117 Belmont Ave. E - Lot (A450)","ftype":"lot","amenities":["self_park","paved","touchless","in_out"],"rating":{"avg":3.5,"count":31}},{"id":"157738","lat":47.61906699999999,"lng":-122.326352,"title":"112 Bellevue Ave. E - Illiad Apartments Lot","ftype":"lot","amenities":["self_park","paved","touchless","in_out"],"rating":{"avg":4.5,"count":4}},{"id":"138909","lat":47.622786999999995,"lng":-122.33207399999998,"title":"425 Pontius Ave. N - Lot (A1042)","ftype":"lot","amenities":["self_park","paved","touchless","in_out"],"rating":{"avg":4.5,"count":90}},{"id":"96019","lat":47.623122,"lng":-122.33109599999997,"title":"1263 Republican St. - Stack House Apartments Garage","ftype":"garage","amenities":["self_park","covered","touchless","in_out","ev"],"rating":{"avg":4.8,"count":525}},{"id":"102947","lat":47.621430999999994,"lng":-122.33022300000002,"title":"300 Yale Ave. N - Garage","ftype":"garage","amenities":["self_park","covered","touchless"],"rating":{"avg":4.8,"count":116}},{"id":"11194","lat":47.6320285,"lng":-122.325317,"title":"219 E Galer St - Lot 138","ftype":"lot","amenities":["self_park","paved","touchless","in_out","wheelchair_accessible"],"rating":{"avg":4,"count":40}},{"id":"104338","lat":47.630819999999986,"lng":-122.32793899999999,"title":"1201 Eastlake Ave. E - Upper Parking Lot","ftype":"lot","amenities":["self_park","paved","touchless"],"rating":{"avg":4.6,"count":85}},{"id":"125222","lat":47.630819999999986,"lng":-122.32793899999999,"title":"1201 Eastlake Ave. E - Lower Parking Garage","ftype":"garage","amenities":["self_park","covered","touchless"],"rating":{"avg":4.7,"count":94}},{"id":"134593","lat":47.592671,"lng":-122.33364099999999,"title":"1046 1st Ave. S - Silver Cloud Hotel Seattle Stadium Valet","ftype":"valet_stand","amenities":["valet","covered","attendant"],"rating":{"avg":4.7,"count":146}},{"id":"120039","lat":47.590862,"lng":-122.33571399999997,"title":"72 S Atlantic St. - Lot #057","ftype":"lot","amenities":["self_park","paved","touchless","in_out"],"rating":{"avg":4.4,"count":161}},{"id":"81396","lat":47.58898799999999,"lng":-122.33424400000001,"title":"1521 1st Ave S. - Home Plate Center Garage","ftype":"garage","amenities":["self_park","covered","ev"],"rating":{"avg":4.7,"count":4146}},{"id":"11196","lat":47.58801799999999,"lng":-122.33482900000001,"title":"1701 1st Ave. S - Lot 145","ftype":"lot","amenities":["self_park","paved","touchless","in_out","wheelchair_accessible"],"rating":{"avg":4.3,"count":364}},{"id":"7374","lat":47.595167,"lng":-122.32873999999998,"title":"820 4th Ave. S - Union Station Parking Garage","ftype":"garage","amenities":["self_park","covered","touchless","wheelchair_accessible"],"rating":{"avg":4.7,"count":5038}},{"id":"156533","lat":47.586946,"lng":-122.32503199999996,"title":"1762 6th Ave. S - Daily Parking Lot 241","ftype":"lot","amenities":["self_park","paved","touchless","in_out"],"rating":{"avg":4.1,"count":26}},{"id":"148016","lat":47.65198500000001,"lng":-122.35015999999999,"title":"3601 Fremont Ave. N - Fremont Village Square Garage","ftype":"garage","amenities":["self_park","covered","touchless","in_out","alley_access"],"rating":{"avg":4.2,"count":39}},{"id":"135648","lat":47.64858799999999,"lng":-122.349866,"title":"702 N Northlake Way - Lot #070","ftype":"lot","amenities":["self_park","paved","touchless","in_out"],"rating":{"avg":4.6,"count":46}},{"id":"144623","lat":47.649793999999986,"lng":-122.350387,"title":"620 N 34th St. - Garage (WU78)","ftype":"garage","amenities":["self_park","covered","touchless","in_out","alley_access"],"rating":{"avg":3.7,"count":6}},{"id":"135615","lat":47.651765999999995,"lng":-122.35490199999997,"title":"162 N 35th St. - Lot #075","ftype":"lot","amenities":["self_park","paved","touchless","in_out","wheelchair_accessible"],"rating":{"avg":4.1,"count":64}},{"id":"135582","lat":47.651068,"lng":-122.35470699999998,"title":"173 N 35th St. - Lot #072","ftype":"lot","amenities":["self_park","paved","touchless","in_out","wheelchair_accessible"],"rating":{"avg":4.5,"count":59}},{"id":"131787","lat":47.64668199999999,"lng":-122.350741,"title":"284 Nickerson St. - Lot #018","ftype":"lot","amenities":["self_park","paved","touchless","in_out"],"rating":{"avg":2.5,"count":4}},{"id":"109281","lat":47.648808,"lng":-122.345874,"title":"950 N Northlake Way. - Lot #055","ftype":"lot","amenities":["self_park","paved","touchless","in_out"],"rating":{"avg":4.3,"count":8}},{"id":"63312","lat":47.65181989999999,"lng":-122.357121,"title":"100 N Canal St. - Lot #087","ftype":"lot","amenities":["self_park","paved","touchless"],"rating":{"avg":4.3,"count":16}},{"id":"62982","lat":47.648498999999994,"lng":-122.344072,"title":"1050 N Northlake Way - Lot #066","ftype":"lot","amenities":["self_park","paved","touchless","in_out"],"rating":{"avg":4.4,"count":219}},{"id":"144627","lat":47.65170899999998,"lng":-122.34290699999998,"title":"3633 Stone Wy. N - Garage (WX18)","ftype":"garage","amenities":["self_park","covered","touchless","in_out"],"rating":{"avg":4.7,"count":8}},{"id":"119686","lat":47.65037099999999,"lng":-122.342415,"title":"1325 N 36th St. - Corner Stone Garage (WX82)","ftype":"garage","amenities":["self_park","covered","touchless","in_out"],"rating":{"avg":4.3,"count":17}},{"id":"153513","lat":47.65245899999999,"lng":-122.34231,"title":"3670 Stone Way N - Garage (WX92)","ftype":"garage","amenities":["self_park","covered","touchless","in_out","wheelchair_accessible"],"rating":{"avg":0,"count":0}},{"id":"83445","lat":47.64878190099201,"lng":-122.35647941534423,"title":"26 Dravus St. - Lot A0646","ftype":"lot","amenities":["self_park","paved","touchless","in_out"],"rating":{"avg":4.9,"count":17}},{"id":"85164","lat":47.609976399999994,"lng":-122.33077159999998,"title":"1267 Hubbell Pl. - Freeway Park Garage - Seattle Convention Center","ftype":"garage","amenities":["self_park","covered","touchless","in_out"],"rating":{"avg":3.6,"count":143}},{"id":"100606","lat":47.60803099999998,"lng":-122.329454,"title":"1019 8th Ave. - Lot (A911)","ftype":"lot","amenities":["self_park","paved","touchless","in_out"],"rating":{"avg":3.8,"count":117}},{"id":"153563","lat":47.611717859999985,"lng":-122.3315238,"title":"1400 8th Ave. - (982 Pike St.) - Arch Garage - Seattle Convention Center","ftype":"garage","amenities":["self_park","covered","touchless","wheelchair_accessible","ev"],"rating":{"avg":4,"count":1452}},{"id":"85162","lat":47.612751999999986,"lng":-122.33051099999999,"title":"982 Pike St. - Arch Garage - Seattle Convention Center","ftype":"garage","amenities":["self_park","covered","touchless","wheelchair_accessible","ev"],"rating":{"avg":4,"count":1452}},{"id":"103484","lat":47.608385999999996,"lng":-122.32850499999999,"title":"1011 9th Ave. (1000 8th Ave.) - The Mills Apartment Lot (A1145)","ftype":"lot","amenities":["self_park","paved","touchless","in_out"],"rating":{"avg":4.7,"count":37}},{"id":"13975","lat":47.614104,"lng":-122.333201,"title":"809 Olive Way - The Olivian Garage (Alley Access)","ftype":"garage","amenities":["self_park","covered","touchless","in_out"],"rating":{"avg":4.8,"count":1527}},{"id":"63545","lat":47.60649819999998,"lng":-122.3265008,"title":"801 Columbia St. - Garage #056","ftype":"garage","amenities":["self_park","covered","touchless","in_out","wheelchair_accessible"],"rating":{"avg":4.7,"count":449}},{"id":"96977","lat":47.60723999999999,"lng":-122.32673399999999,"title":"815 9th Ave. -St. James Cathedral  Lot (A1102)","ftype":"lot","amenities":["self_park","paved","touchless","in_out"],"rating":{"avg":4.4,"count":30}},{"id":"101033","lat":47.61457999999999,"lng":-122.33323399999999,"title":"800 Olive Way - Lot (A0302)","ftype":"lot","amenities":["self_park","paved","touchless","in_out"],"rating":{"avg":4.1,"count":43}},{"id":"64039","lat":47.614871599999994,"lng":-122.33383639999997,"title":"824 Howell St. - Lot #051","ftype":"lot","amenities":["self_park","paved","touchless","in_out","wheelchair_accessible"],"rating":{"avg":4.7,"count":881}},{"id":"29223","lat":47.61524899999999,"lng":-122.33325639999998,"title":"1800 9th Ave. - Garage","ftype":"garage","amenities":["self_park","covered","touchless","in_out","wheelchair_accessible","ev"],"rating":{"avg":4.7,"count":657}},{"id":"10763","lat":47.615636999999985,"lng":-122.33542700000001,"title":"818 Stewart St. - Garage (Alley Access)","ftype":"garage","amenities":["self_park","covered","touchless","in_out","wheelchair_accessible","ev","alley_access"],"rating":{"avg":4.6,"count":114}},{"id":"85161","lat":47.6149229,"lng":-122.33142049999998,"title":"1009 Olive Way - Summit Garage - Seattle Convention Center","ftype":"garage","amenities":["self_park","covered","touchless","ev"],"rating":{"avg":4.4,"count":860}},{"id":"41270","lat":47.61582599999999,"lng":-122.33369700000002,"title":"919 Stewart St. - The Aspira Building - Garage","ftype":"garage","amenities":["self_park","covered","touchless","in_out","attendant","alley_access"],"rating":{"avg":4,"count":334}},{"id":"92955","lat":47.61765299999999,"lng":-122.338779,"title":"2201 Westlake Ave. - Garage","ftype":"garage","amenities":["self_park","covered","touchless","in_out","wheelchair_accessible","ev"],"rating":{"avg":4.7,"count":508}},{"id":"14285","lat":47.61785199999999,"lng":-122.33798589999999,"title":"2190 9th Ave - 2200 Garage","ftype":"garage","amenities":["self_park","covered","touchless","in_out","wheelchair_accessible","ev"],"rating":{"avg":4.6,"count":209}},{"id":"99318","lat":47.618888999999996,"lng":-122.33887399999999,"title":"101 Westlake Ave. N - Discovery Center Lot","ftype":"lot","amenities":["self_park","paved","touchless","in_out"],"rating":{"avg":5,"count":99}},{"id":"106383","lat":47.617249,"lng":-122.33658099999997,"title":"2020 9th Ave. (901 Lenora St.) - Lot (A779)","ftype":"lot","amenities":["self_park","paved","touchless","in_out"],"rating":{"avg":4.9,"count":28}},{"id":"89877","lat":47.62317199999999,"lng":-122.33513099999998,"title":"1121 Republican St (425 Fairview Ave.) - Ascent SLU Garage","ftype":"garage","amenities":["self_park","covered","touchless","in_out","wheelchair_accessible"],"rating":{"avg":4.7,"count":601}},{"id":"139124","lat":47.62238,"lng":-122.33785199999997,"title":"970 Harrison St. - 400 Westlake Garage","ftype":"garage","amenities":["self_park","covered","wheelchair_accessible","alley_access"],"rating":{"avg":4.4,"count":33}},{"id":"99317","lat":47.62072899999999,"lng":-122.33810999999997,"title":"967 Thomas St. (230 Westlake Ave. N) - Trick and Murray Lot","ftype":"lot","amenities":["self_park","paved","touchless","in_out"],"rating":{"avg":4.8,"count":138}},{"id":"99315","lat":47.62578499999999,"lng":-122.339924,"title":"711 9th Ave. N - Block 79 Lot","ftype":"lot","amenities":["self_park","paved","touchless","in_out"],"rating":{"avg":4.5,"count":199}},{"id":"100410","lat":47.619076,"lng":-122.33737799999999,"title":"971 John St (111 Terry Ave. N) -  (A1022) Kiara Garage","ftype":"garage","amenities":["self_park","covered","touchless","in_out","alley_access"],"rating":{"avg":4.7,"count":522}},{"id":"45690","lat":47.61894299999997,"lng":-122.33542879999999,"title":"112 Boren Ave N - Onni South Lake Union Garage","ftype":"garage","amenities":["self_park","covered","touchless","in_out","ev"],"rating":{"avg":4.6,"count":341}},{"id":"99323","lat":47.626743999999995,"lng":-122.33493499999999,"title":"809 Fairview Pl. N - Lot","ftype":"lot","amenities":["self_park","paved","touchless","in_out"],"rating":{"avg":4.6,"count":135}},{"id":"99322","lat":47.627804,"lng":-122.333168,"title":"901 Fairview Ave. N - Lot","ftype":"lot","amenities":["self_park","paved","touchless","in_out"],"rating":{"avg":4.5,"count":159}},{"id":"99325","lat":47.619868,"lng":-122.33255100000001,"title":"210 Minor Ave. N - Block 18 Lot","ftype":"lot","amenities":["self_park","paved","touchless","in_out"],"rating":{"avg":4.7,"count":62}},{"id":"130381","lat":47.62026899999999,"lng":-122.33058300000002,"title":"1280 John St. (221 Yale Ave.) - Alley 24 Garage","ftype":"garage","amenities":["self_park","covered"],"rating":{"avg":4.9,"count":85}},{"id":"104959","lat":47.628402,"lng":-122.34194799999999,"title":"1000 Dexter Ave. N - Garage","ftype":"garage","amenities":["self_park","covered","touchless","in_out"],"rating":{"avg":3.1,"count":2}},{"id":"111794","lat":47.617363999999995,"lng":-122.33347899999998,"title":"1024 Stewart St. (1931 Boren Ave.) - Seattle Children's Research Institute Lot (A1028)","ftype":"lot","amenities":["self_park","paved","touchless","in_out"],"rating":{"avg":4.8,"count":689}},{"id":"108318","lat":47.629351,"lng":-122.339929,"title":"1200 Westlake Ave. N - AGC Washington Lot","ftype":"lot","amenities":["self_park","paved","in_out","wheelchair_accessible","ev"],"rating":{"avg":5,"count":8}},{"id":"103513","lat":47.619179,"lng":-122.330219,"title":"100 Yale Ave N - Lot (A640)","ftype":"lot","amenities":["self_park","paved","touchless","in_out"],"rating":{"avg":4.5,"count":17}},{"id":"118192","lat":47.617537999999996,"lng":-122.33230999999999,"title":"1176 Stewart St. (1901 Minor Ave.) - Lot A477","ftype":"lot","amenities":["self_park","paved","touchless","in_out"],"rating":{"avg":4.4,"count":20}},{"id":"85130","lat":47.61795109999999,"lng":-122.33141770000002,"title":"1220 Howell St. - MetPark North Garage","ftype":"garage","amenities":["self_park","covered","touchless"],"rating":{"avg":4.8,"count":64}},{"id":"85261","lat":47.62952399999999,"lng":-122.343147,"title":"1114 Aurora Ave. N - Capstone Lot A1006","ftype":"lot","amenities":["self_park","paved","touchless","in_out"],"rating":{"avg":4.4,"count":125}},{"id":"7571","lat":47.608926,"lng":-122.32411600000002,"title":"1140 Marion St (1101 Madison St.) - Marion & Minor Garage","ftype":"garage","amenities":["self_park","covered","attendant","ev"],"rating":{"avg":4.6,"count":82}},{"id":"63577","lat":47.611327999999986,"lng":-122.322239,"title":"1020 Boylston Ave. - Lot #091","ftype":"lot","amenities":["self_park","paved","touchless","in_out","wheelchair_accessible"],"rating":{"avg":4.5,"count":108}},{"id":"110054","lat":47.610195,"lng":-122.322272,"title":"976 Summit Ave - Madison Tower Garage","ftype":"garage","amenities":["self_park","covered"],"rating":{"avg":4.9,"count":42}},{"id":"135551","lat":47.60832799999999,"lng":-122.32036399999998,"title":"700 Broadway - Garage","ftype":"garage","amenities":["self_park","covered","touchless","in_out"],"rating":{"avg":5,"count":6}},{"id":"96988","lat":47.61128199999999,"lng":-122.323571,"title":"1300 Spring St. - Lot (A1122)","ftype":"lot","amenities":["self_park","paved","touchless","in_out"],"rating":{"avg":4.1,"count":103}},{"id":"143549","lat":47.60625799999999,"lng":-122.321765,"title":"1166 Jefferson St. (515 Minor Ave.) - First Hill Medical Center Garage","ftype":"garage","amenities":["self_park","covered","in_out"],"rating":{"avg":4.5,"count":42}},{"id":"13466","lat":47.607948,"lng":-122.319763,"title":"1048 E Cherry St. (600 Broadway) - Garage","ftype":"garage","amenities":["self_park","covered","wheelchair_accessible","ev"],"rating":{"avg":4.4,"count":29}},{"id":"138562","lat":47.61261699999999,"lng":-122.32111199999999,"title":"1145 Broadway - The Polyclinic Garage (A1040)","ftype":"garage","amenities":["self_park","covered","touchless","in_out"],"rating":{"avg":4.6,"count":335}},{"id":"98031","lat":47.61196799999999,"lng":-122.320326,"title":"1120 Broadway - Garage (A903)","ftype":"garage","amenities":["self_park","covered","touchless","in_out"],"rating":{"avg":4,"count":69}},{"id":"99517","lat":47.62242599999999,"lng":-122.31965500000001,"title":"412 10th Ave. - Lot 232","ftype":"lot","amenities":["self_park","paved","touchless","in_out","alley_access"],"rating":{"avg":3.7,"count":44}},{"id":"138052","lat":47.61284499999999,"lng":-122.321154,"title":"851 E Union St. - Lot (A1039)","ftype":"lot","amenities":["self_park","paved","touchless","in_out"],"rating":{"avg":4.6,"count":154}},{"id":"9143","lat":47.61349899999999,"lng":-122.320891,"title":"1425 Broadway (1401 Broadway) - Harvard Market - Garage 72","ftype":"garage","amenities":["self_park","covered","touchless","in_out","wheelchair_accessible"],"rating":{"avg":4.6,"count":391}},{"id":"115719","lat":47.612686999999994,"lng":-122.32239399999997,"title":"763 E Union St. (1422 Seneca St.) - Lot (A1143)","ftype":"lot","amenities":["self_park","paved","touchless","in_out"],"rating":{"avg":3.5,"count":174}},{"id":"152649","lat":47.608801,"lng":-122.316411,"title":"1207 E Columbia St. - Rianna Apartments Lot (A846)","ftype":"lot","amenities":["self_park","paved","touchless","in_out","wheelchair_accessible"],"rating":{"avg":4.7,"count":8}},{"id":"152808","lat":47.608801,"lng":-122.316411,"title":"1204 E Columbia St. (728 12th Ave.) - Rianna Apartments Lot (A846)","ftype":"lot","amenities":["self_park","paved","touchless","in_out","wheelchair_accessible"],"rating":{"avg":4.7,"count":8}},{"id":"124329","lat":47.613461,"lng":-122.31650200000001,"title":"1410 12th Ave. - Trace North Garage (A947)","ftype":"garage","amenities":["self_park","covered","touchless","in_out"],"rating":{"avg":4.9,"count":15}},{"id":"113609","lat":47.61423,"lng":-122.325869,"title":"1537 Summit Ave. (420 E Pike St.) - The Summit Garage","ftype":"lot","amenities":["self_park","covered","touchless","in_out"],"rating":{"avg":4.7,"count":117}},{"id":"127509","lat":47.614922,"lng":-122.32537700000002,"title":"1523 Summit Ave. - Lot (A682)","ftype":"lot","amenities":["self_park","paved","touchless","in_out"],"rating":{"avg":4.8,"count":19}},{"id":"108309","lat":47.614799999999995,"lng":-122.32757999999997,"title":"1528 Melrose Ave. - Excelsior Apartments Garage","ftype":"garage","amenities":["self_park","covered","in_out","wheelchair_accessible","ev"],"rating":{"avg":4.6,"count":10}},{"id":"94800","lat":47.61471699999999,"lng":-122.32466999999997,"title":"1519 Belmont Ave. - Lot 123","ftype":"lot","amenities":["self_park","paved","touchless"],"rating":{"avg":4.4,"count":141}},{"id":"94964","lat":47.61479299999999,"lng":-122.32479199999999,"title":"1521 Belmont Ave. -  Hines Lot 126","ftype":"lot","amenities":["self_park","paved","touchless","in_out"],"rating":{"avg":4.2,"count":94}},{"id":"163148","lat":47.61510299999999,"lng":-122.31899099999998,"title":"1001 E Pine St. - Lot A949","ftype":"lot","amenities":["self_park","paved","touchless","in_out"],"rating":{"avg":0,"count":0}},{"id":"117234","lat":47.616116999999996,"lng":-122.32020400000002,"title":"1641 Nagle Pl. - The Broadway Building Garage","ftype":"garage","amenities":["self_park","covered","touchless"],"rating":{"avg":4.5,"count":348}},{"id":"11791","lat":47.661655599999996,"lng":-122.31454929999997,"title":"4507 Brooklyn Ave. NE - Graduate Hotel Valet","ftype":"valet_stand","amenities":["valet","paved","attendant","wheelchair_accessible"],"rating":{"avg":4.9,"count":196}},{"id":"20977","lat":47.6601583,"lng":-122.31827879999996,"title":"4323 Roosevelt Way - Lot WX55","ftype":"lot","amenities":["self_park","touchless","in_out"],"rating":{"avg":4.6,"count":92}},{"id":"108319","lat":47.658561999999996,"lng":-122.31240799999998,"title":"4247 15th Ave. NE (4201 15th Ave. NE) - Russell Hall Garage","ftype":"garage","amenities":["self_park","covered","in_out","wheelchair_accessible","ev"],"rating":{"avg":4.7,"count":60}},{"id":"58692","lat":47.6637327,"lng":-122.31348969999999,"title":"4719 University Way NE. - Bank of America Garage WU77 (Stalls 1-34)","ftype":"garage","amenities":["self_park","covered","touchless","in_out"],"rating":{"avg":4.4,"count":6}},{"id":"60574","lat":47.6637327,"lng":-122.31348969999999,"title":"4719 University Way NE. - Bank of America Garage WU58 (Stalls 35-59)","ftype":"garage","amenities":["self_park","covered","touchless","in_out"],"rating":{"avg":2.3,"count":3}},{"id":"11551","lat":47.662009299999994,"lng":-122.31622299999998,"title":"4520 11th Ave. NE - Lot WX11","ftype":"lot","amenities":["self_park","paved","touchless","in_out"],"rating":{"avg":4.4,"count":79}},{"id":"143764","lat":47.664765999999986,"lng":-122.31338000000001,"title":"4749 University Wy. NE - Lot (WX88)","ftype":"lot","amenities":["self_park","paved","touchless","in_out","wheelchair_accessible"],"rating":{"avg":3.4,"count":13}},{"id":"146403","lat":47.661549,"lng":-122.30917999999998,"title":"4506 17th Ave. NE - Lot (WX102)","ftype":"lot","amenities":["self_park","paved","touchless","in_out","alley_access"],"rating":{"avg":3.4,"count":7}},{"id":"144624","lat":47.662444,"lng":-122.31612100000001,"title":"4536 11th Ave. NE - Lot (WX100)","ftype":"lot","amenities":["self_park","paved","touchless","in_out"],"rating":{"avg":4.3,"count":30}},{"id":"143760","lat":47.664554999999986,"lng":-122.31449599999999,"title":"4751 Brooklyn Ave. NE - Lot (WX65)","ftype":"lot","amenities":["self_park","paved","touchless","in_out","wheelchair_accessible"],"rating":{"avg":3.2,"count":26}},{"id":"16821","lat":47.661528999999994,"lng":-122.31850499999999,"title":"4515 9th Ave. NE - Lot WU06","ftype":"lot","amenities":["self_park","paved","touchless","in_out"],"rating":{"avg":4.4,"count":10}},{"id":"141964","lat":47.65951999999999,"lng":-122.31740899999998,"title":"4242 Roosevelt Way NE - Watertown Hotel Garage","ftype":"garage","amenities":["self_park","valet","covered"],"rating":{"avg":4.8,"count":41}},{"id":"111299","lat":47.661699,"lng":-122.31874,"title":"4517 9th Ave. NE - Lot (WU07)","ftype":"lot","amenities":["self_park","paved","touchless","in_out"],"rating":{"avg":3.8,"count":8}},{"id":"143759","lat":47.65910699999999,"lng":-122.31808500000001,"title":"4259 Roosevelt Wy. NE - Lot (WX56)","ftype":"lot","amenities":["self_park","paved","touchless","in_out","wheelchair_accessible"],"rating":{"avg":0,"count":0}},{"id":"74598","lat":47.6585589,"lng":-122.3175379,"title":"4212 Roosevelt Way NE. - WX71 Lot","ftype":"lot","amenities":["self_park","paved","touchless","in_out"],"rating":{"avg":4.3,"count":15}},{"id":"58659","lat":47.661001,"lng":-122.32022199999999,"title":"4481 8th Ave NE. - Lot WU64","ftype":"lot","amenities":["self_park","paved","touchless","in_out"],"rating":{"avg":4.8,"count":11}},{"id":"109968","lat":47.658196,"lng":-122.31834599999999,"title":"4225 Roosevelt Wy. NE - Garage","ftype":"garage","amenities":["self_park","covered","touchless"],"rating":{"avg":5,"count":2}},{"id":"136415","lat":47.659479,"lng":-122.34187699999998,"title":"700 NE 45th St - Lot (WU19)","ftype":"lot","amenities":["self_park","paved","touchless","in_out"],"rating":{"avg":0,"count":0}},{"id":"141969","lat":47.657993999999995,"lng":-122.317614,"title":"4162 Roosevelt Way NE - University Inn Garage","ftype":"lot","amenities":["self_park","paved","touchless","in_out"],"rating":{"avg":4.7,"count":20}},{"id":"48528","lat":47.662303099999995,"lng":-122.30546440000002,"title":"4626 21st Ave NE - Husky Stadium Event Lot WX57","ftype":"lot","amenities":["self_park","paved","touchless","in_out"],"rating":{"avg":4.5,"count":18}},{"id":"143763","lat":47.657697,"lng":-122.31821699999999,"title":"956 NE 42nd St. - Lot (WX86)","ftype":"lot","amenities":["self_park","paved","touchless","in_out","wheelchair_accessible"],"rating":{"avg":5,"count":6}},{"id":"143762","lat":47.662929999999996,"lng":-122.30596899999999,"title":"2003 NE 47th St. - Lot (WX81)","ftype":"lot","amenities":["self_park","paved","touchless","in_out"],"rating":{"avg":4.9,"count":8}},{"id":"152651","lat":47.664649,"lng":-122.30519499999998,"title":"4798 21st Ave. NE - Lot","ftype":"lot","amenities":["self_park","paved","touchless","in_out"],"rating":{"avg":0,"count":0}},{"id":"135353","lat":47.656217999999996,"lng":-122.32163999999999,"title":"4006 Pasadena Pl. NE - Spot #1 or #2 Only","ftype":"lot","amenities":["self_park","paved","touchless","in_out","alley_access"],"rating":{"avg":4.4,"count":11}},{"id":"133009","lat":47.657046,"lng":-122.32116,"title":"4049 7th Ave. NE - Spots #2, #4 or #5 Only","ftype":"lot","amenities":["self_park","paved","touchless","in_out","alley_access"],"rating":{"avg":3.7,"count":11}},{"id":"84168","lat":47.6694606,"lng":-122.3854877,"title":"2214 NW 56th St. (5621 22nd Ave. NW) - Ballard Commons Garage (4598)","ftype":"garage","amenities":["self_park","covered","touchless","in_out","ev"],"rating":{"avg":4.6,"count":139}},{"id":"18611","lat":47.66923799999999,"lng":-122.38618300000002,"title":"2224 NW 56th St. (2228 NW Market St.) - Ballard Square Lot 190","ftype":"lot","amenities":["self_park","paved","touchless"],"rating":{"avg":4.6,"count":72}},{"id":"85027","lat":47.667686799999984,"lng":-122.38056629999996,"title":"5321 Tallman Ave. NW - Swedish Medical Center Garage","ftype":"garage","amenities":["self_park","covered","touchless","in_out"],"rating":{"avg":4.9,"count":85}},{"id":"108293","lat":47.66842299999998,"lng":-122.39183499999997,"title":"5408 28th Ave. NW (2655 NW Market St.) - Nordic Museum Lot","ftype":"lot","amenities":["self_park","paved","touchless","in_out","wheelchair_accessible"],"rating":{"avg":4.6,"count":48}},{"id":"84960","lat":47.667310199999996,"lng":-122.37654969999997,"title":"5305 15th Ave NW. - Lot A1117","ftype":"lot","amenities":["self_park","paved","touchless","in_out"],"rating":{"avg":4.6,"count":47}},{"id":"119874","lat":47.56069999999999,"lng":-122.384092,"title":"4704 42nd Ave. SW - Jefferson Square Garage (A941)","ftype":"garage","amenities":["self_park","covered","touchless","in_out"],"rating":{"avg":4.9,"count":27}},{"id":"105324","lat":47.55949499999999,"lng":-122.38578499999997,"title":"4207 SW Edmunds St. - Lot (A932)","ftype":"lot","amenities":["self_park","paved","touchless","in_out"],"rating":{"avg":5,"count":8}},{"id":"85232","lat":47.560827999999994,"lng":-122.383876,"title":"4714 41st Ave SW. (4001 SW Alaska St.) - Bank of America Lot","ftype":"lot","amenities":["self_park","paved","touchless","in_out"],"rating":{"avg":4.9,"count":30}},{"id":"100109","lat":47.555699999999995,"lng":-122.38747699999999,"title":"5217 California Ave. SW - CVS Lot (A768)","ftype":"lot","amenities":["self_park","paved","touchless","in_out"],"rating":{"avg":5,"count":3}},{"id":"138304","lat":47.54892799999998,"lng":-122.315966,"title":"6020 Airport Wy. S - The Original Rainier Brewery Lot","ftype":"lot","amenities":["self_park","paved","touchless","in_out","wheelchair_accessible"],"rating":{"avg":4.7,"count":15}}]}