{"generated_at":"2026-07-20T15:04:10.347Z","city":"lv","calls":16,"failed":0,"count":21,"nonnull_pct":{"amenities":100,"rating":100,"ftype":100},"facilities":[{"id":"111855","lat":36.10774,"lng":-115.17063399999999,"title":"3725 S Las Vegas Blvd - Lot","ftype":"lot","amenities":["self_park","paved","touchless"],"rating":{"avg":4.8,"count":394}},{"id":"136409","lat":36.170376,"lng":-115.14122200000001,"title":"179 N 4th St. - Neonopolis Underground Parking Garage","ftype":"garage","amenities":["self_park","covered","touchless","wheelchair_accessible"],"rating":{"avg":4.1,"count":32}},{"id":"111862","lat":36.16989399999999,"lng":-115.13698199999999,"title":"707 E Ogden Ave. - El Cortez Garage","ftype":"garage","amenities":["self_park","covered","in_out","ev"],"rating":{"avg":4.8,"count":46}},{"id":"7941","lat":36.167848,"lng":-115.14257599999999,"title":"217 S 4th St. - LV14 Lot","ftype":"lot","amenities":["self_park","touchless","in_out","attendant","wheelchair_accessible"],"rating":{"avg":4.4,"count":156}},{"id":"123913","lat":36.167942,"lng":-115.139539,"title":"143 S 6th St. (601 E Fremont St.) - Triple B Lot","ftype":"lot","amenities":["self_park","paved","touchless","in_out"],"rating":{"avg":5,"count":6}},{"id":"123775","lat":36.167319,"lng":-115.141449,"title":"201 S Las Vegas Blvd. - Lot","ftype":"lot","amenities":["self_park","paved","touchless","in_out","wheelchair_accessible"],"rating":{"avg":3.8,"count":3}},{"id":"56976","lat":36.17284659999999,"lng":-115.14268129999999,"title":"282 N Casino Center Blvd. - Garage","ftype":"garage","amenities":["self_park","covered","touchless","in_out"],"rating":{"avg":2.8,"count":12}},{"id":"110043","lat":36.167606,"lng":-115.14167,"title":"Parkade Garage - 201 Las Vegas Blvd","ftype":"garage","amenities":["self_park","covered","touchless","wheelchair_accessible"],"rating":{"avg":2.9,"count":59}},{"id":"7924","lat":36.16737319999999,"lng":-115.14580729999999,"title":"321 S Casino Center Blvd. - LV13 Lewis Street Garage","ftype":"garage","amenities":["self_park","covered","touchless","in_out","attendant"],"rating":{"avg":4.5,"count":33}},{"id":"145779","lat":36.171004,"lng":-115.147784,"title":"212 S Main St. (1 N Main St.) - The Plaza Hotel & Casino Garage","ftype":"garage","amenities":["self_park","covered","touchless","in_out"],"rating":{"avg":5,"count":1}},{"id":"123564","lat":36.100148999999995,"lng":-115.182015,"title":"Las Vegas Home2 Suites. - 4940 Dean Martin Dr.","ftype":"lot","amenities":["self_park","paved","wheelchair_accessible"],"rating":{"avg":4.3,"count":30}},{"id":"123597","lat":36.100234,"lng":-115.182105,"title":"Las Vegas TownPlace Suites. - 4920 Dean Martin Dr","ftype":"lot","amenities":["self_park","paved","wheelchair_accessible"],"rating":{"avg":4.7,"count":33}},{"id":"11143","lat":36.104338822208724,"lng":-115.17275356225412,"title":"3769 Las Vegas Blvd S - Showcase Mall Garage","ftype":"garage","amenities":["self_park","covered","in_out","attendant","wheelchair_accessible"],"rating":{"avg":4.6,"count":428}},{"id":"11816","lat":36.104384,"lng":-115.17272700000001,"title":"Showcase Mall Garage - Covered Self Park (Multi-day Reservations)","ftype":"garage","amenities":["self_park","covered","in_out","attendant","wheelchair_accessible"],"rating":{"avg":4.8,"count":404}},{"id":"143395","lat":36.106369,"lng":-115.172495,"title":"3747 S Las Vegas Blvd. - BLVD Lot","ftype":"lot","amenities":["self_park","paved","in_out"],"rating":{"avg":4.5,"count":130}},{"id":"149823","lat":36.105188,"lng":-115.181832,"title":"4655 Dean Martin Dr. - Hilton Garden Inn & Homewood Suites Garage","ftype":"garage","amenities":["self_park","covered","in_out","alley_access"],"rating":{"avg":5,"count":6}},{"id":"80604","lat":36.1314601,"lng":-115.1580764,"title":"15 Debbie Reynolds Dr. (305 Convention Center Dr.) - Lot","ftype":"lot","amenities":["self_park","paved","touchless","in_out"],"rating":{"avg":4.8,"count":30}},{"id":"86498","lat":36.130351,"lng":-115.15608,"title":"Courtyard by Marriott Las Vegas Convention Center - Uncovered Self Park","ftype":"lot","amenities":["self_park","paved","attendant","wheelchair_accessible"],"rating":{"avg":4.5,"count":39}},{"id":"125791","lat":36.131909,"lng":-115.16024599999999,"title":"101 Convention Center Dr. - 101 Convention Center Plaza Garage","ftype":"garage","amenities":["self_park","covered","wheelchair_accessible"],"rating":{"avg":4.4,"count":37}},{"id":"87831","lat":36.13127099999999,"lng":-115.155416,"title":"Residence Inn by Marriott LVCC - Uncovered Self Parking","ftype":"lot","amenities":["self_park","paved","attendant","wheelchair_accessible"],"rating":{"avg":5,"count":36}},{"id":"137711","lat":36.135172,"lng":-115.15552299999999,"title":"2989 Paradise Rd. - Springhill Suites Garage","ftype":"garage","amenities":["self_park","covered","wheelchair_accessible"],"rating":{"avg":5,"count":7}}]}