{"generated_at":"2026-07-13T15:43:16.185Z","city":"kc","calls":16,"failed":0,"count":16,"nonnull_pct":{"amenities":100,"rating":100,"ftype":100},"facilities":[{"id":"103442","lat":39.09796999999999,"lng":-94.58533,"title":"106 W 14th St. - Lot","ftype":"lot","amenities":["self_park","paved","touchless","in_out"],"rating":{"avg":4.5,"count":117}},{"id":"132288","lat":39.099205999999995,"lng":-94.581628,"title":"1201 Walnut St. - 1201 Walnut Garage","ftype":"garage","amenities":["self_park","covered","touchless","wheelchair_accessible"],"rating":{"avg":4.3,"count":257}},{"id":"108101","lat":39.098820999999994,"lng":-94.579205,"title":"1204 Oak St. (1200 Oak St.) - Board Of Education Garage","ftype":"lot","amenities":["self_park","paved"],"rating":{"avg":4.3,"count":141}},{"id":"149604","lat":39.094995,"lng":-94.580297,"title":"1522 McGee St. - Resurrection Downtown Lot","ftype":"lot","amenities":["self_park","paved","touchless","in_out","alley_access"],"rating":{"avg":5,"count":15}},{"id":"116839","lat":39.100297,"lng":-94.579368,"title":"1121 McGee St. - City of Fountains Lot","ftype":"lot","amenities":["self_park","paved","touchless","in_out","wheelchair_accessible"],"rating":{"avg":4.4,"count":103}},{"id":"111800","lat":39.094173999999995,"lng":-94.580874,"title":"250 E 17th St. (1601 Grand Blvd.) - Resurrection Church Lot","ftype":"lot","amenities":["self_park","paved","touchless","in_out"],"rating":{"avg":4.6,"count":45}},{"id":"108100","lat":39.090655,"lng":-94.583301,"title":"1817 Main St. - Corrigan Station Lot","ftype":"lot","amenities":["self_park","paved","touchless"],"rating":{"avg":4.4,"count":68}},{"id":"131892","lat":39.08404199999999,"lng":-94.594242,"title":"801 Southwest Blvd. - Royal Liquor Lot","ftype":"lot","amenities":["self_park","paved","touchless","wheelchair_accessible"],"rating":{"avg":4.3,"count":11}},{"id":"110060","lat":39.08957199999999,"lng":-94.580875,"title":"206 E 20th St. - Price Lot","ftype":"lot","amenities":["self_park","paved","touchless"],"rating":{"avg":4.8,"count":95}},{"id":"148833","lat":39.091094,"lng":-94.578639,"title":"1819 Oak St. - XR District Parking Lot","ftype":"lot","amenities":["self_park","paved","touchless","in_out","wheelchair_accessible"],"rating":{"avg":4.7,"count":14}},{"id":"95421","lat":39.089327999999995,"lng":-94.57708,"title":"1918 Cherry St. - Lot","ftype":"lot","amenities":["self_park","paved","touchless","in_out"],"rating":{"avg":3.7,"count":10}},{"id":"106152","lat":39.10329899999999,"lng":-94.578766,"title":"904 Oak St. (317 E 9th St.)","ftype":"lot","amenities":["self_park","paved","touchless","in_out"],"rating":{"avg":4.1,"count":60}},{"id":"152960","lat":39.103014,"lng":-94.57634,"title":"614 E 10th St. (901 Cherry St.) - East Village Garage","ftype":"garage","amenities":["self_park","covered"],"rating":{"avg":3.5,"count":6}},{"id":"133242","lat":39.108877,"lng":-94.585873,"title":"350 W 4th St. (300 Wyandotte St.) - 3Y Garage","ftype":"garage","amenities":["self_park","covered","touchless"],"rating":{"avg":4.8,"count":16}},{"id":"148005","lat":39.054374,"lng":-94.585438,"title":"3979 Main St. (10 E 40th St.) - St. Paul's North Lot","ftype":"lot","amenities":["self_park","paved","touchless","in_out","wheelchair_accessible"],"rating":{"avg":4.4,"count":8}},{"id":"107951","lat":39.055465999999996,"lng":-94.585385,"title":"3920 Walnut St. - Lot","ftype":"lot","amenities":["self_park","paved","touchless","in_out","wheelchair_accessible"],"rating":{"avg":4.7,"count":5}}]}