{"generated_at":"2026-07-18T03:32:49.361Z","city":"dal","source":"OpenStreetMap (tourism=hotel)","count":307,"hotels":[{"name":"FunAsia","lat":32.94424,"lng":-96.70296},{"name":"Hotel Crescent Court","lat":32.79415,"lng":-96.8042},{"name":"Sleep Inn","lat":32.8952,"lng":-96.90468},{"name":"MainStay Suites","lat":32.89486,"lng":-96.90468},{"name":"Hilton Garden Inn","lat":33.00278,"lng":-96.74179},{"name":"TownePlace Suites","lat":32.77743,"lng":-96.79492},{"name":"Residence Inn","lat":32.78026,"lng":-96.79619},{"name":"Hilton Garden Inn","lat":32.78199,"lng":-96.79899},{"name":"Residence Inn","lat":32.88457,"lng":-96.96213},{"name":"Fairfield Inn & Suites","lat":32.85889,"lng":-96.89492},{"name":"Hyatt House","lat":32.79489,"lng":-96.81012},{"name":"Thompson Dallas","lat":32.78159,"lng":-96.80036},{"name":"Parks Residential","lat":32.98058,"lng":-96.70535},{"name":"Studio 6 Dallas - Fair Park","lat":32.79558,"lng":-96.69689},{"name":"InTown Suites","lat":33.01446,"lng":-96.99403},{"name":"Studio 6","lat":32.91669,"lng":-96.76797},{"name":"OYO","lat":32.83852,"lng":-96.98144},{"name":"Courtyard Dallas Las Colinas","lat":32.88545,"lng":-96.9662},{"name":"Aloft Dallas Downtown","lat":32.77721,"lng":-96.8011},{"name":"The Westin Dallas Downtown","lat":32.78045,"lng":-96.80185},{"name":"Holiday Inn","lat":32.80648,"lng":-96.82921},{"name":"Tru by Hilton Dallas Market Center","lat":32.79935,"lng":-96.82148},{"name":"Crowne Plaza","lat":32.78091,"lng":-96.80355},{"name":"Statler Hotel","lat":32.78042,"lng":-96.79464},{"name":"Sheraton Dallas","lat":32.78509,"lng":-96.79484},{"name":"W Dallas - Victory","lat":32.78814,"lng":-96.80904},{"name":"Magnolia Hotel Dallas Downtown","lat":32.78016,"lng":-96.79907},{"name":"SpringHill Suites Dallas Downtown/West End","lat":32.78279,"lng":-96.80663},{"name":"DoubleTree by Hiltom Hotel Dallas Near the Galleria","lat":32.92636,"lng":-96.84261},{"name":"Sheraton Dallas Hotel by the Galleria","lat":32.92709,"lng":-96.82486},{"name":"Le Meridien Dallas by the Galleria","lat":32.9309,"lng":-96.81747},{"name":"The Westin Galleria Dallas","lat":32.92997,"lng":-96.82011},{"name":"Hilton Dallas/Park Cities","lat":32.8634,"lng":-96.80975},{"name":"Arya Inn & Suites","lat":32.83455,"lng":-96.99186},{"name":"MainStay Suites","lat":32.95655,"lng":-96.82929},{"name":"Courtyard Dallas Addison/Quorum Drive","lat":32.95571,"lng":-96.82515},{"name":"Home2 Suites by Hilton Dallas Addison","lat":32.95592,"lng":-96.8282},{"name":"SpringHill Suites by Marriott","lat":32.95699,"lng":-96.82721},{"name":"Renaissance Dallas Addison Hotel","lat":32.95664,"lng":-96.82302},{"name":"Hampton Inn by Hilton Addison Dallas","lat":32.95825,"lng":-96.82688},{"name":"Park Plaza Hotels","lat":32.92691,"lng":-96.76332},{"name":"Hyatt Place Dallas/Las Collinas","lat":32.88405,"lng":-96.95531},{"name":"ExtendedStayDeluxe Las Collinas","lat":32.88338,"lng":-96.95551},{"name":"ExtendedStayDeluxe Meadow Creek","lat":32.88285,"lng":-96.95478},{"name":"Hampton Inn Dallas","lat":32.8843,"lng":-96.95811},{"name":"Candlewood Suites","lat":32.88322,"lng":-96.95311},{"name":"Fairfield Inn & Suites Dallas Las Colinas","lat":32.88412,"lng":-96.95355},{"name":"TownePlace Suites Dallas Las Colinas","lat":32.8844,"lng":-96.96085},{"name":"Wingate by Wyndham Las Colinas","lat":32.8842,"lng":-96.95881},{"name":"Hampton Inn & Suites Dallas Downtown","lat":32.78016,"lng":-96.79659},{"name":"Hotel Indigo Dallas Downtown","lat":32.7819,"lng":-96.79446},{"name":"Sleep Inn","lat":32.61827,"lng":-96.91736},{"name":"Baymont Inn & Suites Dallas Love Field","lat":32.85891,"lng":-96.88641},{"name":"Days Inn","lat":32.86012,"lng":-96.88842},{"name":"SpringHill Suites Dallas NW Highway at Stemmons/I-35E","lat":32.85967,"lng":-96.88915},{"name":"Omni Dallas Hotel","lat":32.77521,"lng":-96.80432},{"name":"Red Roof Inn","lat":32.93517,"lng":-96.75393},{"name":"Embassy Suites","lat":32.92743,"lng":-96.76285},{"name":"Comfort Suites North Dallas","lat":32.92779,"lng":-96.76247},{"name":"Holiday Inn Express & Suites","lat":32.92675,"lng":-96.80166},{"name":"Comfort Inn","lat":32.92529,"lng":-96.77196},{"name":"Hyatt Place","lat":32.91773,"lng":-96.76769},{"name":"Warwick Melrose - Dallas","lat":32.80886,"lng":-96.8093},{"name":"Hotel ZaZa","lat":32.79413,"lng":-96.80126},{"name":"Carrara at Cole Apartments","lat":32.82487,"lng":-96.78837},{"name":"Hyatt Place","lat":32.96125,"lng":-96.63955},{"name":"Dallas/Addison Marriott Quorum by the Galleria","lat":32.95112,"lng":-96.82436},{"name":"Element Dallas Fort Worth Airport North","lat":32.92217,"lng":-96.9954},{"name":"Graduate by Hilton Dallas","lat":32.84105,"lng":-96.78749},{"name":"Sonesta Select Dallas Central Expressway","lat":32.88678,"lng":-96.77102},{"name":"Hyatt House","lat":32.98092,"lng":-96.71568},{"name":"Doubletree by Hilton Dallas Market Center","lat":32.79741,"lng":-96.82604},{"name":"Courtyard","lat":32.82033,"lng":-96.63197},{"name":"Renaissance Dallas Hotel","lat":32.80397,"lng":-96.83213},{"name":"Embassy Suites by Hilton Dallas Near the Galleria","lat":32.93847,"lng":-96.81889},{"name":"Dallas Marriott Suites Medical/Market Center","lat":32.80491,"lng":-96.83873},{"name":"The Ritz-Carlton Dallas, Las Colinas","lat":32.8626,"lng":-96.95847},{"name":"Courtyard Dallas Medical/Market Center","lat":32.79952,"lng":-96.82498},{"name":"Fairfield Inn & Suites Dallas Medical/Market Center","lat":32.79907,"lng":-96.82474},{"name":"Hilton Anatole","lat":32.7999,"lng":-96.82959},{"name":"Hilton Garden Inn Dallas / Market Center","lat":32.80191,"lng":-96.83319},{"name":"Sheraton Suites Market Center","lat":32.80046,"lng":-96.82496},{"name":"Lorenzo Hotel","lat":32.77272,"lng":-96.79557},{"name":"Aloft Las Colinas","lat":32.86545,"lng":-96.9442},{"name":"Staybridge Suites Dfw Airport North","lat":32.92226,"lng":-96.9759},{"name":"Renaissance Dallas North Hotel","lat":32.90563,"lng":-96.92102},{"name":"Staybridge Suites","lat":33.00143,"lng":-96.76321},{"name":"InTown Suites Carrollton","lat":32.98424,"lng":-96.91873},{"name":"InTown Suites","lat":32.98616,"lng":-96.83967},{"name":"Quality Suites Addison-Dallas","lat":32.95595,"lng":-96.83444},{"name":"Hilton Garden Inn Dallas/Addison","lat":32.9529,"lng":-96.84376},{"name":"Homewood Suites Dallas/Addison","lat":32.95473,"lng":-96.83585},{"name":"Red Roof Inn & Suites Addison","lat":32.95496,"lng":-96.8429},{"name":"Extended Stay America - Dallas - Farmers Branch","lat":32.93782,"lng":-96.84054},{"name":"Comfort Inn & Suites Dallas-Addison","lat":32.93884,"lng":-96.84044},{"name":"Clarion Pointe","lat":32.95254,"lng":-96.82915},{"name":"The Addison Hotel, SureStay Collection by Best Western","lat":32.95261,"lng":-96.83521},{"name":"Holiday Inn","lat":32.95232,"lng":-96.83656},{"name":"La Quinta Inn & Suites","lat":32.95144,"lng":-96.82878},{"name":"Days Inn North Dallas/Farmers Branch","lat":32.92408,"lng":-96.90162},{"name":"Oakwood at Parkside The Ritz","lat":32.93935,"lng":-96.84182},{"name":"Quality Inn West Plano - Dallas","lat":33.01759,"lng":-96.79793},{"name":"Days Inn Market Center Dallas","lat":32.79834,"lng":-96.82437},{"name":"Staybridge Suites","lat":32.96752,"lng":-96.82047},{"name":"Staybridge Suites","lat":32.96739,"lng":-96.81966},{"name":"Candlewood Suites Dallas-By the Galleria","lat":32.93748,"lng":-96.81854},{"name":"Hyatt Place Dallas-North","lat":32.94051,"lng":-96.81946},{"name":"Homewood Suites by Hilton Dallas Downtown","lat":32.78106,"lng":-96.80279},{"name":"Dallas Marriott City Center","lat":32.7869,"lng":-96.7957},{"name":"La Quinta Inn","lat":32.8197,"lng":-96.78624},{"name":"Best Western","lat":32.81507,"lng":-96.78859},{"name":"Quality Inn & Suites Dallas-Cityplace","lat":32.81467,"lng":-96.78879},{"name":"The Highland Dallas, Curio Collection by Hilton","lat":32.83586,"lng":-96.77791},{"name":"Element Dallas Downtown East","lat":32.79357,"lng":-96.77812},{"name":"Extended Stay America","lat":32.91388,"lng":-96.76998},{"name":"Residence Inn Dallas Park Central","lat":32.92282,"lng":-96.77493},{"name":"Ramada Dallas Love Field Airport","lat":32.83659,"lng":-96.87625},{"name":"Wingate by Wyndham Dallas / Love Field","lat":32.82983,"lng":-96.87259},{"name":"Sterling Hotel Convention, Meeting and Event Center","lat":32.8274,"lng":-96.8878},{"name":"Budget Suites Empire Central","lat":32.82431,"lng":-96.87064},{"name":"Sleep Inn Dallas Love Field-Medical District","lat":32.82355,"lng":-96.87613},{"name":"Comfort Inn & Suites Market Center","lat":32.81742,"lng":-96.86757},{"name":"Crowne Plaza Dallas Market Center","lat":32.81651,"lng":-96.86686},{"name":"Residence Inn Dallas Market Center","lat":32.81457,"lng":-96.86512},{"name":"Spark by Hilton Dallas Market Center","lat":32.81088,"lng":-96.85471},{"name":"Comfort Inn & Suites Dallas Medical-Market Center","lat":32.80993,"lng":-96.85096},{"name":"Homewood Suites Dallas-Market Center","lat":32.80901,"lng":-96.84782},{"name":"DoubleTree","lat":32.90178,"lng":-96.91977},{"name":"Holiday Inn Express Hotel & Suites Dallas/Stemmons Fwy(I-35 E)","lat":32.86274,"lng":-96.8911},{"name":"MCM Elegante Hotel and Suites","lat":32.86057,"lng":-96.89061},{"name":"BEST WESTERN Northwest Inn","lat":32.86017,"lng":-96.88488},{"name":"Best Western Plus","lat":32.88281,"lng":-96.89678},{"name":"La Quinta Inn & Suites","lat":32.88204,"lng":-96.89661},{"name":"Quality Inn & Suites","lat":32.87742,"lng":-96.89668},{"name":"Embassy Suites by Hilton Dallas Market Center","lat":32.80768,"lng":-96.84494},{"name":"Garden Inn & Suites","lat":32.79784,"lng":-96.68646},{"name":"Holiday Inn Express & Suites","lat":32.79653,"lng":-96.6942},{"name":"Hampton Inn & Suites","lat":32.76891,"lng":-96.8949},{"name":"Comfort Suites","lat":32.76787,"lng":-96.8948},{"name":"Embassy Suites","lat":32.86087,"lng":-96.84982},{"name":"Hilton Garden Inn","lat":32.66329,"lng":-96.90561},{"name":"Holiday Inn Express & Suites","lat":32.64615,"lng":-96.88769},{"name":"Mesquite Inn & Suites","lat":32.80394,"lng":-96.67013},{"name":"Candlewood Suites","lat":32.91823,"lng":-96.74333},{"name":"Extended Stay America","lat":32.9181,"lng":-96.74779},{"name":"Holiday Inn Express & Suites","lat":32.91587,"lng":-96.745},{"name":"Extended Stay America","lat":32.91508,"lng":-96.74357},{"name":"Fairfield Inn & Suites","lat":32.91489,"lng":-96.74261},{"name":"La Quinta Inn","lat":32.88311,"lng":-96.77097},{"name":"Werner Hotel","lat":32.64572,"lng":-96.78266},{"name":"Days Inn by Wyndham Dallas South","lat":32.64672,"lng":-96.78021},{"name":"Hilton Garden Inn Las Colinas","lat":32.91108,"lng":-96.95481},{"name":"DoubleTree by Hilton","lat":32.834,"lng":-96.83614},{"name":"Hilton Dallas Lincoln Centre","lat":32.92399,"lng":-96.81712},{"name":"InTown Suites","lat":33.00799,"lng":-96.79691},{"name":"The Stoneleigh, Autograph Collection","lat":32.79753,"lng":-96.80738},{"name":"Bailey's Uptown Inn","lat":32.79733,"lng":-96.80002},{"name":"The Ritz-Carlton","lat":32.79241,"lng":-96.80383},{"name":"HALL Arts Hotel, Dallas, Autograph Collection","lat":32.78934,"lng":-96.79733},{"name":"Fairmont Hotel","lat":32.78543,"lng":-96.80149},{"name":"Holiday Inn Express & Suites","lat":32.76457,"lng":-96.62211},{"name":"Homewood Suites","lat":33.00347,"lng":-96.67984},{"name":"Holiday Inn Express & Suites","lat":32.95216,"lng":-96.82759},{"name":"Holiday Inn Express","lat":32.90594,"lng":-96.92271},{"name":"Candlewood Suites","lat":32.90534,"lng":-96.92298},{"name":"Best Western","lat":32.65774,"lng":-96.56236},{"name":"La Quinta Inn","lat":32.85007,"lng":-96.57348},{"name":"Renaissance Hotel","lat":32.98559,"lng":-96.70993},{"name":"Courtyard Dallas Richardson at Campbell","lat":32.97953,"lng":-96.70799},{"name":"Hampton Inn & Suites","lat":32.98128,"lng":-96.70615},{"name":"Magnuson Grand DeSoto","lat":32.62033,"lng":-96.82427},{"name":"Holiday Inn Express & Suites","lat":32.61842,"lng":-96.82588},{"name":"Aloft Dallas Love Field","lat":32.82653,"lng":-96.84785},{"name":"Hawthorn Suites by Wyndham Dallas Love Field Airport","lat":32.81893,"lng":-96.86418},{"name":"Hampton","lat":32.88708,"lng":-96.76881},{"name":"Holiday Inn Express & Suites Irving Conv Center - Las Colinas","lat":32.87959,"lng":-96.94544},{"name":"Aloft Richardson","lat":33.00095,"lng":-96.70142},{"name":"Cambria Hotel Richardson - Dallas","lat":33.00126,"lng":-96.68793},{"name":"Quality Inn & Suites Richardson-Dallas","lat":32.98945,"lng":-96.70943},{"name":"Hilton Richardson Dallas","lat":32.97634,"lng":-96.71399},{"name":"Wingate by Wyndham Richardson/Dallas","lat":32.96908,"lng":-96.72218},{"name":"Hawthorn Suites by Wyndham Richardson","lat":32.97404,"lng":-96.72109},{"name":"Holiday Inn Dallas-Richardson","lat":32.97076,"lng":-96.72054},{"name":"Hyatt Regency Dallas","lat":32.77579,"lng":-96.80929},{"name":"Homewood Suites by Hilton Dallas-Lewisville","lat":33.00865,"lng":-96.96853},{"name":"SpringHill Suites","lat":32.88469,"lng":-96.77086},{"name":"Canopy by Hilton Dallas Uptown","lat":32.80695,"lng":-96.79524},{"name":"Hilton Dallas/Rockwall Lakefront","lat":32.88833,"lng":-96.48113},{"name":"Home2 Suites by Hilton Dallas Downtown at Baylor Scott & White","lat":32.79,"lng":-96.78214},{"name":"Courtyard","lat":32.98642,"lng":-96.9004},{"name":"Residence Inn","lat":32.92861,"lng":-96.8164},{"name":"NYLO Irving / Las Colinas","lat":32.89675,"lng":-96.96318},{"name":"Quality Inn & Suites","lat":32.80876,"lng":-96.65411},{"name":"Red Roof Inn","lat":32.8126,"lng":-96.65125},{"name":"Fairfield Inn & Suites","lat":32.81945,"lng":-96.63025},{"name":"Omni Mandalay Hotel at Las Colinas","lat":32.86725,"lng":-96.93763},{"name":"Extended Stay America - Dallas - Plano Parkway","lat":33.01681,"lng":-96.79105},{"name":"Courtyard","lat":33.01736,"lng":-96.79372},{"name":"La Quinta Inn & Suites","lat":33.01528,"lng":-96.79237},{"name":"Fairfield Inn & Suites","lat":33.01542,"lng":-96.79167},{"name":"Comfort Inn","lat":33.02222,"lng":-96.79314},{"name":"La Quinta Inn & Suites Dallas Northeast-Arboretum","lat":32.85911,"lng":-96.64748},{"name":"Microtel Inn & Suites by Wyndham Garland/Dallas","lat":32.86195,"lng":-96.65489},{"name":"Days Inn","lat":32.87434,"lng":-96.66251},{"name":"La Quinta Inn & Suites","lat":32.86557,"lng":-96.96073},{"name":"Comfort Suites Las Colinas Center","lat":32.88993,"lng":-96.96659},{"name":"SpringHill Suites Dallas DFW Airport East/Las Colinas Irving","lat":32.8914,"lng":-96.97074},{"name":"Holiday Inn Express & Suites","lat":32.86432,"lng":-96.54078},{"name":"Quality Inn & Suites","lat":32.86592,"lng":-96.54356},{"name":"TownePlace Suites Dallas DeSoto","lat":32.64543,"lng":-96.88432},{"name":"DoubleTree","lat":32.97449,"lng":-96.71841},{"name":"The Place at Saddle Creek","lat":32.96425,"lng":-96.84938},{"name":"Hawthorn Suites By Wyndham Irving DFW South","lat":32.83951,"lng":-96.98885},{"name":"Best Western Plus Hotel","lat":33.01647,"lng":-96.98422},{"name":"Hilton Garden Inn","lat":32.99635,"lng":-96.96789},{"name":"Holiday Inn Express & Suites Dallas Lewisville","lat":32.99965,"lng":-96.96536},{"name":"Fairfield Inn","lat":32.99741,"lng":-96.96583},{"name":"Courtyard by Marriott Dallas Lewisville","lat":32.99678,"lng":-96.96493},{"name":"SpringHill Suites Dallas Lewisville","lat":32.99821,"lng":-96.96836},{"name":"Hampton Inn & Suites Dallas/Lewisville-Vista Ridge Mall, TX","lat":32.99788,"lng":-96.96785},{"name":"Residence Inn","lat":33.00041,"lng":-96.96813},{"name":"Country Inn & Suites, Lewisville, TX","lat":33.00084,"lng":-96.96718},{"name":"Comfort Suites Lewisville","lat":33.00116,"lng":-96.96774},{"name":"TownePlace Suites Dallas Lewisville","lat":32.99935,"lng":-96.969},{"name":"Comfort Suites Plano","lat":33.00378,"lng":-96.68426},{"name":"Holiday Inn Express & Suites Plano East - Richardson","lat":33.00371,"lng":-96.68627},{"name":"Residence Inn","lat":33.00389,"lng":-96.68958},{"name":"Courtyard","lat":33.00382,"lng":-96.68757},{"name":"Hampton Inn & Suites","lat":33.00169,"lng":-96.67456},{"name":"Comfort Suites","lat":32.87834,"lng":-96.51709},{"name":"Budget Inn & Suites","lat":32.83594,"lng":-96.90812},{"name":"La Quinta Inn & Suites Dallas - Hutchins","lat":32.64885,"lng":-96.70533},{"name":"Extended Stay America","lat":33.01657,"lng":-96.9788},{"name":"Hawthorne Extended Stay Hotel Lewisville","lat":33.01561,"lng":-96.97802},{"name":"Days Inn by Wyndham Mesquite Rodeo TX","lat":32.76951,"lng":-96.62647},{"name":"TownePlace Suites","lat":32.76395,"lng":-96.62195},{"name":"Hampton","lat":32.76219,"lng":-96.6235},{"name":"Quality Inn Mesquite","lat":32.77755,"lng":-96.62309},{"name":"SpringHill Suites","lat":32.98984,"lng":-96.66589},{"name":"WaterWalk Dallas-Las Colinas Hotel Apartment","lat":32.90099,"lng":-96.97008},{"name":"WoodSpring Suites","lat":33.00251,"lng":-96.77451},{"name":"Home2 Suites by Hilton Dallas DeSoto","lat":32.62559,"lng":-96.8248},{"name":"Hampton Inn And Suites","lat":32.62687,"lng":-96.82426},{"name":"La Quinta Inn & Suites Dallas Mesquite","lat":32.78863,"lng":-96.59446},{"name":"Hampton Inn & Suites Dallas Market Center","lat":32.81125,"lng":-96.85825},{"name":"La Quinta Inn & Suites","lat":32.89588,"lng":-96.46754},{"name":"DoubleTree","lat":32.86285,"lng":-96.76844},{"name":"The Westin Irving Convention Center at Las Colinas","lat":32.87659,"lng":-96.94385},{"name":"Home2 Suites by Hilton Dallas North Park","lat":32.89113,"lng":-96.76705},{"name":"Tru by Hilton Garland Richardson","lat":32.96064,"lng":-96.63866},{"name":"Holiday Inn","lat":32.96487,"lng":-96.63762},{"name":"Virgin Hotel","lat":32.79692,"lng":-96.82209},{"name":"Residence Inn","lat":33.00166,"lng":-96.76137},{"name":"Budget Suites of America","lat":32.86111,"lng":-96.90053},{"name":"Holiday Inn Express & Suites","lat":32.85998,"lng":-96.89745},{"name":"Comfort Inn & Suites","lat":33.02189,"lng":-96.51412},{"name":"The Drey Hotel","lat":32.85934,"lng":-96.76342},{"name":"Hampton Inn & Suites","lat":32.79601,"lng":-96.69606},{"name":"SureStay Plus by Best Western Mesquite","lat":32.79224,"lng":-96.59461},{"name":"Hilton Garden Inn Dallas Central","lat":32.88666,"lng":-96.76885},{"name":"Texican Court, by Valencia Hotel Group","lat":32.87757,"lng":-96.94138},{"name":"Best Western Plus","lat":32.75654,"lng":-96.46509},{"name":"Holiday Inn Express & Suites","lat":32.76409,"lng":-96.89344},{"name":"Residence Inn","lat":32.76596,"lng":-96.87611},{"name":"La Quinta Inn & Suites Lewisville","lat":33.01815,"lng":-96.98494},{"name":"Budget Suites of America","lat":33.01064,"lng":-96.99433},{"name":"La Quinta Inn & Suites","lat":32.82271,"lng":-96.87698},{"name":"The Mansion on Turtle Creek","lat":32.80372,"lng":-96.8071},{"name":"Hotel Swexan","lat":32.7924,"lng":-96.80597},{"name":"Hampton Inn & Suites","lat":32.89769,"lng":-96.47386},{"name":"Scottish Inns & Suites","lat":32.73295,"lng":-96.61315},{"name":"SpringHill Suites Dallas Richardson/University Area","lat":32.99814,"lng":-96.7621},{"name":"La Quinta Inn & Suites","lat":32.79626,"lng":-96.69506},{"name":"Holiday Inn Express & Suites","lat":32.7557,"lng":-96.46392},{"name":"Holiday Inn Express Dallas Downtown","lat":32.77722,"lng":-96.80706},{"name":"Courtyard","lat":32.77693,"lng":-96.80681},{"name":"The Joule Dallas","lat":32.78047,"lng":-96.7982},{"name":"Comfort Suites Desoto Dallas South","lat":32.61965,"lng":-96.82681},{"name":"Sleep Inn Lancaster Dallas South","lat":32.63396,"lng":-96.82194},{"name":"La Quinta Inn & Suites Dallas - Wylie","lat":33.0071,"lng":-96.56349},{"name":"Renaissance Saint Elm Dallas Downtown Hotel","lat":32.78239,"lng":-96.79565},{"name":"La Quinta Inn & Suites Dallas - Richardson","lat":32.9282,"lng":-96.76348},{"name":"Quality Inn & Suites Plano East - Richardson","lat":33.02202,"lng":-96.7087},{"name":"The Adolphus, Autograph Collection","lat":32.77993,"lng":-96.8002},{"name":"SpringHill Suites","lat":32.89291,"lng":-96.4793},{"name":"Home2 Suites by Hilton Plano Richardson","lat":33.00226,"lng":-96.67283},{"name":"TownePlace Suites Dallas Plano/Richardson","lat":33.00548,"lng":-96.69994},{"name":"Hampton Inn & Suites Farmers Branch Dallas","lat":32.90452,"lng":-96.9228},{"name":"Fairfield Inn & Suites Dallas West/I-30","lat":32.77065,"lng":-96.89573},{"name":"Home2 Suites by Hilton Lewisville Dallas","lat":33.01852,"lng":-96.97995},{"name":"Comfort Inn & Suites Balch Springs","lat":32.70809,"lng":-96.58506},{"name":"Tru by Hilton Coppell DFW Airport North","lat":32.92808,"lng":-96.99714},{"name":"Hyatt Place","lat":32.8983,"lng":-96.47253},{"name":"Drury Plaza Hotel","lat":33.00102,"lng":-96.70732},{"name":"WoodSpring Suites Las Colinas","lat":32.91161,"lng":-96.94904},{"name":"Hyatt House Dallas/Las Colinas","lat":32.89291,"lng":-96.96196},{"name":"Embassy Suites","lat":32.88904,"lng":-96.95723},{"name":"Hampton Inn & Suites","lat":32.66342,"lng":-96.90387},{"name":"The Westin Dallas Park Central","lat":32.92193,"lng":-96.77158},{"name":"La Quinta Inn & Suites Dallas Duncanville","lat":32.64077,"lng":-96.89323},{"name":"Tru","lat":32.89248,"lng":-96.47388},{"name":"Home2 Suites","lat":32.87948,"lng":-96.52063},{"name":"Holiday Inn Express & Suites","lat":33.0071,"lng":-96.562},{"name":"Tru","lat":33.00194,"lng":-96.96711},{"name":"Sandman Signature Dallas-Las Colinas Hotel & Suites","lat":32.89264,"lng":-96.97415},{"name":"Echo Suites Extended Stay by Wyndham Dallas Plano/Richardson","lat":32.9991,"lng":-96.67104},{"name":"Fairfield Inn & Suites","lat":32.79338,"lng":-96.69237}]}