{"generated_at":"2026-07-20T16:12:45.576Z","city":"bos","source":"OpenStreetMap (tourism=hotel)","count":176,"hotels":[{"name":"Hampshire House","lat":42.35604,"lng":-71.07124},{"name":"The Westin Boston Seaport District","lat":42.34619,"lng":-71.04274},{"name":"Le Meridien Cambridge-MIT","lat":42.36205,"lng":-71.09994},{"name":"Hyatt Place Boston/Medford","lat":42.41709,"lng":-71.10508},{"name":"Boston Harbor Hotel","lat":42.35666,"lng":-71.05032},{"name":"Revere Hotel Boston Common","lat":42.35044,"lng":-71.06709},{"name":"The Colonnade Hotel","lat":42.34573,"lng":-71.08093},{"name":"DoubleTree by Hilton Hotel Boston - Downtown","lat":42.34889,"lng":-71.06425},{"name":"The Eliot Hotel","lat":42.34869,"lng":-71.08875},{"name":"Hotel Commonwealth","lat":42.34859,"lng":-71.09533},{"name":"Inn at Longwood Medical","lat":42.33821,"lng":-71.10638},{"name":"Hyatt Regency Boston","lat":42.3534,"lng":-71.06077},{"name":"The Westin Copley Place","lat":42.34858,"lng":-71.0772},{"name":"Mary Prentiss Inn","lat":42.3843,"lng":-71.11883},{"name":"Found Hotel Boston Common","lat":42.34996,"lng":-71.06639},{"name":"The Revolution Hotel","lat":42.34606,"lng":-71.07084},{"name":"Hotel AKA Boston Common","lat":42.35733,"lng":-71.06069},{"name":"The Ritz-Carlton, Boston","lat":42.35317,"lng":-71.06369},{"name":"Omni Parker House","lat":42.35784,"lng":-71.06024},{"name":"Harborside Inn","lat":42.35927,"lng":-71.05283},{"name":"Copley Square Hotel","lat":42.34835,"lng":-71.07873},{"name":"The Godfrey Hotel Boston","lat":42.35473,"lng":-71.06149},{"name":"XV Beacon","lat":42.35839,"lng":-71.06195},{"name":"Churchill at Boston View","lat":42.35864,"lng":-71.06239},{"name":"Oakwood At Exeter Towers Hotel","lat":42.35016,"lng":-71.07948},{"name":"The Bostonian Boston","lat":42.36106,"lng":-71.05591},{"name":"Oakwood at Downtown Boston","lat":42.35917,"lng":-71.05415},{"name":"Marriott Vacation Club Pulse® at Custom House","lat":42.35908,"lng":-71.05365},{"name":"Churchill At The Radian","lat":42.35221,"lng":-71.05909},{"name":"Copley Inn","lat":42.34589,"lng":-71.07984},{"name":"The Charles Hotel","lat":42.37246,"lng":-71.12309},{"name":"Quarters on Dots","lat":42.33577,"lng":-71.04486},{"name":"Holiday Inn Express Hotel & Suites","lat":42.37328,"lng":-71.08161},{"name":"Residence Inn","lat":42.35043,"lng":-71.04769},{"name":"TownePlace Suite Logan Airport","lat":42.38759,"lng":-71.02406},{"name":"DoubleTree by Hilton Boston Logan Airport Chelsea","lat":42.39787,"lng":-71.03995},{"name":"Charlesmark Hotel","lat":42.35,"lng":-71.07857},{"name":"The Newbury Boston","lat":42.35293,"lng":-71.07149},{"name":"Courtyard","lat":42.34859,"lng":-71.07886},{"name":"Hyatt Centric Faneuil","lat":42.35825,"lng":-71.05718},{"name":"The Whitney Hotel","lat":42.36064,"lng":-71.07107},{"name":"Staypineapple","lat":42.34698,"lng":-71.07051},{"name":"Newbury Guest House","lat":42.34966,"lng":-71.08327},{"name":"Mandarin Oriental","lat":42.34869,"lng":-71.0816},{"name":"Lark Hotels 907 Main Hotel","lat":42.36355,"lng":-71.09962},{"name":"Club Quarters Hotel","lat":42.35636,"lng":-71.0575},{"name":"Fairfield Boston Medford","lat":42.40272,"lng":-71.08179},{"name":"TownePlace Suites Boston Medford","lat":42.40272,"lng":-71.08179},{"name":"Hotel 1868","lat":42.38789,"lng":-71.11958},{"name":"Hotel Veritas","lat":42.37104,"lng":-71.11388},{"name":"Hyatt Regency Boston / Cambridge","lat":42.3541,"lng":-71.10543},{"name":"Courtyard Marriott Boston Cambridge","lat":42.35877,"lng":-71.11495},{"name":"Courtyard","lat":42.3659,"lng":-71.05963},{"name":"The Row Hotel at Assembly Row","lat":42.3933,"lng":-71.07942},{"name":"Hotel Aka","lat":42.3492,"lng":-71.07239},{"name":"The Winthrop Arms","lat":42.38683,"lng":-70.97182},{"name":"J. Miller Flats","lat":42.35852,"lng":-71.07088},{"name":"Scholars House","lat":42.39382,"lng":-71.12669},{"name":"Hilton Boston Logan Airport","lat":42.36739,"lng":-71.02306},{"name":"Renaissance Boston Seaport District","lat":42.34809,"lng":-71.03922},{"name":"Residence Inn / Fairfield Inn","lat":42.39836,"lng":-71.03912},{"name":"Hampton Inn Boston Logan Airport Chelsea","lat":42.39431,"lng":-71.04451},{"name":"Holiday Inn","lat":42.38133,"lng":-71.08203},{"name":"Freepoint Hotel","lat":42.38861,"lng":-71.1422},{"name":"The Langham Boston","lat":42.35654,"lng":-71.05461},{"name":"The Kendall Hotel","lat":42.36223,"lng":-71.08725},{"name":"Eurostars The Boxer","lat":42.36389,"lng":-71.06241},{"name":"Hampton","lat":42.40132,"lng":-71.00627},{"name":"Boston Marriott Long Wharf","lat":42.36018,"lng":-71.05085},{"name":"The Liberty Hotel","lat":42.36206,"lng":-71.07025},{"name":"Raffles","lat":42.34843,"lng":-71.07501},{"name":"Homewood Suites","lat":42.40193,"lng":-71.13607},{"name":"Constitution Inn","lat":42.37638,"lng":-71.0534},{"name":"Marriott Courtyard Boston Woburn/Boston North","lat":42.48843,"lng":-71.11666},{"name":"The Royal Sonesta Boston","lat":42.36656,"lng":-71.07517},{"name":"Residence Inn Cambridge","lat":42.36389,"lng":-71.08811},{"name":"Charles River Motel","lat":42.35872,"lng":-71.156},{"name":"Comfort Inn and Suites","lat":42.41178,"lng":-71.00126},{"name":"The Verb Hotel","lat":42.34534,"lng":-71.09692},{"name":"Best Western Plus","lat":42.33176,"lng":-71.07147},{"name":"Howard Johnson","lat":42.26205,"lng":-71.01275},{"name":"Red Roof Plus+ Boston - Logan","lat":42.46869,"lng":-71.02455},{"name":"Courtyard Brookline","lat":42.34097,"lng":-71.12295},{"name":"DoubleTree","lat":42.36031,"lng":-71.11816},{"name":"Sheraton Commander Hotel","lat":42.37727,"lng":-71.1233},{"name":"Arcadian Hotel","lat":42.34405,"lng":-71.11595},{"name":"The Lenox Hotel Boston","lat":42.34915,"lng":-71.07962},{"name":"La Quinta","lat":42.39432,"lng":-71.08475},{"name":"Best Western Plus New Englander","lat":42.48076,"lng":-71.11884},{"name":"Courtyard Boston Logan Airport","lat":42.38738,"lng":-71.01631},{"name":"Cambria Hotel","lat":42.37155,"lng":-71.03402},{"name":"Holiday Inn Express","lat":42.47118,"lng":-71.02574},{"name":"DoubleTree by Hilton Boston Bayside","lat":42.32029,"lng":-71.04797},{"name":"Hyatt Regency Boston Harbor","lat":42.35919,"lng":-71.02718},{"name":"Envision Hotel","lat":42.40197,"lng":-71.04818},{"name":"Holiday Inn Express Boston","lat":42.32724,"lng":-71.05957},{"name":"Residence Inn Boston Watertown","lat":42.36291,"lng":-71.15528},{"name":"Farrington Inn","lat":42.35426,"lng":-71.13089},{"name":"Residence Inn Boston Back Bay/Fenway","lat":42.34589,"lng":-71.10058},{"name":"Hotel Boston","lat":42.34176,"lng":-71.14364},{"name":"Hampton Inn Boston/Cambridge","lat":42.37229,"lng":-71.07863},{"name":"The Amory Guest House","lat":42.37088,"lng":-71.10095},{"name":"Wyndham Boston Beacon Hill","lat":42.36168,"lng":-71.0666},{"name":"Seaport Hotel® Boston","lat":42.34922,"lng":-71.04158},{"name":"Four Points Boston Logan International Airport","lat":42.42932,"lng":-71.01515},{"name":"InterContinental Boston","lat":42.35381,"lng":-71.05208},{"name":"Four Points by Sheraton","lat":42.35627,"lng":-71.18669},{"name":"Battery Wharf Hotel (Sea Cloud Building)","lat":42.36737,"lng":-71.05035},{"name":"Battery Wharf Hotel (Great Admiral Building)","lat":42.36698,"lng":-71.05005},{"name":"W Boston","lat":42.35083,"lng":-71.06557},{"name":"Hampton Inn","lat":42.33257,"lng":-71.07304},{"name":"Courtyard South Boston","lat":42.3264,"lng":-71.0604},{"name":"Boston Marriott Burlington","lat":42.48981,"lng":-71.1953},{"name":"Boston Marriott Cambridge","lat":42.36328,"lng":-71.0865},{"name":"Hyatt House Boston/Burlington","lat":42.48294,"lng":-71.19543},{"name":"Sonesta ES Suites","lat":42.47527,"lng":-71.21112},{"name":"Residence Inn by Marriott Boston Harbor on Tudor Wharf","lat":42.37063,"lng":-71.0605},{"name":"Hilton Garden Inn","lat":42.47674,"lng":-71.2112},{"name":"Comfort Inn","lat":42.22794,"lng":-71.17834},{"name":"Residence Inn","lat":42.22699,"lng":-71.17817},{"name":"Holiday Inn Boston - Dedham Hotel & Conference Center","lat":42.23131,"lng":-71.18283},{"name":"Best Western University Hotel","lat":42.34158,"lng":-71.14332},{"name":"Boston Marriott Copley Place","lat":42.34724,"lng":-71.07774},{"name":"Comfort Inn","lat":42.47895,"lng":-71.11531},{"name":"140 Clarendon","lat":42.34859,"lng":-71.07448},{"name":"Boston Hotel Buckminster","lat":42.34835,"lng":-71.09771},{"name":"The Envoy Hotel","lat":42.35365,"lng":-71.04835},{"name":"The Inn At St Botolph","lat":42.34505,"lng":-71.08085},{"name":"Copley House","lat":42.34453,"lng":-71.08017},{"name":"Holiday Inn Express Hotel & Suites Boston Garden","lat":42.36483,"lng":-71.06172},{"name":"Courtyard Boston Downtown","lat":42.35,"lng":-71.06563},{"name":"Beacon Hill Hotel and Bistro","lat":42.35691,"lng":-71.06965},{"name":"AC Hotel by Marriott Boston Downtown","lat":42.345,"lng":-71.06193},{"name":"Harvard Square Hotel","lat":42.37269,"lng":-71.12206},{"name":"Porter Square Hotel","lat":42.3892,"lng":-71.12048},{"name":"Onyx Hotel","lat":42.3642,"lng":-71.06135},{"name":"Fairfield Inn and Suites","lat":42.37288,"lng":-71.07982},{"name":"AC Hotel Boston North","lat":42.4023,"lng":-71.08176},{"name":"YOTEL Boston","lat":42.35231,"lng":-71.04723},{"name":"Extended Stay America","lat":42.22638,"lng":-71.02966},{"name":"Hampton Inn","lat":42.22116,"lng":-71.03852},{"name":"Candlewood Suites","lat":42.22057,"lng":-71.03924},{"name":"Best Western","lat":42.22101,"lng":-71.03626},{"name":"Marriott Boston Quincy","lat":42.22926,"lng":-71.01837},{"name":"Homewood Suites","lat":42.39928,"lng":-71.03933},{"name":"Holiday Inn Boston Logan Airport - Chelsea","lat":42.40324,"lng":-71.01912},{"name":"AC Hotel","lat":42.33483,"lng":-71.15031},{"name":"Hilton Garden Inn Boston Logan Airport","lat":42.38976,"lng":-71.01223},{"name":"Residence Inn","lat":42.4839,"lng":-71.21099},{"name":"citizenM","lat":42.36559,"lng":-71.06182},{"name":"Encore Boston Harbor Hotel","lat":42.39503,"lng":-71.06946},{"name":"Residence Inn","lat":42.21969,"lng":-71.03472},{"name":"Embassy Suites by Hilton Boston at Logan Airport","lat":42.37018,"lng":-71.03185},{"name":"The Row Hotel at Assembly Row","lat":42.39368,"lng":-71.07941},{"name":"Moxy Boston Downtown","lat":42.35088,"lng":-71.06459},{"name":"Hyatt Place Boston Seaport District","lat":42.34737,"lng":-71.03685},{"name":"Cambria Hotel","lat":42.34319,"lng":-71.05695},{"name":"Aloft Boston Seaport District","lat":42.34359,"lng":-71.04472},{"name":"Element Boston Seaport District","lat":42.34294,"lng":-71.04538},{"name":"Residence Inn","lat":42.33376,"lng":-71.08154},{"name":"The Dagny","lat":42.35733,"lng":-71.05323},{"name":"The Fairmont Copley Plaza Hotel","lat":42.34906,"lng":-71.07618},{"name":"Home2 Suites","lat":42.32601,"lng":-71.06082},{"name":"John Jeffries House","lat":42.36062,"lng":-71.07138},{"name":"Hilton Garden Inn Boston Brookline","lat":42.33215,"lng":-71.11412},{"name":"Hampton Inn & Homewood Suites","lat":42.34423,"lng":-71.03805},{"name":"Omni Boston at the Seaport","lat":42.34699,"lng":-71.04269},{"name":"SpringHill Suites","lat":42.41316,"lng":-70.99106},{"name":"Canopy by Hilton Boston Downtown","lat":42.36165,"lng":-71.05599},{"name":"Holiday Inn Express","lat":42.2736,"lng":-71.02994},{"name":"WoodSpring Suites Boston North","lat":42.47094,"lng":-71.02388},{"name":"Hampton Inn & Suites","lat":42.36275,"lng":-71.16009},{"name":"Cambria Boston Somerville","lat":42.38336,"lng":-71.10572},{"name":"Courtyard South Boston","lat":42.32676,"lng":-71.06028},{"name":"Best Western Adams Inn Quincy-Boston","lat":42.28229,"lng":-71.03855},{"name":"The Atlas Hotel","lat":42.36362,"lng":-71.12168}]}