{"generated_at":"2026-07-18T03:31:29.102Z","city":"sf","source":"OpenStreetMap (tourism=hotel)","count":300,"hotels":[{"name":"Coast Hotel","lat":37.78588,"lng":-122.41336},{"name":"Hotel Abri","lat":37.78519,"lng":-122.40837},{"name":"Hotel Union Square","lat":37.7858,"lng":-122.40774},{"name":"The Andrews Hotel","lat":37.78792,"lng":-122.41226},{"name":"Herbert Hotel","lat":37.78623,"lng":-122.40814},{"name":"Edward II Inn","lat":37.799,"lng":-122.44112},{"name":"Sunnyside Hotel","lat":37.78056,"lng":-122.40798},{"name":"Courtyard","lat":37.78546,"lng":-122.42108},{"name":"The Fitzgerald Hotel","lat":37.78794,"lng":-122.41212},{"name":"Mayflower Hotel","lat":37.78948,"lng":-122.41329},{"name":"Metro Hotel","lat":37.77246,"lng":-122.43746},{"name":"Handlery Union Square Hotel","lat":37.78715,"lng":-122.40908},{"name":"Hotel North Beach","lat":37.79668,"lng":-122.40542},{"name":"Inn at Market","lat":37.77631,"lng":-122.41815},{"name":"Staypineapple An Elegant Hotel","lat":37.78688,"lng":-122.41297},{"name":"Hotel Zelos San Francisco","lat":37.78529,"lng":-122.4055},{"name":"Pontiac Hotel","lat":37.78036,"lng":-122.40835},{"name":"The St. Regis San Francisco","lat":37.78606,"lng":-122.40138},{"name":"Hotel Shahil","lat":37.78395,"lng":-122.41753},{"name":"Susie Hotel","lat":37.79738,"lng":-122.40622},{"name":"Edwardian Hotel","lat":37.77341,"lng":-122.4218},{"name":"Krishna Hotel","lat":37.76442,"lng":-122.41979},{"name":"Hotel 1550","lat":37.61201,"lng":-122.4027},{"name":"Da Vinci Hotel","lat":37.79928,"lng":-122.42359},{"name":"Tang Fat Hotel","lat":37.79814,"lng":-122.40845},{"name":"Hotel Epik","lat":37.78345,"lng":-122.41907},{"name":"The Regency Inn","lat":37.7832,"lng":-122.41699},{"name":"Hotel Astoria","lat":37.79064,"lng":-122.40587},{"name":"Franklin Bay Inn","lat":37.8006,"lng":-122.42625},{"name":"The Crosby on O' Farrell","lat":37.78597,"lng":-122.41318},{"name":"The Broadmoor","lat":37.7871,"lng":-122.42473},{"name":"Htl 587 Ascend Hotel Collection","lat":37.78322,"lng":-122.41729},{"name":"Union Hotel","lat":37.76449,"lng":-122.4198},{"name":"Ram’s Hotel","lat":37.77626,"lng":-122.41499},{"name":"Hotel Embassy","lat":37.78239,"lng":-122.41891},{"name":"Yale Hotel","lat":37.78385,"lng":-122.41779},{"name":"Eddy Hotel","lat":37.78333,"lng":-122.41827},{"name":"Balmoral Hotel North # 3","lat":37.79468,"lng":-122.40378},{"name":"Seneca Hotel","lat":37.78157,"lng":-122.40975},{"name":"Hotel Sausalito & Suites","lat":37.8558,"lng":-122.47909},{"name":"The Inn Above Tide","lat":37.85575,"lng":-122.4786},{"name":"Washington Square Inn","lat":37.80126,"lng":-122.40921},{"name":"Luma Hotel San Francisco","lat":37.77481,"lng":-122.39023},{"name":"Chase Hotel","lat":37.77796,"lng":-122.41613},{"name":"YOTEL San Francisco","lat":37.78045,"lng":-122.41217},{"name":"The Line","lat":37.78305,"lng":-122.40989},{"name":"Hotel 964","lat":37.78065,"lng":-122.40631},{"name":"Holiday Inn Express","lat":37.78618,"lng":-122.40867},{"name":"CW Hotel","lat":37.77977,"lng":-122.40362},{"name":"El Capitan Hotel","lat":37.75922,"lng":-122.41881},{"name":"Minna Hotel","lat":37.7803,"lng":-122.40814},{"name":"Raman Hotel","lat":37.77929,"lng":-122.40735},{"name":"Fairfield Inn & Suites","lat":37.60879,"lng":-122.49614},{"name":"Nob Hill Hotel","lat":37.78864,"lng":-122.41707},{"name":"Inn at Gough","lat":37.77464,"lng":-122.42269},{"name":"Hotel Nova","lat":37.64248,"lng":-122.40373},{"name":"Travelodge by Wyndham San Francisco Airport North","lat":37.64528,"lng":-122.4055},{"name":"DoubleTree","lat":37.6468,"lng":-122.40458},{"name":"Hotel Castro","lat":37.7609,"lng":-122.4367},{"name":"The Pickwick Hotel","lat":37.78305,"lng":-122.40667},{"name":"The Gables Inn","lat":37.85473,"lng":-122.48002},{"name":"Timbri Hotel San Francisco, Curio Collection by Hilton","lat":37.78323,"lng":-122.40965},{"name":"Casa Madrona Hotel & Spa","lat":37.8571,"lng":-122.48102},{"name":"Crystal Hotel","lat":37.7528,"lng":-122.41866},{"name":"Hotel Madrid","lat":37.78224,"lng":-122.39356},{"name":"Hotel Sunrise","lat":37.76582,"lng":-122.42182},{"name":"Hotel Tropica","lat":37.76229,"lng":-122.42149},{"name":"The Westin San Francisco Airport","lat":37.60347,"lng":-122.37603},{"name":"San Francisco Airport Marriott","lat":37.6021,"lng":-122.37017},{"name":"Argonaut Hotel","lat":37.80719,"lng":-122.42025},{"name":"Hyatt Regency San Francisco","lat":37.79429,"lng":-122.39574},{"name":"Hampton Inn and Suites","lat":37.6018,"lng":-122.37163},{"name":"Aloft San Francisco Airport","lat":37.60275,"lng":-122.3777},{"name":"Hotel Boheme","lat":37.79919,"lng":-122.40832},{"name":"Beacon Grand","lat":37.78898,"lng":-122.40827},{"name":"Grand Hyatt San Francisco","lat":37.78912,"lng":-122.40724},{"name":"Best Western Americana Hotel","lat":37.77889,"lng":-122.40983},{"name":"San Francisco Proper Hotel","lat":37.78089,"lng":-122.41249},{"name":"San Francisco Marriott Union Square","lat":37.78946,"lng":-122.40831},{"name":"Comfort Inn By the Bay","lat":37.80092,"lng":-122.42494},{"name":"Heritage Marina Hotel","lat":37.79927,"lng":-122.42362},{"name":"The Monarch Hotel","lat":37.78559,"lng":-122.42006},{"name":"Hotel Adagio","lat":37.78709,"lng":-122.41254},{"name":"Gaylord Suites","lat":37.78718,"lng":-122.41292},{"name":"Worth Hotel","lat":37.78759,"lng":-122.41237},{"name":"Emperor Norton Inn","lat":37.78767,"lng":-122.41189},{"name":"Hotel Zeppelin San Francisco","lat":37.78772,"lng":-122.41071},{"name":"The Donatello","lat":37.78783,"lng":-122.41039},{"name":"Hotel Diva","lat":37.78734,"lng":-122.41065},{"name":"Union Square Plaza Hotel","lat":37.78728,"lng":-122.4104},{"name":"The Barnes San Francisco, Tapestry Collection by Hilton","lat":37.78668,"lng":-122.40845},{"name":"The Bartlett Hotel and Guesthouse","lat":37.78662,"lng":-122.40878},{"name":"Hotel Stratford","lat":37.787,"lng":-122.4079},{"name":"St. Moritz Hotel","lat":37.78667,"lng":-122.40778},{"name":"The Mosser","lat":37.78488,"lng":-122.40514},{"name":"BEI Hotel San Francisco","lat":37.77761,"lng":-122.41423},{"name":"Donnelly Hotel","lat":37.77812,"lng":-122.41607},{"name":"The Jay, Autograph Collection","lat":37.79468,"lng":-122.40089},{"name":"Taj Campton Place Hotel","lat":37.78916,"lng":-122.40658},{"name":"JW Marriott","lat":37.78832,"lng":-122.41048},{"name":"Beresford Hotel","lat":37.78867,"lng":-122.41088},{"name":"Marines' Memorial Club & Hotel","lat":37.78871,"lng":-122.41049},{"name":"Hotel Nikko San Francisco","lat":37.7858,"lng":-122.40927},{"name":"Luz Hotel","lat":37.78618,"lng":-122.41531},{"name":"Hotel Layne","lat":37.78639,"lng":-122.41334},{"name":"Nazareth Hotel","lat":37.78658,"lng":-122.41299},{"name":"Gateway Inn","lat":37.7861,"lng":-122.41211},{"name":"The Clift Royal Sonesta San Francisco","lat":37.78672,"lng":-122.41113},{"name":"The Marker Union Square San Francisco","lat":37.78662,"lng":-122.41183},{"name":"Warwick San Francisco","lat":37.78715,"lng":-122.41137},{"name":"Hotel Spero","lat":37.78614,"lng":-122.4117},{"name":"The Touchstone Hotel","lat":37.78718,"lng":-122.41113},{"name":"Club Wyndham Canterbury","lat":37.78899,"lng":-122.41279},{"name":"Krupa Hotel","lat":37.78787,"lng":-122.41322},{"name":"Kensington Park Hotel","lat":37.78847,"lng":-122.40939},{"name":"Chancellor Hotel","lat":37.78866,"lng":-122.40878},{"name":"W San Francisco","lat":37.78547,"lng":-122.40045},{"name":"Hotel Riu Plaza Fisherman´s Wharf","lat":37.80715,"lng":-122.41306},{"name":"Courtyard San Francisco Fisherman's Wharf","lat":37.80738,"lng":-122.41852},{"name":"The Clancy, Autograph Collection","lat":37.78602,"lng":-122.39674},{"name":"Perramont Hotel","lat":37.76685,"lng":-122.43039},{"name":"Twin Peaks Hotel","lat":37.76693,"lng":-122.43035},{"name":"Hyatt Regency San Francisco Downtown SOMA","lat":37.78656,"lng":-122.40309},{"name":"Hotel Carlton","lat":37.78775,"lng":-122.41796},{"name":"Fairfield Inn & Suites","lat":37.60154,"lng":-122.39017},{"name":"Galleria Park Hotel","lat":37.78961,"lng":-122.40351},{"name":"Hotel Triton","lat":37.79034,"lng":-122.40534},{"name":"Hotel 32one","lat":37.78999,"lng":-122.40573},{"name":"White Swan Inn","lat":37.78962,"lng":-122.41124},{"name":"Petite Auberge","lat":37.78957,"lng":-122.41143},{"name":"Four Points by Sheraton San Francisco Bay Bridge","lat":37.83819,"lng":-122.29397},{"name":"Hyatt House Emeryville/San Francisco Bay Area","lat":37.83942,"lng":-122.29293},{"name":"Sonesta Emeryville - San Francisco Bay Bridge","lat":37.83479,"lng":-122.29386},{"name":"Hotel Fusion","lat":37.78572,"lng":-122.40853},{"name":"Aldrich","lat":37.78538,"lng":-122.41315},{"name":"Vantaggio Suites","lat":37.78556,"lng":-122.41317},{"name":"Cable Car Hotel","lat":37.79126,"lng":-122.41722},{"name":"Hotel VIA","lat":37.77934,"lng":-122.39094},{"name":"Four Seasons","lat":37.78622,"lng":-122.40425},{"name":"King George Hotel","lat":37.78677,"lng":-122.40944},{"name":"The Handlery Union Square Hotel","lat":37.78656,"lng":-122.409},{"name":"The Huntington Hotel","lat":37.79138,"lng":-122.41208},{"name":"Abigail Hotel","lat":37.78089,"lng":-122.41614},{"name":"Inn on Folsom","lat":37.77542,"lng":-122.40999},{"name":"City Center Inn & Suites","lat":37.77718,"lng":-122.40894},{"name":"Hotel Ikon","lat":37.78931,"lng":-122.40586},{"name":"Mirage Inn & Suites","lat":37.73575,"lng":-122.50241},{"name":"Mithila Hotel","lat":37.78854,"lng":-122.41635},{"name":"Hotel Julian","lat":37.78857,"lng":-122.41596},{"name":"Travelodge by Fishermans Wharf","lat":37.8053,"lng":-122.41789},{"name":"Suites at Fisherman's Wharf","lat":37.8055,"lng":-122.4206},{"name":"San Remo Hotel","lat":37.80428,"lng":-122.41362},{"name":"Hotel Griffon","lat":37.79288,"lng":-122.39221},{"name":"1 Hotel San Francisco","lat":37.79369,"lng":-122.39329},{"name":"Harbor Court Hotel","lat":37.79268,"lng":-122.39215},{"name":"Castro Hotel","lat":37.79835,"lng":-122.40925},{"name":"Beresford Arms Hotel","lat":37.78738,"lng":-122.41357},{"name":"Holiday Inn San Francisco Golden Gateway","lat":37.78985,"lng":-122.42176},{"name":"Tang Fat Enterprises Company","lat":37.79826,"lng":-122.40841},{"name":"The Utah Inn","lat":37.77931,"lng":-122.39816},{"name":"Phoenix Hotel","lat":37.78295,"lng":-122.41818},{"name":"Holiday Inn Express San Francisco Airport North","lat":37.64437,"lng":-122.4036},{"name":"Canopy by Hilton San Francisco SoMa","lat":37.78236,"lng":-122.40213},{"name":"Carriage Inn","lat":37.7785,"lng":-122.41049},{"name":"San Francisco Inn","lat":37.77294,"lng":-122.41016},{"name":"Francisco Bay Inn","lat":37.80076,"lng":-122.42652},{"name":"Lombard Motor Inn","lat":37.80091,"lng":-122.42586},{"name":"Budget Inn","lat":37.77954,"lng":-122.41303},{"name":"Intercontinental San Francisco","lat":37.78207,"lng":-122.40476},{"name":"The Rose","lat":37.78084,"lng":-122.40811},{"name":"Alkain Hotel","lat":37.782,"lng":-122.40786},{"name":"Aida Hotel","lat":37.78054,"lng":-122.41179},{"name":"Axiom Hotel","lat":37.7849,"lng":-122.40817},{"name":"Hotel Mentone","lat":37.7847,"lng":-122.41256},{"name":"Helen Hotel","lat":37.78338,"lng":-122.41185},{"name":"Cats Coronado Hotel","lat":37.78466,"lng":-122.4123},{"name":"Bel Air Hotel","lat":37.78451,"lng":-122.41248},{"name":"Adante Hotel San Francisco","lat":37.78695,"lng":-122.41364},{"name":"Courtyard San Francisco Union Square","lat":37.78727,"lng":-122.41427},{"name":"Merit","lat":37.78664,"lng":-122.42011},{"name":"Club Quarters Hotel, San Francisco, Embarcadero","lat":37.79522,"lng":-122.40075},{"name":"Orchard Hotel","lat":37.79003,"lng":-122.40834},{"name":"Mystic Hotel","lat":37.7898,"lng":-122.40742},{"name":"Cornell Hotel de France","lat":37.78989,"lng":-122.40912},{"name":"Golden Gate Hotel","lat":37.78982,"lng":-122.40995},{"name":"Hotel Cartwright","lat":37.78944,"lng":-122.4092},{"name":"The Grant Hotel","lat":37.78979,"lng":-122.40958},{"name":"Hotel Emblem San Francisco","lat":37.78936,"lng":-122.40982},{"name":"The Stanley Hotel","lat":37.79093,"lng":-122.41983},{"name":"Hotel Majestic","lat":37.78725,"lng":-122.42543},{"name":"Kimpton Buchanan Hotel","lat":37.78676,"lng":-122.43035},{"name":"Inn at the Opera","lat":37.77862,"lng":-122.42222},{"name":"Hayes Valley Inn","lat":37.77708,"lng":-122.4232},{"name":"Taylor Hotel San Francisco","lat":37.78806,"lng":-122.41197},{"name":"Courtyard On Nob Hill","lat":37.79105,"lng":-122.41502},{"name":"Nob Hill Inn","lat":37.79085,"lng":-122.41248},{"name":"Essex","lat":37.78445,"lng":-122.41754},{"name":"Hotel Western","lat":37.78414,"lng":-122.41458},{"name":"Hotel Verona","lat":37.78392,"lng":-122.41447},{"name":"Artmar Hotel","lat":37.78454,"lng":-122.41325},{"name":"Hamlin Hotel","lat":37.78357,"lng":-122.41388},{"name":"Riviera Hotel","lat":37.78511,"lng":-122.41267},{"name":"The Winton Hotel","lat":37.78567,"lng":-122.41198},{"name":"Columbia Hotel","lat":37.78579,"lng":-122.41154},{"name":"Dahlia Hotel","lat":37.78353,"lng":-122.41031},{"name":"West Hotel","lat":37.784,"lng":-122.40996},{"name":"Dalt Hotel","lat":37.78362,"lng":-122.4099},{"name":"The Lyric Hotel","lat":37.78265,"lng":-122.41211},{"name":"Hotel Le Nain","lat":37.7833,"lng":-122.41974},{"name":"Elk Hotel","lat":37.78342,"lng":-122.41884},{"name":"Page Hotel","lat":37.78257,"lng":-122.4142},{"name":"Hotel Hurley","lat":37.78298,"lng":-122.41429},{"name":"Allen Hotel","lat":37.78356,"lng":-122.4145},{"name":"Hotel Bijou San Francisco","lat":37.78449,"lng":-122.40961},{"name":"Executive Hotel Vintage Court","lat":37.79047,"lng":-122.4081},{"name":"Prita Hotel","lat":37.76048,"lng":-122.41953},{"name":"WorldMark San Francisco","lat":37.79059,"lng":-122.40695},{"name":"Grant Plaza","lat":37.79128,"lng":-122.40591},{"name":"San Francisco Suites","lat":37.79129,"lng":-122.40884},{"name":"Orchard Garden Hotel","lat":37.7909,"lng":-122.40525},{"name":"Star Hotel","lat":37.76214,"lng":-122.41969},{"name":"Kean Hotel","lat":37.78071,"lng":-122.40947},{"name":"Union Hotel","lat":37.7645,"lng":-122.41995},{"name":"Frances Hotel","lat":37.76376,"lng":-122.41988},{"name":"Signature Hotel S.F.","lat":37.77737,"lng":-122.40824},{"name":"Hilton San Francisco Financial District","lat":37.79515,"lng":-122.40429},{"name":"Clayton","lat":37.7944,"lng":-122.40411},{"name":"Palo Alto Hotel","lat":37.79143,"lng":-122.42019},{"name":"24 Henry","lat":37.76693,"lng":-122.43204},{"name":"Chateau Tivoli Bed and Breakfeast","lat":37.77912,"lng":-122.43375},{"name":"Casa Loma Hotel","lat":37.7751,"lng":-122.43083},{"name":"Redwood Inn","lat":37.80134,"lng":-122.42686},{"name":"Buena Vista Motor Inn","lat":37.80073,"lng":-122.42746},{"name":"Town House","lat":37.80112,"lng":-122.42873},{"name":"Marina Inn","lat":37.80097,"lng":-122.42935},{"name":"SureStay","lat":37.80047,"lng":-122.4335},{"name":"The Laurel Inn","lat":37.7876,"lng":-122.4466},{"name":"Inn at the Presidio","lat":37.79704,"lng":-122.45785},{"name":"Lodge at the Presidio","lat":37.80184,"lng":-122.45835},{"name":"Il Triangolo Hotel","lat":37.79986,"lng":-122.40933},{"name":"Castle Inn","lat":37.79556,"lng":-122.42263},{"name":"Nob Hill Motor Inn","lat":37.7952,"lng":-122.42223},{"name":"Parc 55 San Francisco - a Hilton Hotel","lat":37.78489,"lng":-122.40901},{"name":"Hotel Alder","lat":37.78022,"lng":-122.40739},{"name":"Cavallo Point - the Lodge at the Golden Gate","lat":37.83769,"lng":-122.47939},{"name":"Sonesta Select San Francisco Airport Oyster Point Waterfront","lat":37.6661,"lng":-122.39426},{"name":"Sonesta ES Suites","lat":37.66692,"lng":-122.39326},{"name":"Hotel G","lat":37.78737,"lng":-122.40965},{"name":"The Westin St. Francis","lat":37.78776,"lng":-122.40898},{"name":"Hotel Zetta San Francisco","lat":37.78351,"lng":-122.40687},{"name":"Embassy Suites by Hilton San Francisco Airport","lat":37.65541,"lng":-122.40092},{"name":"Hampton Inn San Francisco Airport","lat":37.6561,"lng":-122.40074},{"name":"Hampton","lat":37.69095,"lng":-122.47163},{"name":"Aluxor SFO","lat":37.62339,"lng":-122.41245},{"name":"Villa Montes Hotel, Ascend Hotel Collection","lat":37.62592,"lng":-122.41434},{"name":"Gateway Inn & Suites San Francisco (SFO) Airport","lat":37.624,"lng":-122.41303},{"name":"Mylo Hotel","lat":37.7055,"lng":-122.40872},{"name":"Americas Best Value Inn San Francisco Pacifica","lat":37.63295,"lng":-122.49023},{"name":"Larkspur Landing South San Francisco","lat":37.65805,"lng":-122.39656},{"name":"Homewood Suites by Hilton San Francisco Airport-North","lat":37.6721,"lng":-122.38891},{"name":"DoubleTree by Hilton Hotel San Francisco Airport North","lat":37.67298,"lng":-122.38827},{"name":"Park Pointe Hotel","lat":37.6483,"lng":-122.40384},{"name":"The Atrium Hotel","lat":37.63111,"lng":-122.4074},{"name":"Days Inn by Wyndham San Francisco S/Oyster Point Airport","lat":37.66365,"lng":-122.40078},{"name":"Four Points Sheraton","lat":37.64728,"lng":-122.40587},{"name":"Best Western Grosvenor","lat":37.64331,"lng":-122.40441},{"name":"Travelodge San Francisco Airport North","lat":37.6442,"lng":-122.40553},{"name":"Hotel Focus SFO","lat":37.64964,"lng":-122.40428},{"name":"La Quinta Inn & Suites San Francisco Airport N","lat":37.65105,"lng":-122.40764},{"name":"Ramada Limited San Francisco Airport North","lat":37.65924,"lng":-122.40591},{"name":"Hilton Garden Inn San Francisco Airport North","lat":37.65745,"lng":-122.39764},{"name":"Hotel Des Arts","lat":37.79041,"lng":-122.40483},{"name":"Travelodge","lat":37.79827,"lng":-122.44677},{"name":"Millwood Inn & Suites","lat":37.60961,"lng":-122.40143},{"name":"Hyatt Place San Francisco/Downtown","lat":37.77882,"lng":-122.39229},{"name":"AC Hotel","lat":37.66456,"lng":-122.39565},{"name":"Grand Hyatt at SFO","lat":37.61286,"lng":-122.39396},{"name":"Hyatt Place Emeryville/San Francisco Bay Area","lat":37.83731,"lng":-122.2921},{"name":"The Basque Hotel","lat":37.79824,"lng":-122.40646},{"name":"Hilton San Francisco Union Square","lat":37.78566,"lng":-122.41042},{"name":"Golden Eagle Hotel","lat":37.7985,"lng":-122.40412},{"name":"Sunset Hotel","lat":37.78039,"lng":-122.40761},{"name":"Queen Anne Hotel","lat":37.78724,"lng":-122.42655},{"name":"The Grove Inn","lat":37.777,"lng":-122.43123},{"name":"Oasis Inn","lat":37.78297,"lng":-122.42224},{"name":"Hampton Inn San Francisco Downtown/Convention Center","lat":37.78215,"lng":-122.40779},{"name":"The Inn at Union Square San Francisco","lat":37.78849,"lng":-122.40912},{"name":"Fairmont Heritage Place, Ghirardelli Square","lat":37.80557,"lng":-122.42326},{"name":"CitizenM Union Square","lat":37.7858,"lng":-122.40746},{"name":"Bay Hotel","lat":37.78253,"lng":-122.41209},{"name":"Pacifica Beach Hotel","lat":37.59989,"lng":-122.49919},{"name":"Residence Inn San Francisco Airport Millbrae Station","lat":37.60122,"lng":-122.38428},{"name":"Fairfield Inn & Suites","lat":37.65027,"lng":-122.4039},{"name":"Hotel Kabuki","lat":37.7854,"lng":-122.42849},{"name":"Home2 Suites by Hilton San Francisco Airport North","lat":37.65705,"lng":-122.39956},{"name":"COVA Hotel","lat":37.78404,"lng":-122.41712},{"name":"Post Hotel","lat":37.78771,"lng":-122.4114},{"name":"Omni San Francisco Hotel","lat":37.79312,"lng":-122.4032},{"name":"InterContinental Mark Hopkins","lat":37.79147,"lng":-122.41022},{"name":"Hilton Garden Inn San Francisco/Oakland Bay Bridge","lat":37.83825,"lng":-122.29866}]}