{"generated_at":"2026-07-20T15:26:26.202Z","city":"lv","source":"OpenStreetMap (tourism=hotel)","count":210,"hotels":[{"name":"Extended Stay America","lat":36.12839,"lng":-115.0827},{"name":"Longhorn Casino","lat":36.10707,"lng":-115.05913},{"name":"Skylofts at MGM Grand","lat":36.10237,"lng":-115.16887},{"name":"Monterey Grand Manor","lat":36.10567,"lng":-115.15953},{"name":"Budget Suites of America - Las Vegas","lat":36.03663,"lng":-115.17134},{"name":"Green Valley Ranch","lat":36.02103,"lng":-115.09107},{"name":"WorldMark Las Vegas - Tropicana Avenue","lat":36.09982,"lng":-115.21321},{"name":"Extended Stay America","lat":36.11245,"lng":-115.18946},{"name":"Residence Inn Las Vegas South","lat":36.08311,"lng":-115.1828},{"name":"TownePlace Suites Las Vegas Airport South","lat":36.05651,"lng":-115.15696},{"name":"Fairfield Inn & Suites Las Vegas Airport South","lat":36.05651,"lng":-115.15635},{"name":"Home2 Suites by Hilton Las Vegas Convention Center","lat":36.12631,"lng":-115.14646},{"name":"Las Vegas Hilton at Resorts World","lat":36.13516,"lng":-115.16667},{"name":"Conrad Las Vegas at Resorts World","lat":36.13448,"lng":-115.16566},{"name":"Crockfords Las Vegas","lat":36.13481,"lng":-115.16592},{"name":"Vegas Famous Concierge","lat":36.01022,"lng":-114.9643},{"name":"The Cliffs at Peace Canyon","lat":36.10661,"lng":-115.30543},{"name":"Days Inn","lat":36.09827,"lng":-115.16414},{"name":"Tahiti Village Resort","lat":36.05965,"lng":-115.17142},{"name":"AC Hotel by Marriott Las Vegas Symphony Park","lat":36.16953,"lng":-115.15338},{"name":"Sleep Inn & Suites","lat":36.05853,"lng":-115.03798},{"name":"Bellagio Las Vegas","lat":36.11311,"lng":-115.17688},{"name":"Gold Coast Hotel & Casino","lat":36.1167,"lng":-115.19292},{"name":"Sunset Station","lat":36.06047,"lng":-115.04035},{"name":"Park MGM","lat":36.10471,"lng":-115.1763},{"name":"Luxor Las Vegas","lat":36.09547,"lng":-115.1758},{"name":"Mandalay Bay Resort & Casino","lat":36.09201,"lng":-115.17481},{"name":"Hilton Vacation Club Polo Towers Las Vegas","lat":36.10652,"lng":-115.17085},{"name":"Encore Las Vegas","lat":36.12946,"lng":-115.16473},{"name":"Treasure Island Hotel and Casino","lat":36.12457,"lng":-115.17151},{"name":"Mardi Gras Hotel & Casino","lat":36.12546,"lng":-115.15378},{"name":"Plaza Hotel & Casino","lat":36.17159,"lng":-115.14714},{"name":"Paris Las Vegas","lat":36.11222,"lng":-115.17067},{"name":"Siegel Suites Select – Las Vegas Boulevard","lat":36.05752,"lng":-115.17117},{"name":"Manor Suites","lat":36.05824,"lng":-115.17105},{"name":"Tahiti Suites","lat":36.05874,"lng":-115.17002},{"name":"Baymont Inn & Suites Las Vegas South Strip","lat":36.04912,"lng":-115.16943},{"name":"Aria Resort & Casino","lat":36.10702,"lng":-115.17765},{"name":"Waldorf Astoria Las Vegas","lat":36.10623,"lng":-115.17427},{"name":"The Vanderpump Hotel","lat":36.1151,"lng":-115.17166},{"name":"Boulder Station","lat":36.13379,"lng":-115.08525},{"name":"The Carriage House","lat":36.10737,"lng":-115.16803},{"name":"Main Street Station","lat":36.1743,"lng":-115.14533},{"name":"Trump International Hotel Las Vegas","lat":36.1295,"lng":-115.17265},{"name":"New York New York Hotel and Casino","lat":36.10215,"lng":-115.17459},{"name":"Caesars Palace","lat":36.11662,"lng":-115.17665},{"name":"Hilton Grand Vacations at the Flamingo","lat":36.11667,"lng":-115.16896},{"name":"The LINQ Hotel + Experience","lat":36.11835,"lng":-115.17115},{"name":"Flamingo Las Vegas","lat":36.11642,"lng":-115.1715},{"name":"Hotel MGM Grand Las Vegas","lat":36.10271,"lng":-115.16985},{"name":"Horseshoe Las Vegas","lat":36.11348,"lng":-115.16891},{"name":"Rio All Suite Hotel and Casino","lat":36.11753,"lng":-115.18734},{"name":"W Las Vegas","lat":36.0931,"lng":-115.17733},{"name":"Oyo Casino Hotel","lat":36.09969,"lng":-115.16748},{"name":"Holiday Inn Express & Suites Las Vegas - E Tropicana","lat":36.09946,"lng":-115.16517},{"name":"Candlewood Suites Las Vegas - E Tropicana","lat":36.09831,"lng":-115.16521},{"name":"Harrah's Showroom","lat":36.11932,"lng":-115.17105},{"name":"The D Las Vegas","lat":36.16955,"lng":-115.1427},{"name":"Virgin Hotels Las Vegas, Curio Collection by Hilton","lat":36.10955,"lng":-115.1545},{"name":"Bluegreen Vacations Club 36, an Ascend Collection Resort","lat":36.10267,"lng":-115.15618},{"name":"Fontainebleau Resort & Casino","lat":36.13759,"lng":-115.15954},{"name":"Westgate Las Vegas Resort & Casino","lat":36.13564,"lng":-115.15162},{"name":"The Cosmopolitan of Las Vegas","lat":36.11018,"lng":-115.17408},{"name":"Planet Hollywood Resort and Casino","lat":36.11008,"lng":-115.1713},{"name":"Nobu Hotel at Caesars Palace","lat":36.11671,"lng":-115.17519},{"name":"The Westin Las Vegas Hotel","lat":36.11523,"lng":-115.1657},{"name":"The Signature at MGM Grand","lat":36.10664,"lng":-115.16654},{"name":"Platinum Hotel and Spa","lat":36.11382,"lng":-115.163},{"name":"Circus Circus Las Vegas","lat":36.13768,"lng":-115.16506},{"name":"Sahara Las Vegas Hotel & Casino","lat":36.14234,"lng":-115.15654},{"name":"The Strat","lat":36.1477,"lng":-115.15628},{"name":"JW Marriott Resort","lat":36.17473,"lng":-115.29077},{"name":"Candlewood Suites Las Vegas","lat":36.11581,"lng":-115.15336},{"name":"Hampton Inn & Suites Las Vegas South","lat":35.99692,"lng":-115.12602},{"name":"The Palazzo","lat":36.12418,"lng":-115.16816},{"name":"Best Western Plus Casino Royale-Center Strip","lat":36.12063,"lng":-115.1716},{"name":"Silverton Casino Hotel","lat":36.04162,"lng":-115.18384},{"name":"Highland Inn","lat":36.04443,"lng":-115.18766},{"name":"El Cortez Hotel & Casino","lat":36.16919,"lng":-115.13884},{"name":"SpringHill Suites","lat":36.02564,"lng":-115.05023},{"name":"TownePlace Suites","lat":36.02581,"lng":-115.04927},{"name":"Oasis at Gold Spike","lat":36.17109,"lng":-115.13992},{"name":"John E. Carson Hotel","lat":36.16794,"lng":-115.14046},{"name":"Residence Inn Las Vegas Hughes Center","lat":36.11584,"lng":-115.1559},{"name":"Wynn Las Vegas","lat":36.12665,"lng":-115.16563},{"name":"Downtown Grand","lat":36.17172,"lng":-115.14123},{"name":"Golden Nugget Las Vegas","lat":36.16981,"lng":-115.14536},{"name":"Four Queens","lat":36.17006,"lng":-115.14376},{"name":"El Cortez Hotel and Casino","lat":36.17115,"lng":-115.13762},{"name":"El Cortez Cabana Suites","lat":36.16974,"lng":-115.1379},{"name":"Bridger Inn Hotel Las Vegas","lat":36.16906,"lng":-115.14764},{"name":"Hyatt Place Las Vegas","lat":36.10702,"lng":-115.15101},{"name":"Best Western Plus Las Vegas South Henderson","lat":35.99996,"lng":-115.12174},{"name":"Golden Gate Hotel and Casino","lat":36.17122,"lng":-115.14622},{"name":"Shalimar Hotel of Las Vegas","lat":36.15487,"lng":-115.14948},{"name":"Marriott's Grand Chateau","lat":36.10743,"lng":-115.16922},{"name":"South Point Hotel, Casino & Spa","lat":36.01173,"lng":-115.17613},{"name":"Park Inn by Radisson","lat":36.1317,"lng":-115.08401},{"name":"Hampton","lat":36.21201,"lng":-115.24714},{"name":"La Quinta Inn & Suites Las Vegas Summerlin Tech","lat":36.21133,"lng":-115.24693},{"name":"Best Western McCarran Inn","lat":36.09982,"lng":-115.14871},{"name":"Silver Sevens Hotel & Casino","lat":36.1138,"lng":-115.15273},{"name":"Arizona Charlie's Boulder","lat":36.12409,"lng":-115.07559},{"name":"Las Vegas Marriott","lat":36.1319,"lng":-115.15721},{"name":"Springhill Suites by Marriott Las Vegas Convention Center","lat":36.13511,"lng":-115.15553},{"name":"Circa Resort & Casino","lat":36.17202,"lng":-115.14539},{"name":"Hotel Apache - Adults Only","lat":36.17196,"lng":-115.14429},{"name":"Red Rock Resort","lat":36.1561,"lng":-115.33357},{"name":"Embassy Suites by Hilton Las Vegas","lat":36.11092,"lng":-115.15125},{"name":"Embassy Suites by Hilton Convention Center Las Vegas","lat":36.124,"lng":-115.1539},{"name":"Courtyard Las Vegas Convention Center","lat":36.13024,"lng":-115.15588},{"name":"Comfort Inn","lat":36.05911,"lng":-115.03803},{"name":"Las Vegas Desert Club Resort","lat":36.11761,"lng":-115.16167},{"name":"Travelodge Las Vegas","lat":36.13754,"lng":-115.16277},{"name":"Nirvana Hotel","lat":36.09181,"lng":-115.17206},{"name":"Holiday Inn Express Las Vegas - South","lat":36.08479,"lng":-115.1848},{"name":"Staybridge Suites Las Vegas","lat":36.08532,"lng":-115.18354},{"name":"Fairfield Inn & Suites Las Vegas Stadium Area","lat":36.08451,"lng":-115.1832},{"name":"Courtyard by Marriott Las Vegas Stadium Area","lat":36.08377,"lng":-115.18295},{"name":"Tuscany Suites & Casino","lat":36.11315,"lng":-115.16026},{"name":"MainStay Suites","lat":36.13501,"lng":-115.13765},{"name":"Lucky Club Hotel & Casino","lat":36.21873,"lng":-115.12113},{"name":"Siegel Suites Select Convention Center","lat":36.1326,"lng":-115.16123},{"name":"Hilton Garden Inn Las Vegas Strip South","lat":36.04731,"lng":-115.17078},{"name":"TownePlace Suites Las Vegas Stadium District","lat":36.10031,"lng":-115.18209},{"name":"Hampton Inn Tropicana","lat":36.09962,"lng":-115.18354},{"name":"MainStay Suites","lat":36.11579,"lng":-115.1322},{"name":"Element Las Vegas Summerline","lat":36.12165,"lng":-115.32408},{"name":"La Quinta Inn & Suites","lat":36.1455,"lng":-115.30327},{"name":"Best Western Plus Las Vegas West","lat":36.1426,"lng":-115.28071},{"name":"Homewood Suites by Hilton Las Vegas City Center","lat":36.10607,"lng":-115.18185},{"name":"Hilton Garden Inn","lat":36.10519,"lng":-115.18185},{"name":"The M Resort","lat":35.96515,"lng":-115.16949},{"name":"Four Seasons Hotel Las Vegas","lat":36.09081,"lng":-115.17447},{"name":"Fortune Hotel & Suites","lat":36.11369,"lng":-115.15821},{"name":"Cannery Casino","lat":36.23827,"lng":-115.11867},{"name":"La Quinta Inn Las Vegas Nellis","lat":36.238,"lng":-115.06151},{"name":"California Hotel and Casino","lat":36.17318,"lng":-115.14478},{"name":"Holiday Inn Express & Suites Henderson","lat":36.0578,"lng":-115.03907},{"name":"Hampton Inn & Suites Las Vegas-Henderson","lat":36.05749,"lng":-115.03983},{"name":"Hampton Inn & Suites Las Vegas Airport","lat":36.07026,"lng":-115.11961},{"name":"Fairfield Inn","lat":36.11971,"lng":-115.15413},{"name":"Wyndham Desert Blue","lat":36.12225,"lng":-115.18377},{"name":"Ahern","lat":36.14431,"lng":-115.16083},{"name":"Wildfire Rancho","lat":36.19449,"lng":-115.19196},{"name":"Palace Station","lat":36.14246,"lng":-115.17497},{"name":"Fremont Hotel & Casino Las Vegas","lat":36.17105,"lng":-115.14313},{"name":"Serene","lat":36.10739,"lng":-115.15414},{"name":"Home2 Suites by Hilton Las Vegas City Center","lat":36.09974,"lng":-115.18204},{"name":"Hampton Inn & Suites Las Vegas Convention Center","lat":36.12644,"lng":-115.14664},{"name":"Hampton Inn Las Vegas Strip South","lat":36.04656,"lng":-115.16969},{"name":"Home2 Suites by Hilton Las Vegas Strip South","lat":36.04828,"lng":-115.17058},{"name":"Tru by Hilton Las Vegas Airport","lat":36.06487,"lng":-115.16266},{"name":"Homewood Suites by Hilton Las Vegas Airport","lat":36.06481,"lng":-115.16178},{"name":"Cancun Resort Las Vegas","lat":36.03804,"lng":-115.17464},{"name":"Hampton by Hilton Inn & Suites Las Vegas-Red Rock/Summerlin","lat":36.11195,"lng":-115.30284},{"name":"La Quinta Inn & Suites by Wyndham LV Tropicana Stadium","lat":36.10059,"lng":-115.19051},{"name":"Santa Fe Station Hotel and Casino","lat":36.24986,"lng":-115.24496},{"name":"Hilton Garden Inn Las Vegas/Henderson","lat":36.05701,"lng":-115.04321},{"name":"Best Western Plus North Las Vegas Inn & Suites","lat":36.24205,"lng":-115.10414},{"name":"Best Western Plus Henderson Hotel","lat":36.05922,"lng":-115.0054},{"name":"La Quinta Inn & Suites Las Vegas Airport South","lat":36.07034,"lng":-115.12306},{"name":"Sonesta Select Las Vegas Summerlin","lat":36.1927,"lng":-115.2432},{"name":"Nellis Inn","lat":36.24167,"lng":-115.04465},{"name":"Resorts World Las Vegas","lat":36.13369,"lng":-115.16643},{"name":"Homewood Suites by Hilton Henderson South Las Vegas","lat":36.00179,"lng":-115.1059},{"name":"Residence Inn Las Vegas South/Henderson","lat":35.99653,"lng":-115.12695},{"name":"Siegel Select  Flamingo","lat":36.11538,"lng":-115.11634},{"name":"DoubleTree by Hilton Las Vegas East Flamingo","lat":36.11558,"lng":-115.15118},{"name":"Comfort Inn & Suites Las Vegas - Nellis","lat":36.23979,"lng":-115.07794},{"name":"Holiday Inn Express Las Vegas - Nellis","lat":36.23345,"lng":-115.0631},{"name":"Siegel Slots & Suites","lat":36.23971,"lng":-115.06395},{"name":"Knotty Pine Motel","lat":36.19455,"lng":-115.12988},{"name":"Sterling Gardens Hotel","lat":36.16137,"lng":-115.12395},{"name":"SpringHill Suites Las Vegas North Speedway","lat":36.24136,"lng":-115.10917},{"name":"Club De Soleil","lat":36.09969,"lng":-115.21854},{"name":"Park Inn by Radisson","lat":36.09779,"lng":-115.18203},{"name":"Holiday Inn Express & Suites Las Vegas SW - Spring Valley","lat":36.07574,"lng":-115.24146},{"name":"DoubleTree by Hilton Hotel Las Vegas Airport","lat":36.05836,"lng":-115.14483},{"name":"Residence Inn Las Vegas Airport","lat":36.05017,"lng":-115.16867},{"name":"Fairfield Inn & Suites Las Vegas Northwest","lat":36.26389,"lng":-115.25194},{"name":"The Berkley, Las Vegas","lat":36.04047,"lng":-115.18522},{"name":"Hyatt Place Las Vegas At Silverton Village","lat":36.03771,"lng":-115.18292},{"name":"My Place Hotel","lat":36.24133,"lng":-115.12454},{"name":"Sunrise Inn","lat":36.21813,"lng":-115.12914},{"name":"Branding Iron Hotel","lat":36.20545,"lng":-115.11494},{"name":"Hampton Inn","lat":36.24115,"lng":-115.11021},{"name":"Hawthorn Suites By Wyndham Las Vegas/Henderson","lat":36.02442,"lng":-114.96312},{"name":"Courtyard","lat":36.07205,"lng":-115.08162},{"name":"Residence Inn","lat":36.0736,"lng":-115.08057},{"name":"Sam's Town Hotel & Gambling Hall","lat":36.11298,"lng":-115.06238},{"name":"TownePlace Suites Las Vegas North I-15","lat":36.26272,"lng":-115.07891},{"name":"Durango Resort","lat":36.06391,"lng":-115.28266},{"name":"The English Hotel","lat":36.16124,"lng":-115.15229},{"name":"Atwell Suites at the Pass","lat":36.03188,"lng":-114.98283},{"name":"Home2 Suites","lat":36.28507,"lng":-115.28955},{"name":"Aloft Henderson","lat":36.0138,"lng":-115.10174},{"name":"Home2 Suites Las Vegas I-215 Curve","lat":36.07144,"lng":-115.27654},{"name":"Home2 Suites Las Vegas North","lat":36.2396,"lng":-115.07871},{"name":"SpringHill Suites Las Vegas Airport","lat":36.0702,"lng":-115.2066},{"name":"Emerald Suites","lat":36.02421,"lng":-115.17486},{"name":"WorldMark Las Vegas - Boulevard","lat":36.0336,"lng":-115.1735},{"name":"Otonomus Hotel","lat":36.08741,"lng":-115.20966},{"name":"Riu","lat":36.00939,"lng":-115.17127},{"name":"Homewood Suites by Hilton North Las Vegas Speedway","lat":36.2412,"lng":-115.12364},{"name":"Americana Apartments","lat":36.10703,"lng":-115.15773},{"name":"Emerald Suites","lat":36.12256,"lng":-115.15293},{"name":"WorldMark Las Vegas","lat":36.11247,"lng":-115.12911},{"name":"Jockey Club","lat":36.11022,"lng":-115.17538},{"name":"Spark by Hilton","lat":36.06551,"lng":-115.16276}]}