{"generated_at":"2026-07-18T03:31:52.134Z","city":"chi","source":"OpenStreetMap (tourism=hotel)","count":274,"hotels":[{"name":"City Suites Hotel","lat":41.93977,"lng":-87.65288},{"name":"Majestic Inn","lat":41.94752,"lng":-87.64424},{"name":"Club Quarters Central Loop Hotel","lat":41.87932,"lng":-87.63119},{"name":"The Ritz-Carlton Chicago","lat":41.89782,"lng":-87.62228},{"name":"The Royal Sonesta Chicago River North","lat":41.89115,"lng":-87.6278},{"name":"Holiday Inn Chicago Mart Plaza","lat":41.88814,"lng":-87.63785},{"name":"Courtyard Chicago Downtown/River North","lat":41.89025,"lng":-87.62768},{"name":"The Langham, Chicago","lat":41.88842,"lng":-87.62751},{"name":"Baumhart Lodging at Loyola University Chicago","lat":41.89769,"lng":-87.6271},{"name":"State and Grand by BridgeStreet","lat":41.89101,"lng":-87.62775},{"name":"Residence Inn Chicago Downtown/River North","lat":41.88952,"lng":-87.62983},{"name":"SpringHill Suites Chicago Downtown/River North","lat":41.88966,"lng":-87.62981},{"name":"Hyatt Place Chicago / River North","lat":41.89119,"lng":-87.63092},{"name":"Aloft Chicago City Center","lat":41.89147,"lng":-87.63082},{"name":"Grand Plaza","lat":41.89191,"lng":-87.62849},{"name":"Manilow Suites at The Grand Plaza","lat":41.89209,"lng":-87.6293},{"name":"The River Hotel","lat":41.88766,"lng":-87.62556},{"name":"The Buckingham Hotel","lat":41.87584,"lng":-87.63268},{"name":"Hotel EMC2","lat":41.89356,"lng":-87.62163},{"name":"Hampton Inn Chicago West Loop Fulton Market Area","lat":41.88363,"lng":-87.643},{"name":"Carlton Inn Midway","lat":41.80392,"lng":-87.72207},{"name":"East of the Ryan","lat":41.75152,"lng":-87.60204},{"name":"Park Hyatt Chicago","lat":41.89724,"lng":-87.62527},{"name":"Hampton Inn & Suites Chicago Downtown/Magnificent Mile","lat":41.89525,"lng":-87.62298},{"name":"Homewood Suites by Hilton Chicago Downtown/Magnificent Mile","lat":41.89525,"lng":-87.62332},{"name":"Homewood Suites West Loop Fulton Market Area","lat":41.88377,"lng":-87.64301},{"name":"Canopy by Hilton Chicago Central Loop","lat":41.87844,"lng":-87.63506},{"name":"Homewood Suites by Hilton - Chicago Downtown South Loop","lat":41.86918,"lng":-87.62531},{"name":"Hilton Garden Inn Chicago Downtown South Loop","lat":41.86918,"lng":-87.62553},{"name":"The Gwen","lat":41.89128,"lng":-87.62519},{"name":"The LaSalle Chicago","lat":41.87908,"lng":-87.63249},{"name":"JW Marriott Chicago","lat":41.87927,"lng":-87.63303},{"name":"Ewing Annex Hotel","lat":41.87626,"lng":-87.63091},{"name":"Sonder Greektown","lat":41.8774,"lng":-87.64751},{"name":"Cambria Hotel Chicago Loop - Theatre District","lat":41.88464,"lng":-87.62905},{"name":"DoubleTree Hotel Chicago - Magnificent Mile","lat":41.89281,"lng":-87.61996},{"name":"Hilton Grand Vacations Club Chicago Magnificent Mile","lat":41.89281,"lng":-87.61981},{"name":"The Publishing House Bed & Breakfast","lat":41.88316,"lng":-87.65579},{"name":"The Hotel At Midtown","lat":41.92576,"lng":-87.67957},{"name":"SpringHill Suites Lincolnwood","lat":42.01301,"lng":-87.74217},{"name":"Residence Inn Lincolnwood","lat":42.01314,"lng":-87.74197},{"name":"Holiday Inn & Suites Chicago North Shore (Skokie)","lat":42.01271,"lng":-87.76039},{"name":"Travelodge Chicago","lat":41.87424,"lng":-87.6255},{"name":"Sonesta Chicago O'Hare Airport Rosemont","lat":41.99701,"lng":-87.88215},{"name":"Wyndham Chicago O'Hare","lat":42.01034,"lng":-87.88735},{"name":"The Westin O'Hare","lat":41.98887,"lng":-87.86135},{"name":"Hilton Orrington/Evanston","lat":42.04897,"lng":-87.68073},{"name":"Le Méridien Chicago - Oakbrook Center","lat":41.85026,"lng":-87.94897},{"name":"Trump International Hotel & Tower Chicago","lat":41.88887,"lng":-87.62646},{"name":"SpringHill Suites Chicago O'Hare","lat":41.98514,"lng":-87.82987},{"name":"Sonder Plymouth","lat":41.87634,"lng":-87.62899},{"name":"The Standard Club","lat":41.87768,"lng":-87.62902},{"name":"Union League Club","lat":41.87787,"lng":-87.63002},{"name":"Hilton Garden Inn Chicago Central Loop","lat":41.87843,"lng":-87.63489},{"name":"THE MIDLAND HOTEL, Chicago, a Tribute Portfolio Hotel","lat":41.87975,"lng":-87.63314},{"name":"Quality Inn O'Hare Airport","lat":41.9476,"lng":-87.88487},{"name":"Quality Inn O'Hare Airport","lat":41.94683,"lng":-87.88495},{"name":"Best Western Plus Chicago O'Hare South","lat":41.93321,"lng":-87.88438},{"name":"Swissotel Chicago","lat":41.88736,"lng":-87.61953},{"name":"Best Western O'Hare","lat":41.99917,"lng":-87.88608},{"name":"Hyatt Place Chicago/O'Hare Airport","lat":42.00256,"lng":-87.8855},{"name":"Staypineapple, An Iconic Hotel, The Loop","lat":41.88304,"lng":-87.62823},{"name":"University Club of Chicago","lat":41.881,"lng":-87.62497},{"name":"Best Western Des Plaines","lat":42.03064,"lng":-87.89364},{"name":"The Drake Hotel","lat":41.90042,"lng":-87.62342},{"name":"The Whitehall Hotel","lat":41.89896,"lng":-87.62574},{"name":"Selina Hotel Chicago","lat":41.89858,"lng":-87.62561},{"name":"Sofitel Chicago Magnificent Mile","lat":41.89868,"lng":-87.62732},{"name":"Hilton Chicago/Magnificent Mile Suites","lat":41.89965,"lng":-87.62217},{"name":"Millennium Knickerbocker Hotel Chicago","lat":41.89979,"lng":-87.62273},{"name":"The Walton Residence","lat":41.90024,"lng":-87.62519},{"name":"The Talbott Hotel","lat":41.89939,"lng":-87.62748},{"name":"Raffaello Hotel","lat":41.899,"lng":-87.6216},{"name":"Sonesta ES Chicago Downtown Magnificent Mile","lat":41.8998,"lng":-87.62139},{"name":"Fairmont Hotel Chicago","lat":41.88609,"lng":-87.62115},{"name":"Holiday Inn Chicago North-Evanston","lat":42.04442,"lng":-87.68152},{"name":"Graduate Evanston","lat":42.04648,"lng":-87.67705},{"name":"Renaissance Chicago Downtown Hotel","lat":41.8863,"lng":-87.62849},{"name":"The Wit Hotel","lat":41.88606,"lng":-87.62762},{"name":"Congress Plaza Hotel","lat":41.87507,"lng":-87.62484},{"name":"The Blackstone, Autograph Collection","lat":41.87336,"lng":-87.62479},{"name":"La Quinta Inn & Suites by Wyndham Chicago Downtown","lat":41.88157,"lng":-87.63499},{"name":"Residence Inn Chicago Downtown/Loop","lat":41.88169,"lng":-87.63195},{"name":"Best Western Grant Park Hotel","lat":41.8691,"lng":-87.62469},{"name":"Virgin Hotels Chicago","lat":41.88606,"lng":-87.62603},{"name":"Hyatt Place Chicago/Downtown - The Loop","lat":41.88273,"lng":-87.63566},{"name":"The Royal Sonesta Chicago Downtown","lat":41.88739,"lng":-87.62567},{"name":"Club Quarters Hotel, Wacker at Michigan","lat":41.88762,"lng":-87.62544},{"name":"Hampton Inn Chicago Downtown/North Loop","lat":41.88705,"lng":-87.62545},{"name":"Chicago Athletic Association Hotel","lat":41.88167,"lng":-87.62498},{"name":"Hyatt Centric The Loop Chicago","lat":41.88091,"lng":-87.63117},{"name":"The Kimpton Gray Hotel","lat":41.88089,"lng":-87.63176},{"name":"The Palmer House Hilton","lat":41.88034,"lng":-87.62695},{"name":"Silversmith Hotel Chicago Downtown","lat":41.88165,"lng":-87.62665},{"name":"Wyndham Blake Hotel","lat":41.87517,"lng":-87.6295},{"name":"Pendry Chicago","lat":41.88653,"lng":-87.62501},{"name":"Hotel Monaco","lat":41.88653,"lng":-87.62601},{"name":"The Westin Michigan Avenue Chicago","lat":41.89949,"lng":-87.62323},{"name":"DeWitt Place","lat":41.8995,"lng":-87.6204},{"name":"Crowne Plaza Chicago West Loop","lat":41.8808,"lng":-87.64685},{"name":"Holiday Inn Chicago-Downtown","lat":41.87487,"lng":-87.63996},{"name":"Le Méridien Essex","lat":41.8717,"lng":-87.62475},{"name":"The Wade","lat":41.89386,"lng":-87.61559},{"name":"Fairfield Inn & Suites Chicago Downtown/River North","lat":41.89111,"lng":-87.62999},{"name":"Kinzie Hotel","lat":41.88949,"lng":-87.62891},{"name":"Hampton Inn & Suites Chicago - Downtown","lat":41.89062,"lng":-87.6292},{"name":"The Westin Chicago River North","lat":41.88817,"lng":-87.63004},{"name":"InterContinental Chicago Hotel","lat":41.89135,"lng":-87.62355},{"name":"The Peninsula Chicago","lat":41.89621,"lng":-87.62498},{"name":"Four Seasons Hotel Chicago","lat":41.89961,"lng":-87.62504},{"name":"Waldorf Astoria Chicago","lat":41.89969,"lng":-87.62762},{"name":"Embassy Suites by Hilton Chicago Downtown","lat":41.89287,"lng":-87.62858},{"name":"Hotel 55 Chicago Downtown","lat":41.89306,"lng":-87.62579},{"name":"Hotel Audrey","lat":41.89602,"lng":-87.62279},{"name":"Warwick Allerton Hotel Chicago","lat":41.8952,"lng":-87.62376},{"name":"Hilton Garden Inn Chicago/Midway Airport","lat":41.77415,"lng":-87.74642},{"name":"Marriott Chicago Midway Airport","lat":41.77395,"lng":-87.74468},{"name":"Hampton Inn & Suites Chicago Midway Airport","lat":41.77379,"lng":-87.74283},{"name":"Fairfield Inn & Suites Chicago Midway Airport","lat":41.7723,"lng":-87.74369},{"name":"Holiday Inn Express Chicago Midway Airport","lat":41.77438,"lng":-87.74305},{"name":"Sleep Inn Midway Airport","lat":41.77171,"lng":-87.74272},{"name":"Holiday Inn LXG Midway Airport","lat":41.75884,"lng":-87.74102},{"name":"Hilton Chicago O'Hare Airport","lat":41.97743,"lng":-87.90421},{"name":"Fullerton Hotel","lat":41.9242,"lng":-87.72512},{"name":"Embassy Suites by Hilton Chicago Downtown Magnificent Mile","lat":41.89141,"lng":-87.61967},{"name":"Sheraton Grand Chicago","lat":41.88915,"lng":-87.61948},{"name":"Hotel Lincoln","lat":41.91529,"lng":-87.6345},{"name":"Renaissance Chicago O'Hare Suites","lat":41.98319,"lng":-87.84088},{"name":"Holiday Inn Chicago O'Hare Area","lat":41.98185,"lng":-87.83565},{"name":"The Neighborhood Hotel - Little Italy","lat":41.86908,"lng":-87.66281},{"name":"Courtyard by Marriott Chicago at Medical District / UIC","lat":41.87376,"lng":-87.66593},{"name":"Hyatt House Chicago - Medical / University District","lat":41.87385,"lng":-87.67199},{"name":"Hotel Chicago West Loop","lat":41.87795,"lng":-87.66779},{"name":"The Willows","lat":41.93387,"lng":-87.64357},{"name":"Hotel Versey","lat":41.93306,"lng":-87.64549},{"name":"Best Western Plus Hawthorne Terrace","lat":41.94413,"lng":-87.64597},{"name":"Aragon Arms Hotel","lat":41.97213,"lng":-87.65591},{"name":"Northmere Hotel","lat":41.97285,"lng":-87.65593},{"name":"Wyndham Chicago McCormick Hotel","lat":41.84518,"lng":-87.62753},{"name":"Hotel BnB","lat":41.86523,"lng":-87.62434},{"name":"The Allegro Royal Sonesta Hotel Chicago Loop","lat":41.88418,"lng":-87.6333},{"name":"Arlo Chicago","lat":41.88513,"lng":-87.62498},{"name":"Ambassador Hotel","lat":41.90605,"lng":-87.62832},{"name":"Inn of Chicago Magnificent Mile, an Ascend Collection hotel","lat":41.8928,"lng":-87.62303},{"name":"Best Western River North","lat":41.89217,"lng":-87.63199},{"name":"Omni Chicago Hotel","lat":41.89472,"lng":-87.62493},{"name":"Claridge House Chicago, Tapestry Collection by Hilton","lat":41.90521,"lng":-87.63045},{"name":"Courtyard Chicago Downtown/Magnificent Mile","lat":41.89312,"lng":-87.6231},{"name":"Eurostars Magnificent Mile","lat":41.89432,"lng":-87.62843},{"name":"AC Hotel Chicago Downtown","lat":41.89361,"lng":-87.6261},{"name":"Hilton Garden Inn Chicago Downtown/Magnificent Mile","lat":41.89207,"lng":-87.62776},{"name":"Residence Inn Chicago Downtown Magnificent Mile","lat":41.89383,"lng":-87.62505},{"name":"Marshall Hotel","lat":41.90485,"lng":-87.63343},{"name":"ACME Hotel Company","lat":41.89224,"lng":-87.6275},{"name":"Elms Hotel","lat":41.90343,"lng":-87.62796},{"name":"Fairfield Inn & Suites Chicago Downtown/Magnificent Mile","lat":41.89365,"lng":-87.62193},{"name":"Aloft Chicago - Magnificent Mile","lat":41.89312,"lng":-87.62113},{"name":"The Chicago Hotel Collection River North","lat":41.89857,"lng":-87.63641},{"name":"Chicago Marriott Downtown Magnificent Mile","lat":41.89213,"lng":-87.62487},{"name":"Holiday Inn Express Chicago - Magnificent Mile","lat":41.89376,"lng":-87.62709},{"name":"The Godfrey Hotel Chicago","lat":41.89458,"lng":-87.63214},{"name":"Thompson Chicago","lat":41.90136,"lng":-87.62749},{"name":"Freehand Chicago","lat":41.89225,"lng":-87.62731},{"name":"Hotel Felix","lat":41.89463,"lng":-87.63155},{"name":"Hyatt Centric Chicago Magnificent Mile","lat":41.89378,"lng":-87.62224},{"name":"Ivy Hotel","lat":41.89312,"lng":-87.6214},{"name":"Sophy Hotel","lat":41.79925,"lng":-87.59142},{"name":"Aloft Chicago O'Hare","lat":41.97728,"lng":-87.86715},{"name":"The St. Clair Hotel","lat":41.8936,"lng":-87.62296},{"name":"Extended Stay America - Chicago Midway","lat":41.75771,"lng":-87.74574},{"name":"Best Western Inn & Suites - Midway Airport","lat":41.74298,"lng":-87.74182},{"name":"Manilow Suites at Millennium Park Plaza","lat":41.88474,"lng":-87.62413},{"name":"Holiday Inn Express","lat":41.86627,"lng":-87.8832},{"name":"Four Points by Sheraton Chicago O'Hare Airport","lat":41.95545,"lng":-87.88265},{"name":"Hyatt Regency Chicago","lat":41.88749,"lng":-87.62223},{"name":"Loews Chicago O'Hare Hotel","lat":41.97419,"lng":-87.86334},{"name":"DoubleTree by Hilton Hotel Chicago O'Hare Airport - Rosemont","lat":41.97831,"lng":-87.86333},{"name":"Sheraton Suites Chicago O'Hare","lat":41.99726,"lng":-87.88345},{"name":"Hyatt Rosemont","lat":41.99539,"lng":-87.86226},{"name":"Courtyard Chicago Midway Airport","lat":41.77305,"lng":-87.74368},{"name":"The Champagne Lodge and Luxury Suites","lat":41.73808,"lng":-87.94974},{"name":"Hilton Garden Inn Chicago / North Loop","lat":41.88704,"lng":-87.62562},{"name":"Marriott Marquis","lat":41.85368,"lng":-87.62023},{"name":"Hyatt Lodge Oak Brook Chicago","lat":41.83635,"lng":-87.94733},{"name":"Chicago Marriott Southwest at Burr Ridge","lat":41.756,"lng":-87.90955},{"name":"Hampton Inn Chicago-O'Hare International Airport","lat":41.94988,"lng":-87.88505},{"name":"Loews Chicago Downtown","lat":41.88986,"lng":-87.61909},{"name":"London House Chicago","lat":41.88775,"lng":-87.6253},{"name":"Hyatt Place Chicago-South/University Medical Center","lat":41.80015,"lng":-87.58861},{"name":"The Guesthouse Hotel","lat":41.97095,"lng":-87.66808},{"name":"Hoxton Hotel","lat":41.88589,"lng":-87.64914},{"name":"Best Western Plus Westmont","lat":41.8129,"lng":-87.94871},{"name":"Hilton Garden Inn Chicago O'Hare Airport","lat":42.00095,"lng":-87.86467},{"name":"Courtyard Chicago O'Hare","lat":41.99993,"lng":-87.86503},{"name":"Embassy Suites by Hilton Chicago O'Hare Rosemont","lat":41.97911,"lng":-87.86321},{"name":"Hilton Rosemont/Chicago O'Hare","lat":41.97992,"lng":-87.86343},{"name":"InTown Suites Extended Stay Chicago IL - Elk Grove","lat":42.01037,"lng":-87.94302},{"name":"Wyndham Garden Elk Grove Village/O'Hare","lat":42.01284,"lng":-87.9413},{"name":"Hotel Riu Plaza Chicago","lat":41.89359,"lng":-87.62328},{"name":"Sonesta Simply Suites Chicago O'Hare Airport","lat":41.95224,"lng":-87.88457},{"name":"Country Inn & Suites","lat":41.93194,"lng":-87.92518},{"name":"Extended Stay America - Chicago - O'Hare, IL","lat":42.00882,"lng":-87.89343},{"name":"Extended Stay America - Chicago - O'Hare - Allstate Arena, IL","lat":42.00795,"lng":-87.89319},{"name":"Four Points by Sheraton Mount Prospect O’Hare","lat":42.0252,"lng":-87.94149},{"name":"Hyatt House Chicago West Loop-Fulton Market","lat":41.88327,"lng":-87.65523},{"name":"Comfort Inn Convention Center-Chicago O'Hare Airport","lat":42.00962,"lng":-87.87071},{"name":"Chicago Marriott Suites O'Hare","lat":41.98838,"lng":-87.85895},{"name":"Days Inn Calumet Park","lat":41.66101,"lng":-87.66143},{"name":"Plaza Inn","lat":41.66178,"lng":-87.66182},{"name":"Hotel Zachary","lat":41.94775,"lng":-87.65733},{"name":"Holiday Inn Chicago - Midway Airport","lat":41.77223,"lng":-87.74526},{"name":"Residence Inn Chicago Midway Airport","lat":41.7715,"lng":-87.7462},{"name":"Hyatt Place Chicago/Midway Airport","lat":41.77259,"lng":-87.74696},{"name":"The Flats at Loyola Station","lat":42.00059,"lng":-87.66158},{"name":"Viceroy Chicago","lat":41.9024,"lng":-87.62892},{"name":"Extended Stay America","lat":42.0082,"lng":-87.89338},{"name":"Nobu Hotel","lat":41.88474,"lng":-87.64945},{"name":"Jaslin Hotel","lat":41.85259,"lng":-87.63434},{"name":"Home2 Suites by Hilton Chicago River North","lat":41.89506,"lng":-87.63157},{"name":"Moxy Chicago Downtown","lat":41.89185,"lng":-87.63298},{"name":"Best Western","lat":41.87191,"lng":-87.89357},{"name":"Extended Stay America","lat":41.8735,"lng":-87.89549},{"name":"Baymont by Wyndham Chicago/Alsip","lat":41.65879,"lng":-87.73788},{"name":"Delta Hotels by Marriott Chicago Willowbrook","lat":41.74729,"lng":-87.94286},{"name":"Red Roof Plus+ Chicago - Willowbrook","lat":41.75161,"lng":-87.94345},{"name":"La Quinta Inn Chicago Willowbrook","lat":41.74456,"lng":-87.94334},{"name":"Hilton Garden Inn, Hampton Inn, & Home2 Suites","lat":41.85258,"lng":-87.62303},{"name":"Hyatt Place Chicago / Wicker Park","lat":41.9104,"lng":-87.66731},{"name":"SpringHill Suites Chicago Southwest at Burr Ridge/Hinsdale","lat":41.76202,"lng":-87.91812},{"name":"Residence Inn Oak Brook","lat":41.84599,"lng":-87.94256},{"name":"Oak Lawn Hilton","lat":41.72266,"lng":-87.73965},{"name":"Essence Suites","lat":41.62652,"lng":-87.85264},{"name":"Hampton Inn & Suites","lat":41.75872,"lng":-87.91833},{"name":"The Rose Hotel Chicago O’Hare, Tapestry Collection by Hilton","lat":41.97424,"lng":-87.87062},{"name":"The Marquee at Block 37","lat":41.88427,"lng":-87.62878},{"name":"Homewood Suites by Hilton Chicago Downtown","lat":41.8919,"lng":-87.62625},{"name":"Holiday Inn Express & Suites Bensenville - O'Hare","lat":41.9317,"lng":-87.92458},{"name":"citizenM Chicago","lat":41.88708,"lng":-87.62502},{"name":"Holiday Inn Express & Suites Chicago O'Hare Airport","lat":41.99933,"lng":-87.88278},{"name":"Hyatt Regency McCormick Place","lat":41.85197,"lng":-87.6179},{"name":"Hampton Inn Chicago North-Loyola Station","lat":42.00224,"lng":-87.66124},{"name":"Fairfield Inn & Suites Chicago O'Hare","lat":42.01084,"lng":-87.88722},{"name":"Hampton Inn & Suites Rosemont Chicago O’Hare","lat":41.99272,"lng":-87.8622},{"name":"The Study at the University of Chicago","lat":41.78561,"lng":-87.59508},{"name":"SpringHill Suites Chicago Chinatown","lat":41.84972,"lng":-87.63151},{"name":"Hyatt House Oak Brook","lat":41.84852,"lng":-87.92539},{"name":"Hampton Inn & Suites Bridgeview Chicago","lat":41.76623,"lng":-87.80339},{"name":"Days Inn and Suites by Wyndham Hammond, IN","lat":41.64188,"lng":-87.50928},{"name":"Baymont Chicago/Calumet City","lat":41.62187,"lng":-87.57646},{"name":"Holiday Inn Express & Suites Chicago North Shore - Niles","lat":42.01314,"lng":-87.80167},{"name":"Crowne Plaza Chicago SW - Burr Ridge","lat":41.75345,"lng":-87.92154},{"name":"Extended Stay America - Chicago - Burr Ridge","lat":41.75407,"lng":-87.91742},{"name":"DoubleTree Chicago Oak Brook","lat":41.85287,"lng":-87.94715},{"name":"Chicago Lake Shore Hotel","lat":41.80578,"lng":-87.58545},{"name":"Best Western Plus","lat":41.77774,"lng":-87.87299},{"name":"Holiday Inn Countryside","lat":41.77783,"lng":-87.87221},{"name":"Four Points by Sheraton Chicago Westchester/Oak Brook","lat":41.84712,"lng":-87.90838},{"name":"avid hotel Chicago O’hare – Des Plaines","lat":42.00926,"lng":-87.88441},{"name":"Hotel Chicago Downtown, Autograph Collection","lat":41.88867,"lng":-87.62885},{"name":"La Quinta Inn & Suites Rosemont/O'Hare","lat":42.00279,"lng":-87.88643},{"name":"Hyatt House Chicago/Evanston","lat":42.04552,"lng":-87.67947},{"name":"Hampton Inn & Suites Chicago Medical District UIC","lat":41.87281,"lng":-87.67815},{"name":"Hampton Majestic Chicago Theatre District","lat":41.88091,"lng":-87.62858},{"name":"Cambria Chicago Loop - Theatre District","lat":41.88468,"lng":-87.62886},{"name":"Bridgeview Inn","lat":41.70965,"lng":-87.79897},{"name":"Ramada Hammond Hotel & Conference Center","lat":41.63815,"lng":-87.50746},{"name":"The Drake Oak Brook, Autograph Collection","lat":41.84511,"lng":-87.92745},{"name":"Comfort Suites Chicago O'Hare Airport","lat":41.95556,"lng":-87.86002},{"name":"JC Miami Hotel","lat":41.69895,"lng":-87.79825},{"name":"Chicago Hilton & Towers","lat":41.87251,"lng":-87.62512},{"name":"Staybridge Suites Chicago O'Hare - Rosemont","lat":41.99965,"lng":-87.88559},{"name":"Holiday Inn Express Crestwood","lat":41.64975,"lng":-87.73907},{"name":"DoubleTree by Hilton Hotel Chicago - Alsip","lat":41.66348,"lng":-87.74442},{"name":"Hyatt Place Chicago - Medical / University District","lat":41.87384,"lng":-87.67271}]}