{"generated_at":"2026-07-18T03:47:51.001Z","city":"sac","source":"OpenStreetMap (tourism=hotel)","count":75,"hotels":[{"name":"Courtyard Inn","lat":38.64703,"lng":-121.38411},{"name":"Hilton House","lat":38.65519,"lng":-121.53764},{"name":"TownePlace Suites Sacramento Airport Natomas","lat":38.64418,"lng":-121.51894},{"name":"Home2 Suites","lat":38.58219,"lng":-121.5216},{"name":"Aloft","lat":38.65282,"lng":-121.52942},{"name":"AC Hotel","lat":38.58222,"lng":-121.49686},{"name":"SureStay Plus by Best Western Sacramento Cal Expo","lat":38.60076,"lng":-121.45652},{"name":"Residence Inn","lat":38.59878,"lng":-121.45471},{"name":"Holiday Inn (Coming soon)","lat":38.63707,"lng":-121.49747},{"name":"Fairfield Inn & Suites","lat":38.61554,"lng":-121.53792},{"name":"DoubleTree by Hilton Sacramento","lat":38.60089,"lng":-121.43312},{"name":"Hampton Inn & Suites","lat":38.59087,"lng":-121.55723},{"name":"Ramada West Sacramento Hotel and Suites","lat":38.57408,"lng":-121.55006},{"name":"Extended Stay America - Sacramento-West Sacramento","lat":38.58984,"lng":-121.55532},{"name":"Holiday Inn Express - West Sacramento","lat":38.57661,"lng":-121.54732},{"name":"Hyatt Regency Sacramento","lat":38.57771,"lng":-121.49069},{"name":"Holiday Inn Sacramento-Capitol Plaza","lat":38.58187,"lng":-121.50236},{"name":"Extended Stay America - Sacramento - Arden Way","lat":38.60537,"lng":-121.43714},{"name":"Homewood Suites","lat":38.65483,"lng":-121.52998},{"name":"Hampton","lat":38.65396,"lng":-121.53024},{"name":"Holiday Inn Express","lat":38.65509,"lng":-121.52904},{"name":"Extended Stay America - Sacramento - Northgate","lat":38.63872,"lng":-121.47636},{"name":"Quality Inn Sacramento North","lat":38.63782,"lng":-121.47603},{"name":"Four Points by Sheraton Sacramento International Airport","lat":38.65504,"lng":-121.5389},{"name":"Embassy Suites by Hilton Sacramento - Riverfront Promenade","lat":38.57957,"lng":-121.50691},{"name":"Hilton Garden Inn Sacramento/South Natomas","lat":38.61121,"lng":-121.51181},{"name":"SpringHill Suites Sacramento Airport Natomas","lat":38.61063,"lng":-121.51398},{"name":"Hilton Sacramento Arden West","lat":38.60683,"lng":-121.43366},{"name":"Residence Inn Sacramento Cal Expo","lat":38.59388,"lng":-121.4141},{"name":"Comfort Suites - Downtown","lat":38.59578,"lng":-121.50598},{"name":"Quality Inn & Suites","lat":38.59532,"lng":-121.50588},{"name":"BEST WESTERN Sandman Motel","lat":38.59432,"lng":-121.50531},{"name":"Executive Inn and Suites Sacramento","lat":38.59574,"lng":-121.50261},{"name":"Courtyard Sacramento Midtown","lat":38.55209,"lng":-121.4542},{"name":"Lexington Inn & Suites- Sacramento Cal Expo","lat":38.59117,"lng":-121.41625},{"name":"Larkspur Landing Sacramento","lat":38.57612,"lng":-121.4168},{"name":"The Citizen Hotel, Autograph Collection","lat":38.58015,"lng":-121.49387},{"name":"Delta King","lat":38.58282,"lng":-121.50685},{"name":"Hotel Med Park, Ascend Hotel Collection","lat":38.55371,"lng":-121.45729},{"name":"Sheraton Grand Sacramento Hotel","lat":38.57902,"lng":-121.48993},{"name":"Residence Inn by Marriott Sacramento Downtown at Capitol Park","lat":38.5765,"lng":-121.48701},{"name":"Congress Hotel","lat":38.58056,"lng":-121.49069},{"name":"Inn Off Capitol Park, Ascend Hotel Collection","lat":38.57348,"lng":-121.48753},{"name":"Vizcaya Sacramento","lat":38.56432,"lng":-121.48328},{"name":"Fairfield Inn Sacramento Cal Expo","lat":38.59655,"lng":-121.44675},{"name":"Quality Inn Elk Grove/Sacramento","lat":38.47495,"lng":-121.41984},{"name":"Best Western Capital City Inn","lat":38.47619,"lng":-121.42151},{"name":"Fairfield Inn","lat":38.45524,"lng":-121.40816},{"name":"Kimpton Sawyer Hotel","lat":38.5815,"lng":-121.49942},{"name":"Hyatt House Sacramento / Midtown","lat":38.57322,"lng":-121.47009},{"name":"SureStay Plus by Best Western Sacramento North","lat":38.59784,"lng":-121.50316},{"name":"Governors Inn Hotel","lat":38.59652,"lng":-121.5019},{"name":"The Westin Sacramento Riverfront Hotel & Spa","lat":38.53435,"lng":-121.51821},{"name":"Element Sacramento Airport","lat":38.63876,"lng":-121.49397},{"name":"Hilton Garden Inn","lat":38.65051,"lng":-121.52854},{"name":"Ramada Sacramento","lat":38.62977,"lng":-121.40082},{"name":"SpringHill Suites West Sacramento","lat":38.59141,"lng":-121.55854},{"name":"Red Roof Inn","lat":38.64282,"lng":-121.38388},{"name":"La Quinta Inn Sacramento North","lat":38.65982,"lng":-121.35739},{"name":"Courtyard by Sacramento Airport Natomas","lat":38.60576,"lng":-121.51052},{"name":"TownePlace Suites Sacramento Cal Expo","lat":38.59703,"lng":-121.44571},{"name":"Lions Gate Hotel - A Trademark Collection By Wyndham","lat":38.66356,"lng":-121.38451},{"name":"Holiday Inn Express & Suites Sacramento NE Cal Expo","lat":38.62454,"lng":-121.41362},{"name":"Hampton Inn & Suites Sacramento-Cal Expo","lat":38.62486,"lng":-121.41296},{"name":"Sterling Hotel","lat":38.58094,"lng":-121.48818},{"name":"Quality Inn Sacramento Convention Center","lat":38.57996,"lng":-121.48634},{"name":"Comfort Inn & Suites Sacramento - University Area","lat":38.55066,"lng":-121.40988},{"name":"Wyndham Sacramento","lat":38.66361,"lng":-121.35593},{"name":"The Exchange Hotel, Curio Collection by Hilton","lat":38.58206,"lng":-121.50188},{"name":"The Fort Sutter Hotel Sacramento","lat":38.57025,"lng":-121.47108},{"name":"Hampton Inn & Suites Sacramento at CSUS","lat":38.55142,"lng":-121.42509},{"name":"Wyndham Garden Sacramento Airport Natomas","lat":38.65192,"lng":-121.51054},{"name":"Hyatt Centric Downtown Sacramento","lat":38.57954,"lng":-121.49855},{"name":"Crossroads Inn","lat":38.59648,"lng":-121.50511},{"name":"The Greens on Del Paso Blvd","lat":38.60723,"lng":-121.45594}]}