{"generated_at":"2026-07-18T03:32:40.665Z","city":"clt","source":"OpenStreetMap (tourism=hotel)","count":202,"hotels":[{"name":"Residence Inn Charlotte South at I-77/Tyvola Road","lat":35.15802,"lng":-80.88972},{"name":"Extended Stay America - Charlotte - Airport","lat":35.18088,"lng":-80.89255},{"name":"Residence Inn","lat":35.18146,"lng":-80.91374},{"name":"Fairfield Inn","lat":35.18166,"lng":-80.91415},{"name":"AC Hotel by Marriott Charlotte City Center","lat":35.22532,"lng":-80.84145},{"name":"Tru Charlotte Airport Lake Pointe","lat":35.1957,"lng":-80.91548},{"name":"Hampton Inn & Suites Charlotte Airport Lake Pointe","lat":35.19589,"lng":-80.91569},{"name":"Kimpton Tryon Park Hotel","lat":35.22624,"lng":-80.84655},{"name":"WoodSpring Suites","lat":35.14106,"lng":-80.91612},{"name":"WoodSpring Suites","lat":35.35426,"lng":-80.84132},{"name":"Residence Inn","lat":35.22708,"lng":-80.84951},{"name":"Hyatt Place Charlotte Downtown","lat":35.2226,"lng":-80.84109},{"name":"Embassy Suites by Hilton Charlotte Concord Golf Resort & Spa","lat":35.36528,"lng":-80.70154},{"name":"Hilton Garden Inn Charlotte/Ayrsley","lat":35.13813,"lng":-80.93076},{"name":"Quality Inn Airport South","lat":35.18012,"lng":-80.88358},{"name":"Best Western","lat":35.09216,"lng":-80.93696},{"name":"Clarion Hotel","lat":35.09261,"lng":-80.93632},{"name":"Quality Inn","lat":35.09384,"lng":-80.93758},{"name":"Sleep Inn","lat":35.09422,"lng":-80.93817},{"name":"Comfort Inn","lat":35.09626,"lng":-80.93566},{"name":"Courtyard Charlotte Airport North","lat":35.23968,"lng":-80.94053},{"name":"Airport Inn","lat":35.23984,"lng":-80.94167},{"name":"Hampton Inn and Suites Charlotte Airport","lat":35.2384,"lng":-80.93875},{"name":"Extended Stay America","lat":35.08605,"lng":-80.87274},{"name":"Hampton Inn Charlotte/Matthews","lat":35.13479,"lng":-80.71517},{"name":"Sleep Inn Matthews-Charlotte","lat":35.13205,"lng":-80.71306},{"name":"Best Western Plus","lat":35.14684,"lng":-80.72623},{"name":"Holiday Inn Express & Suites Charlotte Southeast - Matthews","lat":35.1372,"lng":-80.71707},{"name":"Fairfield Inn & Suites","lat":35.14735,"lng":-80.72661},{"name":"InTown Suites Extended Stay","lat":35.14823,"lng":-80.72704},{"name":"The VanLandingham Estate","lat":35.22945,"lng":-80.80773},{"name":"Best Western Plus Pineville-Charlotte South","lat":35.08759,"lng":-80.88121},{"name":"Comfort Suites Pineville - Ballantyne Area","lat":35.09071,"lng":-80.87643},{"name":"Hampton Inn & Suites Charlotte/Pineville","lat":35.08319,"lng":-80.8834},{"name":"Fairfield Inn & Suites Charlotte Arrowood","lat":35.13615,"lng":-80.90727},{"name":"Hyatt Place Charlotte/Arrowood","lat":35.1358,"lng":-80.90441},{"name":"Candlewood Suites Charlotte - Arrowood","lat":35.13524,"lng":-80.90604},{"name":"Quality Suites Pineville - Charlotte","lat":35.08547,"lng":-80.88411},{"name":"Sonesta ES Suites Charlotte","lat":35.1349,"lng":-80.90511},{"name":"Comfort Inn Matthews - Charlotte","lat":35.13519,"lng":-80.7122},{"name":"Country Inn & Suites","lat":35.10578,"lng":-80.68245},{"name":"Sheraton Charlotte Airport Hotel","lat":35.23748,"lng":-80.92271},{"name":"The Ritz-Carlton, Charlotte","lat":35.22615,"lng":-80.84147},{"name":"Hilton Charlotte Uptown","lat":35.22391,"lng":-80.84376},{"name":"Sheraton Charlotte Hotel","lat":35.2165,"lng":-80.83759},{"name":"Le Méridien Charlotte","lat":35.21691,"lng":-80.83851},{"name":"Fairfield Inn & Suites Charlotte Uptown","lat":35.21866,"lng":-80.83613},{"name":"SpringHill Suites Charlotte Concord Mills/Speedway","lat":35.36964,"lng":-80.71152},{"name":"Residence Inn Charlotte Concord","lat":35.36423,"lng":-80.70333},{"name":"Holiday Inn Express & Suites Charlotte-Concord-I-85","lat":35.36841,"lng":-80.71049},{"name":"Comfort Suites Concord Mills","lat":35.36889,"lng":-80.71073},{"name":"Hampton Inn & Suites Concord / Charlotte","lat":35.36926,"lng":-80.7095},{"name":"Sleep Inn & Suites At Concord Mills","lat":35.3703,"lng":-80.71085},{"name":"Hilton Garden Inn Charlotte/Concord","lat":35.37061,"lng":-80.70995},{"name":"Wingate by Wyndham Charlotte Speedway/Concord","lat":35.37016,"lng":-80.70917},{"name":"Charlotte Marriott City Center","lat":35.22803,"lng":-80.84353},{"name":"The Westin Charlotte","lat":35.22175,"lng":-80.84726},{"name":"The Dunhill Hotel","lat":35.22889,"lng":-80.84115},{"name":"Drury Inn & Suites Charlotte Northlake","lat":35.34928,"lng":-80.84964},{"name":"Hyatt Place Charlotte Airport/Lake Pointe","lat":35.18223,"lng":-80.91921},{"name":"Hyatt Place Charlotte Airport/Tyvola Road","lat":35.1913,"lng":-80.92236},{"name":"Sonesta Charlotte Executive Park","lat":35.15945,"lng":-80.88984},{"name":"Wyndham Garden Charlotte Executive Park","lat":35.15898,"lng":-80.88695},{"name":"SpringHill Suites Charlotte Uptown","lat":35.2264,"lng":-80.83923},{"name":"Four Points by Sheraton Charlotte (Permanently Closed)","lat":35.17888,"lng":-80.87858},{"name":"Hampton Inn and Suites Charlotte - Arrowood Rd.","lat":35.13831,"lng":-80.91065},{"name":"The Duke Mansion","lat":35.2015,"lng":-80.82748},{"name":"Omni Charlotte Hotel","lat":35.22622,"lng":-80.84285},{"name":"Courtyard Charlotte Concord","lat":35.36331,"lng":-80.70323},{"name":"Embassy Suites by Hilton Charlotte Uptown","lat":35.22198,"lng":-80.84259},{"name":"Hyatt House Charlotte/Center City","lat":35.22419,"lng":-80.83907},{"name":"Holiday Inn Center City","lat":35.22734,"lng":-80.84016},{"name":"Courtyard","lat":35.05925,"lng":-80.85077},{"name":"Drury Inn & Suites Charlotte Arrowood","lat":35.13939,"lng":-80.90893},{"name":"WoodSpring Suites","lat":35.08741,"lng":-80.93452},{"name":"Homewood Suites","lat":35.13728,"lng":-80.93121},{"name":"Embassy Suites by Hilton Charlotte Ayrsley","lat":35.13673,"lng":-80.93042},{"name":"Courtyard Charlotte Airport/Billy Graham Parkway","lat":35.17971,"lng":-80.88879},{"name":"Radisson Hotel Charlotte Airport","lat":35.1822,"lng":-80.885},{"name":"La Quinta Inn & Suites Charlotte Airport North","lat":35.24113,"lng":-80.92062},{"name":"Quality Inn & Suites Airport","lat":35.23972,"lng":-80.91738},{"name":"Microtel Inn & Suites by Wyndham Charlotte Airport","lat":35.24108,"lng":-80.92155},{"name":"Hilton Charlotte University Place","lat":35.30892,"lng":-80.75071},{"name":"Holiday Inn Express & Suites","lat":35.21464,"lng":-80.85928},{"name":"Hilton Garden Inn","lat":35.05158,"lng":-80.76676},{"name":"Tru","lat":35.1365,"lng":-80.93198},{"name":"Hampton Inn & Suites Charlotte/Ballantyne","lat":35.06683,"lng":-80.83863},{"name":"Residence Inn Charlotte Piper Glen","lat":35.06304,"lng":-80.81093},{"name":"Suburban Extended Stay Hotel Charlotte-Ballantyne","lat":35.09415,"lng":-80.86353},{"name":"Four Points by Sheraton Charlotte - Pineville","lat":35.08888,"lng":-80.88039},{"name":"Hilton Garden Inn Charlotte Pineville","lat":35.0822,"lng":-80.88226},{"name":"InTown Suites Extended Stay","lat":35.18598,"lng":-80.88906},{"name":"Comfort Suites University - Research Park","lat":35.29341,"lng":-80.75368},{"name":"Country Inn & Suites, Charlotte I-85 Airport, NC","lat":35.24403,"lng":-80.93597},{"name":"Wingate By Wyndham Charlotte Airport I-85/I-485","lat":35.24271,"lng":-80.93953},{"name":"Days Inn by Wyndham Charlotte Airport North","lat":35.24271,"lng":-80.93656},{"name":"Hilton Garden Inn Charlotte Uptown","lat":35.22067,"lng":-80.84294},{"name":"Hampton Inn Charlotte-Uptown","lat":35.22012,"lng":-80.84241},{"name":"Hampton Inn University Place","lat":35.30308,"lng":-80.75248},{"name":"Home2 Suites by Hilton","lat":35.22025,"lng":-80.84545},{"name":"Home2 Suites by Hilton Charlotte Airport","lat":35.23934,"lng":-80.93809},{"name":"Best Western Sterling Hotel & Suites","lat":35.17739,"lng":-80.88052},{"name":"SpringHill Suites","lat":35.10574,"lng":-80.93229},{"name":"Days Inn Woodlawn Road Near Carowinds","lat":35.1781,"lng":-80.88334},{"name":"Hilton Garden Inn","lat":35.19927,"lng":-80.91662},{"name":"Fairfield Inn & Suites","lat":35.07586,"lng":-80.87685},{"name":"Microtel Inn by Wyndham Charlotte/University Place","lat":35.29912,"lng":-80.75309},{"name":"Extended Stay America","lat":35.29843,"lng":-80.75527},{"name":"Extended Stay America","lat":35.30002,"lng":-80.75165},{"name":"Sleep Inn University Place","lat":35.30502,"lng":-80.75161},{"name":"Sonesta Select Charlotte University Research Park","lat":35.30705,"lng":-80.75366},{"name":"Drury Inn & Suites Charlotte University Place","lat":35.30723,"lng":-80.75497},{"name":"Country Inn & Suites, Charlotte University Place, NC","lat":35.29891,"lng":-80.75125},{"name":"Days Inn","lat":35.27732,"lng":-80.79483},{"name":"Red Roof Inn Charlotte - University","lat":35.2795,"lng":-80.79546},{"name":"Quality Inn","lat":35.28045,"lng":-80.79153},{"name":"Clarion Pointe","lat":35.28068,"lng":-80.79063},{"name":"Days Inn Charlotte North-Speedway-UNCC-Research Park","lat":35.28137,"lng":-80.79238},{"name":"Grand Bohemian Hotel Charlotte","lat":35.22812,"lng":-80.84475},{"name":"Courtyard Charlotte South","lat":35.05616,"lng":-80.76822},{"name":"Courtyard Charlotte Steele Creek","lat":35.17087,"lng":-80.97364},{"name":"Fairfield Inn & Suites Charlotte University Research Park","lat":35.30738,"lng":-80.75736},{"name":"Home2 Suites by Hilton Charlotte University Research Park","lat":35.3067,"lng":-80.75653},{"name":"Aloft Charlotte Airport","lat":35.18407,"lng":-80.91693},{"name":"Golden Green Hotel","lat":35.20309,"lng":-80.79215},{"name":"Independence Place of Charlotte","lat":35.20255,"lng":-80.78382},{"name":"The Morehead Inn","lat":35.20981,"lng":-80.84154},{"name":"DoubleTree by Hilton South Charlotte Tyvola","lat":35.16067,"lng":-80.88913},{"name":"Extended Stay America - Charlotte - Tyvola Rd.","lat":35.16431,"lng":-80.8916},{"name":"Home2 Suites by Hilton Charlotte I-77 South, NC","lat":35.16521,"lng":-80.89218},{"name":"Wingate by Wyndham Charlotte Airport South/ I-77 Tyvola","lat":35.16522,"lng":-80.89347},{"name":"Extended Stay America - Charlotte - Tyvola Rd. - Executive Park","lat":35.15681,"lng":-80.8895},{"name":"Suburban Studios","lat":35.15571,"lng":-80.88974},{"name":"Comfort Inn Charlotte Airport Uptown","lat":35.15675,"lng":-80.89129},{"name":"Home2 Suites by Hilton Charlotte Piper Glen","lat":35.06188,"lng":-80.81316},{"name":"Hilton Charlotte Airport","lat":35.18816,"lng":-80.91493},{"name":"HYATT House Charlotte Airport","lat":35.17861,"lng":-80.89252},{"name":"La Quinta Inn & Suites Charlotte Airport South","lat":35.1792,"lng":-80.892},{"name":"Sleep Inn Billy Graham Parkway","lat":35.17971,"lng":-80.893},{"name":"Embassy Suites by Hilton Charlotte","lat":35.18009,"lng":-80.89107},{"name":"Extended Stay America","lat":35.08713,"lng":-80.86017},{"name":"Four Points by Sheraton Charlotte Airport","lat":35.23704,"lng":-80.91849},{"name":"SpringHill Suites Charlotte Airport","lat":35.2371,"lng":-80.91757},{"name":"Comfort Suites Airport","lat":35.23594,"lng":-80.91977},{"name":"Holiday Inn Express & Suites Charlotte Airport","lat":35.24101,"lng":-80.92335},{"name":"Sonesta Simply Suites- Charlotte University","lat":35.28605,"lng":-80.72693},{"name":"Fairfield Inn Charlotte Northlake","lat":35.34732,"lng":-80.84547},{"name":"Hilton Garden Inn Charlotte North","lat":35.34823,"lng":-80.84229},{"name":"Comfort Suites Charlotte Northlake","lat":35.35255,"lng":-80.8432},{"name":"Courtyard","lat":35.34617,"lng":-80.84225},{"name":"Microtel Inn & Suites by Wyndham Charlotte/Northlake","lat":35.30575,"lng":-80.85253},{"name":"Sleep Inn North Lake","lat":35.30527,"lng":-80.85041},{"name":"Holiday Inn Express & Suites Charlotte North","lat":35.35118,"lng":-80.84276},{"name":"Suburban Extended Stay Hotel of Charlotte - WT Harris","lat":35.34053,"lng":-80.83468},{"name":"Quality Inn & Suites","lat":35.30686,"lng":-80.84576},{"name":"Days Inn by Wyndham Charlotte Northlake","lat":35.30723,"lng":-80.84556},{"name":"InTown Suites Extended Stay","lat":35.20455,"lng":-80.72196},{"name":"InTown Suites","lat":35.14018,"lng":-80.71645},{"name":"Microtel Inn & Suites by Wyndham Matthews/Charlotte","lat":35.12021,"lng":-80.69734},{"name":"Homewood Suites by Hilton Concord Charlotte","lat":35.3631,"lng":-80.70165},{"name":"Residence Inn","lat":35.16471,"lng":-80.972},{"name":"Post Park at Phillips Place","lat":35.14488,"lng":-80.82606},{"name":"Hampton Inn & Suites Charlotte/South Park at Phillips Place","lat":35.14671,"lng":-80.82826},{"name":"Home2 Suites by Hilton Charlotte Northlake","lat":35.35252,"lng":-80.84419},{"name":"Hampton Inn & Suites Charlotte Steele Creek","lat":35.16164,"lng":-80.97408},{"name":"InTown Suites","lat":35.10112,"lng":-80.67764},{"name":"Quality Inn & Suites Matthews - Charlotte","lat":35.09897,"lng":-80.67829},{"name":"Affordable Suites of America – Concord","lat":35.37853,"lng":-80.65701},{"name":"Holiday Inn Express & Suites Charlotte Southwest","lat":35.15526,"lng":-80.94253},{"name":"SpringHill Suites Charlotte Ballantyne","lat":35.07072,"lng":-80.84212},{"name":"Homewood Suites by Hilton Charlotte Ballantyne","lat":35.07244,"lng":-80.8431},{"name":"Courtyard Charlotte Matthews","lat":35.11634,"lng":-80.69407},{"name":"Uptown Suites Extended Stay Charlotte NC - Concord","lat":35.37216,"lng":-80.70858},{"name":"WoodSpring Suites Charlotte Matthews","lat":35.11785,"lng":-80.69908},{"name":"Courtyard Charlotte City Center","lat":35.22559,"lng":-80.84468},{"name":"Woodspring Suites Charlotte - University Research Park","lat":35.28503,"lng":-80.76825},{"name":"The Ivey's Hotel","lat":35.22837,"lng":-80.84266},{"name":"JW Marriott Charlotte","lat":35.22265,"lng":-80.84799},{"name":"Homewood Suites by Hilton Charlotte Uptown First Ward","lat":35.22938,"lng":-80.83717},{"name":"UNC Charlotte Marriott Hotel & Conference Center","lat":35.31044,"lng":-80.74458},{"name":"TownePlace Suites","lat":35.09525,"lng":-80.93987},{"name":"SpringHill Suites","lat":35.39969,"lng":-80.86301},{"name":"Homewood Suites by Hilton Charlotte-North/University Research Park","lat":35.30103,"lng":-80.75063},{"name":"Intown Suites","lat":35.29249,"lng":-80.75517},{"name":"The Mecklen Hotel, Charlotte, a Tribute Portfolio Hotel","lat":35.30532,"lng":-80.75271},{"name":"Residence Inn Charlotte University Research Park","lat":35.30451,"lng":-80.75181},{"name":"Holiday Inn Express & Suites","lat":35.2985,"lng":-80.76161},{"name":"SpringHill Suites Charlotte University Research Park","lat":35.31419,"lng":-80.76145},{"name":"Tru by Hilton Fort Mill","lat":35.0613,"lng":-80.95212},{"name":"avid Hotel Fort Mill - Carowinds Blvd","lat":35.08851,"lng":-80.93095},{"name":"AC Hotel Charlotte Ballantyne","lat":35.0537,"lng":-80.8526},{"name":"Hyatt Centric Charlotte Southpark","lat":35.15056,"lng":-80.82659},{"name":"Residence Inn Charlotte SouthPark","lat":35.14869,"lng":-80.83993},{"name":"Canopy by Hilton Charlotte Southpark","lat":35.1487,"lng":-80.83898},{"name":"Hilton Garden Inn Charlotte/SouthPark","lat":35.14629,"lng":-80.83256},{"name":"AC Hotel by Marriott Charlotte SouthPark","lat":35.15675,"lng":-80.82991},{"name":"Element","lat":35.21999,"lng":-80.84592},{"name":"Staybridge Suites Charlotte Airport Area - Tyvola","lat":35.16581,"lng":-80.89195},{"name":"Trellis West Charlotte","lat":35.19043,"lng":-80.92793},{"name":"WoodSpring Suites","lat":35.19166,"lng":-80.92149},{"name":"Residence Inn Charlotte City Center","lat":35.22518,"lng":-80.84156},{"name":"Hampton Inn & Suites","lat":35.34863,"lng":-80.86497}]}