{"generated_at":"2026-07-18T03:32:28.309Z","city":"den","source":"OpenStreetMap (tourism=hotel)","count":188,"hotels":[{"name":"The Crawford Hotel","lat":39.75334,"lng":-105.00006},{"name":"Limelight Hotel","lat":39.75319,"lng":-105.00199},{"name":"AC Hotel Denver Downtown","lat":39.74436,"lng":-104.99389},{"name":"The Slate Denver","lat":39.74113,"lng":-104.99508},{"name":"Extended Stay America Select Suites - Denver-Aurora","lat":39.72424,"lng":-104.8228},{"name":"Tru by Hilton Denver Airport Tower Road","lat":39.82319,"lng":-104.77502},{"name":"Homewood Suites by Hilton Denver Airport Tower Road","lat":39.82292,"lng":-104.77503},{"name":"Tru by Hilton / Home2 Suites by Hilton","lat":39.74548,"lng":-104.99438},{"name":"Hotel Indigo Denver Downtown - Union Station by IHG","lat":39.75559,"lng":-104.99994},{"name":"Kimpton Claret Hotel","lat":39.62606,"lng":-104.90578},{"name":"Flora House Denver","lat":39.73892,"lng":-104.9631},{"name":"Hilton Garden Inn Denver Airport","lat":39.77147,"lng":-104.79691},{"name":"Denver Airport Marriott at Gateway Park","lat":39.76995,"lng":-104.79665},{"name":"Residence Inn Denver Airport at Gateway Park","lat":39.77168,"lng":-104.79524},{"name":"Courtyard Denver Airport at Gateway Park","lat":39.77427,"lng":-104.79677},{"name":"The Westin Westminster","lat":39.89061,"lng":-105.06575},{"name":"Comfort Inn & Suites","lat":39.64932,"lng":-105.0794},{"name":"Hyatt Regency Denver at Colorado Convention Center","lat":39.74344,"lng":-104.99357},{"name":"Hilton Denver City Center","lat":39.74717,"lng":-104.99047},{"name":"Newhouse Hotel","lat":39.73978,"lng":-104.98322},{"name":"Holiday Inn Express Denver Downtown by IHG","lat":39.74448,"lng":-104.9884},{"name":"Hampton","lat":39.74557,"lng":-104.98525},{"name":"Park Inn by Radisson","lat":39.72346,"lng":-105.08056},{"name":"Courtyard by Marriott Denver Downtown","lat":39.74675,"lng":-104.99485},{"name":"Embassy Suites by Hilton Denver Downtown Convention Center","lat":39.74412,"lng":-104.99477},{"name":"Cambria hotel & suites Denver International Airport","lat":39.77215,"lng":-104.80081},{"name":"Travelodge","lat":39.72505,"lng":-104.82234},{"name":"The Oxford Hotel","lat":39.75217,"lng":-104.99933},{"name":"TownePlace Suites by Marriott Denver Downtown","lat":39.72674,"lng":-104.98847},{"name":"the Curtis Denver - a DoubleTree by Hilton Hotel","lat":39.74579,"lng":-104.99705},{"name":"Crossland Economy Studios - Denver - Airport - Aurora","lat":39.76731,"lng":-104.81063},{"name":"Quality Inn & Suites","lat":39.8814,"lng":-105.07492},{"name":"SpringHill Suites Denver North/Westminster","lat":39.88336,"lng":-105.07244},{"name":"Days Inn Denver Downtown","lat":39.73977,"lng":-104.97574},{"name":"Quality Inn & Suites Denver International Airport","lat":39.82132,"lng":-104.77119},{"name":"Fairfield Inn & Suites Denver Airport","lat":39.82135,"lng":-104.77322},{"name":"Courtyard Denver Airport","lat":39.82236,"lng":-104.77274},{"name":"Courtyard Denver Cherry Creek","lat":39.69076,"lng":-104.94209},{"name":"Embassy Suites by Hilton Denver Stapleton","lat":39.77776,"lng":-104.86504},{"name":"AmericInn by Wyndham Denver Airport","lat":39.82403,"lng":-104.7713},{"name":"Spark by Hilton Denver International Airport","lat":39.82401,"lng":-104.77022},{"name":"Days Inn & Suites by Wyndham Denver International Airport","lat":39.82484,"lng":-104.77011},{"name":"Hampton Inn","lat":39.69972,"lng":-104.93897},{"name":"Doubletree Hotel","lat":39.61076,"lng":-104.89771},{"name":"Extended Stay America","lat":39.62183,"lng":-104.903},{"name":"Staybridge Suites Denver-Cherry Creek","lat":39.7069,"lng":-104.93775},{"name":"Aloft Denver Airport at Gateway Park","lat":39.77069,"lng":-104.79517},{"name":"TownePlace Suites Denver Airport at Gateway Park","lat":39.77383,"lng":-104.80095},{"name":"Comfort Inn & Suites Stapleton","lat":39.78224,"lng":-104.90452},{"name":"Best Western Plus Executive Residency Denver-Central Park","lat":39.78056,"lng":-104.90441},{"name":"Renaissance Denver Hotel & Conference Center","lat":39.76988,"lng":-104.90398},{"name":"Holiday Inn Denver Lakewood","lat":39.65151,"lng":-105.07911},{"name":"Extended Stay America","lat":39.65057,"lng":-105.07931},{"name":"Hyatt House Denver Airport","lat":39.82644,"lng":-104.76908},{"name":"Staybridge Suites Denver International Airport","lat":39.82324,"lng":-104.7727},{"name":"La Quinta Inn & Suites Denver Airport DIA","lat":39.82052,"lng":-104.77314},{"name":"Embassy Suites by Hilton Denver International Airport","lat":39.82392,"lng":-104.7753},{"name":"Baymont by Wyndham Denver International Airport","lat":39.82057,"lng":-104.7703},{"name":"DoubleTree by Hilton Denver International Airport","lat":39.8226,"lng":-104.77116},{"name":"SpringHill Suites Denver Airport","lat":39.81979,"lng":-104.77363},{"name":"Holiday Inn Express & Suites Denver Airport","lat":39.82288,"lng":-104.76996},{"name":"La Quinta Inn & Suites Denver Southwest Lakewood","lat":39.65222,"lng":-105.07557},{"name":"DoubleTree","lat":39.67341,"lng":-104.83051},{"name":"Fairfield Inn & Suites Denver Southwest/Lakewood","lat":39.64873,"lng":-105.08243},{"name":"Hampton Inn Denver-Northwest/Westminster","lat":39.85962,"lng":-105.05231},{"name":"The Acoma House","lat":39.73426,"lng":-104.98848},{"name":"The Commons Hotel & Suites","lat":39.60099,"lng":-104.87959},{"name":"InTown Suites","lat":39.67623,"lng":-104.86741},{"name":"Embassy Suites by Hilton Denver Tech Center North","lat":39.65433,"lng":-104.90308},{"name":"DoubleTree by Hilton Hotel Denver","lat":39.76292,"lng":-104.90439},{"name":"In Town Suites","lat":39.67854,"lng":-104.82486},{"name":"Extended Stay America - Denver - Aurora North","lat":39.67951,"lng":-104.82488},{"name":"WoodSpring Suites","lat":39.72425,"lng":-104.82286},{"name":"La Quinta Inn & Suites by Wyndham Denver Aurora Medical","lat":39.68893,"lng":-104.82733},{"name":"La Quinta Inn Denver Aurora","lat":39.69834,"lng":-104.82735},{"name":"Best Western Plus Gateway Inn & Suites","lat":39.70167,"lng":-104.82755},{"name":"SpringHill Suites Denver at Anschutz Medical Campus","lat":39.73988,"lng":-104.83333},{"name":"Drury Inn & Suites Westminster","lat":39.88486,"lng":-105.07249},{"name":"Holiday Inn Express & Suites Denver - Aurora Medical Campus","lat":39.73922,"lng":-104.822},{"name":"La Quinta Inn & Suites Denver Gateway Park","lat":39.77706,"lng":-104.84568},{"name":"The Cambridge","lat":39.74123,"lng":-104.98447},{"name":"Hyatt Place Denver/Downtown","lat":39.74155,"lng":-104.9929},{"name":"Hampton Inn & Suites Denver-Speer Boulevard","lat":39.75687,"lng":-105.01554},{"name":"Magnolia Hotel Denver, a Tribute Portfolio Hotel","lat":39.7468,"lng":-104.99236},{"name":"Aloft Denver Downtown","lat":39.74495,"lng":-104.99475},{"name":"Hilton Garden Inn Denver Tech Center","lat":39.62897,"lng":-104.901},{"name":"Denver Marriott Tech Center","lat":39.62723,"lng":-104.90184},{"name":"Hampton Inn & Suites Denver Tech Center","lat":39.62658,"lng":-104.89608},{"name":"Fairfield Inn & Suites Denver Downtown","lat":39.75672,"lng":-105.01487},{"name":"the Art Hotel","lat":39.73583,"lng":-104.98779},{"name":"Red Lion Inn & Suites Denver Airport","lat":39.7628,"lng":-104.79023},{"name":"The Jacquard, Autograph Collection","lat":39.71978,"lng":-104.95187},{"name":"Microtel Inn & Suites by Wyndham Denver Airport","lat":39.81033,"lng":-104.76983},{"name":"Ramada by Wyndham Denver International Airport","lat":39.80926,"lng":-104.77125},{"name":"Hampton Inn Denver-International Airport","lat":39.81047,"lng":-104.77118},{"name":"DoubleTree by Hilton Denver Central Park","lat":39.77355,"lng":-104.90174},{"name":"Courtyard Denver Central Park","lat":39.77595,"lng":-104.90235},{"name":"Holiday Inn Express & Suites Denver East-Peoria Street","lat":39.77748,"lng":-104.84582},{"name":"Drury Plaza Hotel Denver Central Park","lat":39.77887,"lng":-104.88137},{"name":"The Patterson Inn","lat":39.73346,"lng":-104.98144},{"name":"Halcyon","lat":39.72039,"lng":-104.95741},{"name":"Comfort Suites Near Denver Downtown","lat":39.72653,"lng":-105.02398},{"name":"The Westin Denver International Airport","lat":39.84758,"lng":-104.67387},{"name":"Clarion Hotel Denver Central","lat":39.7831,"lng":-104.99089},{"name":"Double Tree by Hilton Denver - Westminster","lat":39.85564,"lng":-105.05166},{"name":"Aloft Broomfield Denver","lat":39.90542,"lng":-105.08993},{"name":"Staybridge Suites Denver - Central Park","lat":39.78613,"lng":-104.89408},{"name":"Hyatt House","lat":39.709,"lng":-105.07885},{"name":"WoodSpring Suites Aurora Denver Airport","lat":39.76979,"lng":-104.81184},{"name":"Denver Marriott Westminster","lat":39.88389,"lng":-105.07454},{"name":"Quality Inn Denver Westminster","lat":39.85124,"lng":-105.04979},{"name":"Ramble Hotel","lat":39.75726,"lng":-104.98653},{"name":"The Ritz-Carlton, Denver","lat":39.75015,"lng":-104.99187},{"name":"Residence Inn Denver City Center","lat":39.74829,"lng":-104.99218},{"name":"Hilton Garden Inn","lat":39.7427,"lng":-104.99323},{"name":"Sonesta Denver Downtown","lat":39.74229,"lng":-104.99195},{"name":"The Brown Palace Hotel and Spa, Autograph Collection","lat":39.74411,"lng":-104.98787},{"name":"Element Denver Downtown East","lat":39.73743,"lng":-104.99381},{"name":"Home2 Suites by Hilton Denver International Airport","lat":39.81964,"lng":-104.77123},{"name":"Gaylord Rockies Resort","lat":39.81694,"lng":-104.75155},{"name":"Hyatt Place Denver / Westminster","lat":39.88374,"lng":-105.07336},{"name":"Residence Inn Denver Cherry Creek","lat":39.70509,"lng":-104.93833},{"name":"Residence Inn Denver Airport/Convention Center","lat":39.81903,"lng":-104.77034},{"name":"Courtyard Denver Southwest/Lakewood","lat":39.6521,"lng":-105.07441},{"name":"Residence Inn Denver Southwest/Lakewood","lat":39.65119,"lng":-105.07319},{"name":"Hyatt Place Denver Tech Center","lat":39.62358,"lng":-104.89204},{"name":"Western Hills Motel","lat":39.7407,"lng":-105.05177},{"name":"Hyatt Regency Denver Tech Center","lat":39.63037,"lng":-104.89894},{"name":"Hyatt Place Denver Airport","lat":39.77222,"lng":-104.79824},{"name":"Woolley's Classic Suites","lat":39.76958,"lng":-104.79531},{"name":"Hotel Teatro","lat":39.74606,"lng":-104.99853},{"name":"The Westin Denver Downtown","lat":39.74883,"lng":-104.99563},{"name":"Crowne Plaza Denver Airport Convention Center","lat":39.77156,"lng":-104.8073},{"name":"Rocky Mountain Lodge","lat":39.71069,"lng":-104.77593},{"name":"Park Inn by Radisson","lat":39.67685,"lng":-104.82535},{"name":"Comfort Inn Denver Southeast","lat":39.67552,"lng":-104.82562},{"name":"Extended Stay America - Denver Aurora South","lat":39.6725,"lng":-104.82617},{"name":"Fairfield Inn & Suites Denver Aurora/Medical Center","lat":39.67237,"lng":-104.82708},{"name":"Courtyard Denver Aurora","lat":39.72037,"lng":-104.82449},{"name":"Hampton Inn & Suites Aurora South Denver","lat":39.67045,"lng":-104.82587},{"name":"DoubleTree by Hilton Denver Cherry Creek","lat":39.708,"lng":-104.9412},{"name":"The Rally Hotel at McGregor Square","lat":39.75523,"lng":-104.99616},{"name":"TownePlace Suites Denver Southeast","lat":39.64985,"lng":-104.91487},{"name":"Savnnah Suites","lat":39.81391,"lng":-105.05393},{"name":"Comfort Suites Denver Near Anschutz Medical Campus","lat":39.74131,"lng":-104.81805},{"name":"La Quinta Inn & Suites Henderson-Northeast Denver","lat":39.86109,"lng":-104.91118},{"name":"Vib","lat":39.77082,"lng":-104.97766},{"name":"Hyatt Place Denver-Cherry Creek","lat":39.69553,"lng":-104.93861},{"name":"Element Denver International Airport","lat":39.81753,"lng":-104.77052},{"name":"Home2 Suites by Hilton Denver Northfield","lat":39.78277,"lng":-104.88184},{"name":"avid hotel Denver Airport Area","lat":39.81972,"lng":-104.7704},{"name":"Wingate by Wyndham Denver Airport","lat":39.81755,"lng":-104.77384},{"name":"Hyatt Place Peña Station / Denver Airport","lat":39.80775,"lng":-104.78092},{"name":"Fairfield Inn & Suites Denver Tech Center North","lat":39.6258,"lng":-104.90072},{"name":"Hotel Clio, a Luxury Collection Hotel, Denver Cherry Creek","lat":39.71896,"lng":-104.95544},{"name":"Radisson Hotel Denver Central","lat":39.78545,"lng":-104.99117},{"name":"Hyatt Regency Aurora-Denver Conference Center","lat":39.73739,"lng":-104.83513},{"name":"Homewood Suites by Hilton Denver Downtown-Convention Center","lat":39.74314,"lng":-104.99262},{"name":"Hilton Garden Inn Denver Union Station","lat":39.75767,"lng":-104.99939},{"name":"Le Méridien Denver Downtown","lat":39.74411,"lng":-104.99392},{"name":"Hilton Garden Inn Denver/Cherry Creek","lat":39.70528,"lng":-104.93982},{"name":"Staybridge Suites Denver Downtown","lat":39.7404,"lng":-104.99272},{"name":"Hilton Garden Inn Arvada Denver","lat":39.79639,"lng":-105.08247},{"name":"Residence Inn Denver Central Park","lat":39.78152,"lng":-104.88342},{"name":"Residence Inn Denver North/Westminster","lat":39.85889,"lng":-105.05217},{"name":"Moxy Denver Cherry Creek","lat":39.72034,"lng":-104.9579},{"name":"Kimpton Hotel Monaco Denver by IHG","lat":39.74789,"lng":-104.99271},{"name":"Extended Stay America - Denver - Cherry Creek","lat":39.71004,"lng":-104.93593},{"name":"Hyatt House Denver / Aurora","lat":39.73988,"lng":-104.84537},{"name":"Comfort Suites","lat":39.80434,"lng":-104.77009},{"name":"Park Inn by Radisson","lat":39.84738,"lng":-104.98676},{"name":"Fairfield Inn & Suites Denver Airport at Gateway Park","lat":39.77419,"lng":-104.79854},{"name":"Holiday Inn","lat":39.76433,"lng":-104.90401},{"name":"Hampton Inn & Suites/Airport-Gateway Park","lat":39.77478,"lng":-104.79514},{"name":"Homewood Suites by Hilton Denver International Airport","lat":39.77414,"lng":-104.79522},{"name":"Catbird Hotel","lat":39.76963,"lng":-104.97242},{"name":"MainStay Suites Denver International Airport","lat":39.80503,"lng":-104.77045},{"name":"Residence Inn Denver Aurora","lat":39.66964,"lng":-104.82787},{"name":"InTown Suites Extended Stay Denver CO - Englewood","lat":39.65287,"lng":-105.02341},{"name":"Hilton Garden Inn Denver Airport Tower Road","lat":39.81569,"lng":-104.77038},{"name":"Atwell Suites Denver Airport – Tower Road","lat":39.81393,"lng":-104.77381},{"name":"Woodspring Suites Littleton South Denver","lat":39.62107,"lng":-105.01496},{"name":"Populus","lat":39.74034,"lng":-104.99112},{"name":"Residence Inn Arvada Denver West","lat":39.79804,"lng":-105.07849},{"name":"SpringHill Suites Denver Airport at Gateway Park","lat":39.77431,"lng":-104.7978},{"name":"Holiday Inn Express Denver Central North","lat":39.80321,"lng":-104.98239},{"name":"The Benson Hotel & Faculty Club","lat":39.74795,"lng":-104.83643},{"name":"Artesian","lat":39.76302,"lng":-105.01099}]}