{"generated_at":"2026-07-18T03:33:50.112Z","city":"bal","source":"OpenStreetMap (tourism=hotel)","count":73,"hotels":[{"name":"The Inn at Henderson's Wharf","lat":39.28,"lng":-76.58908},{"name":"South Residence Tower at Mitags","lat":39.21279,"lng":-76.67191},{"name":"North Residence Tower","lat":39.21341,"lng":-76.6719},{"name":"Hilton Garden Inn","lat":39.28377,"lng":-76.6016},{"name":"Homewood Suites","lat":39.28389,"lng":-76.60169},{"name":"Hotel Indigo","lat":39.2952,"lng":-76.61672},{"name":"Fairfield Inn & Suites Baltimore Downtown/Inner Harbor","lat":39.28814,"lng":-76.60444},{"name":"Tru","lat":39.28604,"lng":-76.59901},{"name":"Candlewood Suites","lat":39.29055,"lng":-76.61493},{"name":"Courtyard","lat":39.28345,"lng":-76.59974},{"name":"Quality Inn","lat":39.29093,"lng":-76.61438},{"name":"Hampton","lat":39.28871,"lng":-76.61239},{"name":"Inn at the Collonade","lat":39.33401,"lng":-76.61967},{"name":"1840s Carrollton Inn","lat":39.28875,"lng":-76.60411},{"name":"Delta Hotels Marriott","lat":39.35507,"lng":-76.64666},{"name":"Revival Baltimore","lat":39.29733,"lng":-76.61719},{"name":"Comfort Inn and Suites BWI Airport","lat":39.21469,"lng":-76.64238},{"name":"SpringHill Suites Baltimore Downtown Convention Center Area","lat":39.29055,"lng":-76.62122},{"name":"Comfort Inn & Suites","lat":39.28798,"lng":-76.61241},{"name":"Canopy","lat":39.27931,"lng":-76.59786},{"name":"Staybridge Suites Baltimore BWI Airport","lat":39.20482,"lng":-76.69208},{"name":"The Westin Baltimore Washington Airport - BWI","lat":39.20682,"lng":-76.69291},{"name":"Sheraton Baltimore Washington Airport Hotel - BWI","lat":39.20539,"lng":-76.69306},{"name":"Embassy Suites by Hilton Baltimore at BWI Airport","lat":39.20669,"lng":-76.69099},{"name":"Microtel Inn & Suites by Wyndham BWI Airport Baltimore","lat":39.20366,"lng":-76.67905},{"name":"Holiday Inn Express & Suites Baltimore - BWI Airport North","lat":39.21078,"lng":-76.67725},{"name":"Hilton Garden Inn BWI Airport","lat":39.21001,"lng":-76.67727},{"name":"Extended Stay America - Baltimore - BWI Airport - Aero Dr.","lat":39.2113,"lng":-76.67684},{"name":"Hyatt Place Baltimore/Bwi Airport","lat":39.20794,"lng":-76.67792},{"name":"Homewood Suites by Hilton Baltimore-BWI Airport","lat":39.20192,"lng":-76.6794},{"name":"TownePlace Suites Baltimore BWI Airport","lat":39.20229,"lng":-76.67819},{"name":"SpringHill Suites Baltimore BWI Airport","lat":39.20146,"lng":-76.68467},{"name":"Baltimore Marriott Inner Harbor Camden Yards","lat":39.28695,"lng":-76.62144},{"name":"Sonesta Simply Suites Baltimore BWI Airport","lat":39.20405,"lng":-76.68837},{"name":"Holiday Inn Express","lat":39.2929,"lng":-76.60813},{"name":"Marriott","lat":39.28357,"lng":-76.60302},{"name":"Hyatt Place Baltimore/Inner Harbor","lat":39.2847,"lng":-76.59867},{"name":"Pier 5 Hotel","lat":39.28443,"lng":-76.60559},{"name":"Holiday Inn Express Baltimore at the Stadiums, an IHG Hotel","lat":39.27292,"lng":-76.62847},{"name":"Best Western Plus Hotel & Conference Center","lat":39.28011,"lng":-76.54701},{"name":"Four Seasons","lat":39.28263,"lng":-76.60246},{"name":"Fairfield Inn & Suites Baltimore BWI Airport","lat":39.2006,"lng":-76.67975},{"name":"Sleep Inn & Suites","lat":39.21563,"lng":-76.64218},{"name":"The Inn at the Black Olive","lat":39.28175,"lng":-76.59627},{"name":"Biltmore Suites Hotel - Park Avenue Building","lat":39.29833,"lng":-76.61866},{"name":"Biltmore Suites Hotel - Main Building","lat":39.29832,"lng":-76.61892},{"name":"Sleep Inn & Suites","lat":39.29253,"lng":-76.60733},{"name":"Springhill Suites Marriott","lat":39.28901,"lng":-76.61265},{"name":"Brookshire Suites Inner Harbor, BW Premier Collection","lat":39.28802,"lng":-76.61242},{"name":"The Ivy Hotel","lat":39.30336,"lng":-76.61291},{"name":"Residence Inn Marriott","lat":39.28865,"lng":-76.61324},{"name":"Delta","lat":39.28865,"lng":-76.61465},{"name":"Home2 Suites","lat":39.29369,"lng":-76.61467},{"name":"Downtown Hotel","lat":39.30429,"lng":-76.61667},{"name":"La Quinta Inn & Suites Baltimore Downtown","lat":39.29313,"lng":-76.61832},{"name":"Mt. Washington Conference Center","lat":39.36967,"lng":-76.65507},{"name":"Days Inn","lat":39.28722,"lng":-76.61802},{"name":"Hampton Inn","lat":39.28548,"lng":-76.62319},{"name":"Sheraton Inner Harbor Hotel","lat":39.2846,"lng":-76.6154},{"name":"The William Fell Baltimore, Tapestry Collection by Hilton","lat":39.28189,"lng":-76.59365},{"name":"Embassy Suites","lat":39.29211,"lng":-76.61428},{"name":"Staybridge Suites","lat":39.28889,"lng":-76.60993},{"name":"Kimpton Hotel Monaco Baltimore","lat":39.2898,"lng":-76.61559},{"name":"Hyatt Regency Baltimore Inner Harbor","lat":39.28491,"lng":-76.61411},{"name":"DoubleTree by Hilton Hotel Baltimore - BWI Airport","lat":39.20188,"lng":-76.6896},{"name":"Hampton Inn Baltimore Bayview Campus","lat":39.28647,"lng":-76.53568},{"name":"La Quinta Inn & Suites Baltimore S. Glen Burnie","lat":39.20299,"lng":-76.61323},{"name":"Residence Inn","lat":39.30007,"lng":-76.59136},{"name":"Ulysses","lat":39.29982,"lng":-76.61547},{"name":"Roost","lat":39.26359,"lng":-76.60836},{"name":"Courtyard by Marriott Baltimore Downtown/McHenry Row","lat":39.26748,"lng":-76.59908},{"name":"Lord Baltimore Hotel","lat":39.28978,"lng":-76.61611},{"name":"Belvedere Hotel","lat":39.30217,"lng":-76.61552}]}