{"generated_at":"2026-07-20T15:46:11.417Z","city":"cle","source":"OpenStreetMap (tourism=hotel)","count":50,"hotels":[{"name":"The Ritz-Carlton","lat":41.49726,"lng":-81.69469},{"name":"Aloft Cleveland Downtown","lat":41.50081,"lng":-81.70338},{"name":"Hyatt Regency Cleveland at The Arcade","lat":41.50076,"lng":-81.69075},{"name":"Metropolitan at The 9, Autograph Collection","lat":41.49976,"lng":-81.68599},{"name":"Residence Inn Cleveland Downtown","lat":41.49864,"lng":-81.68896},{"name":"Holiday Inn Express","lat":41.50015,"lng":-81.68872},{"name":"Hotel Indigo Cleveland Downtown","lat":41.49817,"lng":-81.68761},{"name":"The Kimpton Schofield Hotel","lat":41.49992,"lng":-81.6867},{"name":"Fidelity Hotel CLE","lat":41.50054,"lng":-81.68969},{"name":"Fairfield Inn & Suites Cleveland Tiedeman Road","lat":41.42222,"lng":-81.76209},{"name":"Extended Stay America - Cleveland - Brooklyn","lat":41.42482,"lng":-81.75765},{"name":"Residence Inn","lat":41.40173,"lng":-81.65426},{"name":"Crown Plaza Cleveland at Playhouse Square","lat":41.50041,"lng":-81.68336},{"name":"Holiday Inn","lat":41.39741,"lng":-81.64907},{"name":"Glidden House","lat":41.51108,"lng":-81.60773},{"name":"Cleveland Marriott Downtown at Key Tower","lat":41.50134,"lng":-81.69438},{"name":"La Quinta Inn & Suites","lat":41.43989,"lng":-81.80423},{"name":"Four Points by Sheraton","lat":41.44083,"lng":-81.79957},{"name":"Drury Plaza Hotel Cleveland Downtown","lat":41.5022,"lng":-81.69196},{"name":"Westin","lat":41.50354,"lng":-81.69148},{"name":"InterContinental Hotel Cleveland","lat":41.5016,"lng":-81.61926},{"name":"DoubleTree by Hilton Hotel Cleveland Downtown - Lakeside","lat":41.50687,"lng":-81.68997},{"name":"Crowne Plaza Cleveland Independence","lat":41.39514,"lng":-81.65462},{"name":"Hotel Cleveland, Autograph Collection","lat":41.49861,"lng":-81.6947},{"name":"Hampton Inn Cleveland Downtown","lat":41.50245,"lng":-81.68905},{"name":"Courtyard Cleveland University Circle","lat":41.50798,"lng":-81.60529},{"name":"Embassy Suites","lat":41.40217,"lng":-81.6471},{"name":"Comfort Inn","lat":41.50091,"lng":-81.67836},{"name":"Hilton Cleveland Downtown","lat":41.50274,"lng":-81.69567},{"name":"Hilton Garden Inn","lat":41.4961,"lng":-81.6813},{"name":"Holiday Inn Express Cleveland Airport - Brookpark","lat":41.40414,"lng":-81.81227},{"name":"Best Western Airport Inn & Suites Cleveland","lat":41.40305,"lng":-81.8146},{"name":"La Quinta Inn","lat":41.39377,"lng":-81.64887},{"name":"Comfort Inn","lat":41.39306,"lng":-81.64883},{"name":"DoubleTree by Hilton Hotel Cleveland - Independence","lat":41.39332,"lng":-81.65048},{"name":"Courtyard Cleveland Independence","lat":41.40307,"lng":-81.65338},{"name":"Hampton Inn & Suites","lat":41.40171,"lng":-81.65297},{"name":"The Orbit Hotel","lat":41.41943,"lng":-81.85414},{"name":"Tru by Hilton","lat":41.50447,"lng":-81.64165},{"name":"SpringHill Suites Cleveland Independence","lat":41.39878,"lng":-81.65035},{"name":"Days Inn","lat":41.48924,"lng":-81.77312},{"name":"Travelodge Cleveland Lakewood","lat":41.49014,"lng":-81.77087},{"name":"Tudor Arms Hotel","lat":41.50068,"lng":-81.61297},{"name":"Hampton Inn Cleveland Airport-Tiedeman Rd","lat":41.42376,"lng":-81.75789},{"name":"Ramada Cleveland Airport West","lat":41.42073,"lng":-81.86632},{"name":"Holiday Inn Cleveland Clinic","lat":41.50299,"lng":-81.62635},{"name":"Residence Inn","lat":41.50611,"lng":-81.61739},{"name":"Mc Call's Motor Inn","lat":41.53234,"lng":-81.57903},{"name":"Hilton Garden Inn Cleveland Airport","lat":41.42486,"lng":-81.8467},{"name":"Travelodge","lat":41.41777,"lng":-81.79273}]}