{"generated_at":"2026-07-18T03:37:32.741Z","city":"det","source":"OpenStreetMap (tourism=hotel)","count":76,"hotels":[{"name":"Caesars Windsor Hotel & Casino - A Caesars Rewards Destination","lat":42.32054,"lng":-83.03334},{"name":"Quality Inn","lat":42.3331,"lng":-83.03339},{"name":"Shinola Hotel","lat":42.33435,"lng":-83.04842},{"name":"Best Western Plus","lat":42.31878,"lng":-83.04291},{"name":"DoubleTree","lat":42.31874,"lng":-83.04343},{"name":"Red Roof Inn","lat":42.30022,"lng":-83.27332},{"name":"The Siren Hotel","lat":42.33572,"lng":-83.04862},{"name":"Hotel Houze Detroit","lat":42.33153,"lng":-83.05153},{"name":"Cambria Hotel","lat":42.32926,"lng":-83.05494},{"name":"Roost","lat":42.33353,"lng":-83.05154},{"name":"Element Detroit at the Metropolitan","lat":42.33536,"lng":-83.04876},{"name":"TownePlace Suites Detroit Dearborn","lat":42.33343,"lng":-83.21292},{"name":"The Henry, Autograph Collection","lat":42.32031,"lng":-83.21693},{"name":"Extended Stay America","lat":42.32076,"lng":-83.22195},{"name":"Hilton Garden Inn Detroit Downtown","lat":42.33587,"lng":-83.04512},{"name":"Fort Pontchartrain Detroit a Wyndham Hotel","lat":42.328,"lng":-83.04769},{"name":"Detroit Foundation Hotel","lat":42.32834,"lng":-83.04842},{"name":"Leland Hotel","lat":42.33368,"lng":-83.05444},{"name":"Trumbell and Porter","lat":42.32708,"lng":-83.06476},{"name":"Dearborn Inn, Autograph Collection","lat":42.29681,"lng":-83.22798},{"name":"MGM Grand Detroit Hotel","lat":42.33279,"lng":-83.05893},{"name":"Hollywood Casino at Greektown","lat":42.33609,"lng":-83.0409},{"name":"Roberts Riverwalk Hotel","lat":42.33666,"lng":-83.01484},{"name":"Atheneum Suite Hotel","lat":42.33408,"lng":-83.04268},{"name":"DoubleTree Suites by Hilton Hotel Detroit Downtown - Fort Shelby","lat":42.32924,"lng":-83.05275},{"name":"Hotel Indigo","lat":42.33138,"lng":-83.05052},{"name":"Hotel St. Regis","lat":42.37015,"lng":-83.075},{"name":"Comfort Suites","lat":42.31611,"lng":-83.02917},{"name":"Doubletree by Hilton Hotel Detroit-Dearborn","lat":42.33135,"lng":-83.2176},{"name":"Country Inn & Suites","lat":42.2977,"lng":-83.27651},{"name":"Comfort Inn","lat":42.27387,"lng":-83.01525},{"name":"Comfort Inn Dearborn","lat":42.30758,"lng":-83.23193},{"name":"Hotel Yorba","lat":42.31597,"lng":-83.08826},{"name":"Motor City Casino Hotel","lat":42.33838,"lng":-83.0685},{"name":"Detroit Marriott at the Renaissance Center","lat":42.32898,"lng":-83.03976},{"name":"Hampton","lat":42.30499,"lng":-83.25028},{"name":"Best Western","lat":42.28235,"lng":-83.19631},{"name":"Comfort Inn & Suites","lat":42.27318,"lng":-83.04791},{"name":"Comfort Inn & Suites Allen Park - Dearborn","lat":42.28064,"lng":-83.19755},{"name":"Americas Best Value","lat":42.32268,"lng":-83.1723},{"name":"Howard Johnson Plaza","lat":42.28586,"lng":-83.01756},{"name":"Hamtramck Hotel & Hostel","lat":42.40074,"lng":-83.06131},{"name":"Quality Inn & Suites","lat":42.31383,"lng":-83.03468},{"name":"Baymont Downtown Detroit","lat":42.34118,"lng":-83.01458},{"name":"Holiday Inn Express","lat":42.2627,"lng":-83.21312},{"name":"Hampton","lat":42.26203,"lng":-83.21267},{"name":"Holiday Inn Express","lat":42.31946,"lng":-83.03935},{"name":"TownePlace Suites","lat":42.31721,"lng":-83.04212},{"name":"Four Points By Sheraton Windsor Downtown","lat":42.31601,"lng":-83.03777},{"name":"Holiday Inn Express & Suites","lat":42.29867,"lng":-83.27312},{"name":"Staybridge Suites","lat":42.29817,"lng":-83.27266},{"name":"Travelodge","lat":42.26239,"lng":-82.97076},{"name":"Lexington Inn & Suites","lat":42.26309,"lng":-82.97139},{"name":"Holiday Inn & Suites Windsor (Ambassador Bridge)","lat":42.28157,"lng":-83.0562},{"name":"Hampton Inn & Suites Windsor","lat":42.28192,"lng":-83.05396},{"name":"Comfort Inn","lat":42.25804,"lng":-83.27105},{"name":"King's Arms Hotel","lat":42.34555,"lng":-83.06223},{"name":"The Inn at 97 Winder","lat":42.34161,"lng":-83.05191},{"name":"The Winder Street Inn","lat":42.34183,"lng":-83.05014},{"name":"The Cochrane House","lat":42.34175,"lng":-83.05046},{"name":"The Inn on Ferry Street","lat":42.36137,"lng":-83.06548},{"name":"TownePlace Suites Detroit Allen Park","lat":42.2647,"lng":-83.21852},{"name":"Baymont Ferndale/Royal Oak","lat":42.44673,"lng":-83.17027},{"name":"Courtyard Detroit Downtown","lat":42.33063,"lng":-83.04149},{"name":"Comfort Inn","lat":42.33701,"lng":-83.02671},{"name":"Plaza Hotel","lat":42.45336,"lng":-83.21141},{"name":"SpringHill Suites Detroit Dearborn","lat":42.33475,"lng":-83.21436},{"name":"Holiday Inn Express & Suites","lat":42.33534,"lng":-83.21444},{"name":"Veteran's Park Hotel","lat":42.38953,"lng":-83.05268},{"name":"Comfort Suites","lat":42.47168,"lng":-83.24224},{"name":"The Westin Book Cadillac Detroit","lat":42.33211,"lng":-83.05022},{"name":"Holiday Inn Express & Suites Southfield","lat":42.47395,"lng":-83.24161},{"name":"The Godfrey Detroit","lat":42.33097,"lng":-83.06554},{"name":"Residence Inn Detroit Dearborn","lat":42.33403,"lng":-83.21437},{"name":"WoodSpring Suites Dearborn - Detroit","lat":42.32086,"lng":-83.22306},{"name":"Hyatt Place Windsor","lat":42.27847,"lng":-83.05174}]}