{"generated_at":"2026-07-20T22:57:29.837Z","city":"nyc","source":"OpenStreetMap","count":661,"stations":[{"name":"183rd Street","lat":40.85841,"lng":-73.90387,"kind":"subway"},{"name":"Kew Gardens","lat":40.70956,"lng":-73.8308,"kind":"rail"},{"name":"Laurelton","lat":40.66852,"lng":-73.75184,"kind":"rail"},{"name":"St. George","lat":40.64396,"lng":-74.07344,"kind":"subway"},{"name":"Great Kills","lat":40.55134,"lng":-74.1512,"kind":"subway"},{"name":"Eltingville","lat":40.54445,"lng":-74.1649,"kind":"subway"},{"name":"Annadale","lat":40.54053,"lng":-74.1779,"kind":"subway"},{"name":"Huguenot","lat":40.53354,"lng":-74.19194,"kind":"subway"},{"name":"Prince’s Bay","lat":40.52553,"lng":-74.20006,"kind":"subway"},{"name":"Pleasant Plains","lat":40.52249,"lng":-74.21754,"kind":"subway"},{"name":"Tottenville","lat":40.51277,"lng":-74.25197,"kind":"subway"},{"name":"Park Avenue","lat":40.75877,"lng":-74.18489,"kind":"subway"},{"name":"Clinton–Washington Avenues","lat":40.68809,"lng":-73.96684,"kind":"subway"},{"name":"DeKalb Avenue","lat":40.69064,"lng":-73.98182,"kind":"subway"},{"name":"Hoyt Street","lat":40.69051,"lng":-73.98499,"kind":"subway"},{"name":"York Street","lat":40.7014,"lng":-73.98675,"kind":"subway"},{"name":"96th Street","lat":40.79438,"lng":-73.972,"kind":"subway"},{"name":"Mets–Willets Point","lat":40.75461,"lng":-73.84566,"kind":"subway"},{"name":"Mets–Willets Point","lat":40.75243,"lng":-73.84412,"kind":"rail"},{"name":"Flushing–Main Street","lat":40.75852,"lng":-73.82986,"kind":"rail"},{"name":"Woodside","lat":40.74616,"lng":-73.90329,"kind":"rail"},{"name":"61st Street–Woodside","lat":40.74564,"lng":-73.90305,"kind":"subway"},{"name":"Long Island City","lat":40.74151,"lng":-73.95698,"kind":"rail"},{"name":"Court Square","lat":40.74646,"lng":-73.94545,"kind":"subway"},{"name":"33rd Street–Rawson Street","lat":40.74462,"lng":-73.93123,"kind":"subway"},{"name":"40th Street–Lowery Street","lat":40.74384,"lng":-73.92443,"kind":"subway"},{"name":"46th Street–Bliss Street","lat":40.74312,"lng":-73.91825,"kind":"subway"},{"name":"21st Street","lat":40.74406,"lng":-73.94972,"kind":"subway"},{"name":"Bayside","lat":40.7631,"lng":-73.7719,"kind":"rail"},{"name":"Terminal 8","lat":40.64675,"lng":-73.78886,"kind":"subway"},{"name":"Terminal 7","lat":40.64823,"lng":-73.78319,"kind":"subway"},{"name":"Terminal 5","lat":40.64681,"lng":-73.77986,"kind":"subway"},{"name":"Terminal 4","lat":40.64392,"lng":-73.78241,"kind":"subway"},{"name":"Terminal 1","lat":40.64356,"lng":-73.78937,"kind":"subway"},{"name":"Federal Circle","lat":40.65976,"lng":-73.80354,"kind":"subway"},{"name":"Lefferts Boulevard","lat":40.66179,"lng":-73.82463,"kind":"subway"},{"name":"104th Street","lat":40.68172,"lng":-73.83769,"kind":"subway"},{"name":"Ozone Park–Lefferts Boulevard","lat":40.68595,"lng":-73.82587,"kind":"subway"},{"name":"Jackson Heights–Roosevelt Avenue","lat":40.74664,"lng":-73.89134,"kind":"subway"},{"name":"Junction Boulevard","lat":40.74917,"lng":-73.86948,"kind":"subway"},{"name":"Middle Village–Metropolitan Avenue","lat":40.71152,"lng":-73.88956,"kind":"subway"},{"name":"Fresh Pond Road","lat":40.70622,"lng":-73.89593,"kind":"subway"},{"name":"Forest Avenue","lat":40.7044,"lng":-73.90307,"kind":"subway"},{"name":"Seneca Avenue","lat":40.70282,"lng":-73.90768,"kind":"subway"},{"name":"Harborside Financial Center","lat":40.7195,"lng":-74.034,"kind":"subway"},{"name":"Exchange Place","lat":40.71602,"lng":-74.03411,"kind":"subway"},{"name":"Essex Street","lat":40.71286,"lng":-74.03595,"kind":"subway"},{"name":"Marin Boulevard","lat":40.71446,"lng":-74.04327,"kind":"subway"},{"name":"Liberty State Park","lat":40.71032,"lng":-74.05597,"kind":"subway"},{"name":"Journal Square Transportation Center","lat":40.73181,"lng":-74.06287,"kind":"subway"},{"name":"Norfolk Street","lat":40.74531,"lng":-74.18296,"kind":"subway"},{"name":"Mountain Station","lat":40.7553,"lng":-74.25284,"kind":"rail"},{"name":"Garfield","lat":40.8667,"lng":-74.10556,"kind":"rail"},{"name":"Union Street","lat":40.67732,"lng":-73.98311,"kind":"subway"},{"name":"Forest Hills","lat":40.71959,"lng":-73.84486,"kind":"rail"},{"name":"Hollis","lat":40.71017,"lng":-73.76667,"kind":"rail"},{"name":"Floral Park","lat":40.72464,"lng":-73.70626,"kind":"rail"},{"name":"Richmond Valley","lat":40.51966,"lng":-74.22904,"kind":"subway"},{"name":"Bay Terrace","lat":40.55647,"lng":-74.13683,"kind":"subway"},{"name":"Bowling Green","lat":40.70451,"lng":-74.01409,"kind":"subway"},{"name":"South Ferry","lat":40.70171,"lng":-74.01315,"kind":"subway"},{"name":"Kingston–Throop Avenues","lat":40.67989,"lng":-73.94076,"kind":"subway"},{"name":"Nostrand Avenue","lat":40.68043,"lng":-73.95023,"kind":"subway"},{"name":"Utica Avenue","lat":40.67935,"lng":-73.93084,"kind":"subway"},{"name":"Franklin Avenue-Medgar Evers College","lat":40.67068,"lng":-73.95797,"kind":"subway"},{"name":"Broadway","lat":40.70609,"lng":-73.95031,"kind":"subway"},{"name":"86th Street","lat":40.77949,"lng":-73.95553,"kind":"subway"},{"name":"Grand Street","lat":40.71197,"lng":-73.94069,"kind":"subway"},{"name":"Montrose Avenue","lat":40.70766,"lng":-73.93982,"kind":"subway"},{"name":"Flushing Avenue","lat":40.70038,"lng":-73.95023,"kind":"subway"},{"name":"53rd Street","lat":40.64507,"lng":-74.01403,"kind":"subway"},{"name":"Classon Avenue","lat":40.68887,"lng":-73.96007,"kind":"subway"},{"name":"7th Avenue","lat":40.67705,"lng":-73.97237,"kind":"subway"},{"name":"28th Street","lat":40.74331,"lng":-73.98408,"kind":"subway"},{"name":"14th Street–Union Square","lat":40.73576,"lng":-73.99065,"kind":"subway"},{"name":"28th Street","lat":40.74549,"lng":-73.98869,"kind":"subway"},{"name":"Hunts Point Avenue","lat":40.8208,"lng":-73.89081,"kind":"subway"},{"name":"Lafayette Avenue","lat":40.68631,"lng":-73.97443,"kind":"subway"},{"name":"Clinton–Washington Avenues","lat":40.68328,"lng":-73.96585,"kind":"subway"},{"name":"18th Avenue","lat":40.60785,"lng":-74.00172,"kind":"subway"},{"name":"50th Street","lat":40.63607,"lng":-73.99482,"kind":"subway"},{"name":"Prospect Avenue","lat":40.66541,"lng":-73.99287,"kind":"subway"},{"name":"Fort Hamilton Parkway","lat":40.65078,"lng":-73.97578,"kind":"subway"},{"name":"Junius Street","lat":40.66351,"lng":-73.90244,"kind":"subway"},{"name":"Rockaway Avenue","lat":40.67827,"lng":-73.91078,"kind":"subway"},{"name":"Euclid Avenue","lat":40.67542,"lng":-73.87191,"kind":"subway"},{"name":"Canal Street","lat":40.71809,"lng":-73.99989,"kind":"subway"},{"name":"Canal Street","lat":40.71887,"lng":-74.00111,"kind":"subway"},{"name":"Broadway–Lafayette Street","lat":40.7253,"lng":-73.9962,"kind":"subway"},{"name":"Morgan Avenue","lat":40.70622,"lng":-73.9327,"kind":"subway"},{"name":"5th Avenue","lat":40.75374,"lng":-73.9819,"kind":"subway"},{"name":"Grand Central–42nd Street","lat":40.75177,"lng":-73.97682,"kind":"subway"},{"name":"5th Avenue–59th Street","lat":40.76483,"lng":-73.97267,"kind":"subway"},{"name":"52nd Street–Lincoln Avenue","lat":40.74418,"lng":-73.9125,"kind":"subway"},{"name":"Sutphin Boulevard","lat":40.70546,"lng":-73.81071,"kind":"subway"},{"name":"Harlem–148th Street","lat":40.82371,"lng":-73.9361,"kind":"subway"},{"name":"163rd Street–Amsterdam Avenue","lat":40.83695,"lng":-73.94013,"kind":"subway"},{"name":"182nd–183rd Streets","lat":40.85609,"lng":-73.90074,"kind":"subway"},{"name":"Fordham Road","lat":40.8613,"lng":-73.89775,"kind":"subway"},{"name":"Rockaway Boulevard","lat":40.68045,"lng":-73.84379,"kind":"subway"},{"name":"Bay Parkway","lat":40.60191,"lng":-73.99377,"kind":"subway"},{"name":"Hunterspoint Avenue","lat":40.74205,"lng":-73.94756,"kind":"rail"},{"name":"Nostrand Avenue","lat":40.67838,"lng":-73.9482,"kind":"rail"},{"name":"East New York","lat":40.67588,"lng":-73.90328,"kind":"rail"},{"name":"Rector Street","lat":40.70736,"lng":-74.01385,"kind":"subway"},{"name":"WTC Cortlandt","lat":40.71143,"lng":-74.01214,"kind":"subway"},{"name":"Chambers Street","lat":40.71551,"lng":-74.00925,"kind":"subway"},{"name":"Wall Street","lat":40.70672,"lng":-74.00918,"kind":"subway"},{"name":"East Broadway","lat":40.71372,"lng":-73.99017,"kind":"subway"},{"name":"Grand Street","lat":40.71816,"lng":-73.99378,"kind":"subway"},{"name":"Bowery","lat":40.72022,"lng":-73.99372,"kind":"subway"},{"name":"Broad Street","lat":40.70649,"lng":-74.01106,"kind":"subway"},{"name":"West 4th Street–Washington Square","lat":40.73164,"lng":-74.00099,"kind":"subway"},{"name":"2nd Avenue","lat":40.7234,"lng":-73.98994,"kind":"subway"},{"name":"Essex Street","lat":40.7184,"lng":-73.98742,"kind":"subway"},{"name":"Lexington Avenue–63rd Street","lat":40.76463,"lng":-73.96611,"kind":"subway"},{"name":"42nd Street–Bryant Park","lat":40.75422,"lng":-73.98457,"kind":"subway"},{"name":"Lexington Avenue–59th Street","lat":40.76275,"lng":-73.96747,"kind":"subway"},{"name":"51st Street","lat":40.75711,"lng":-73.97196,"kind":"subway"},{"name":"5th Avenue–53rd Street","lat":40.76056,"lng":-73.97595,"kind":"subway"},{"name":"7th Avenue","lat":40.76286,"lng":-73.98164,"kind":"subway"},{"name":"57th Street–7th Avenue","lat":40.76465,"lng":-73.98062,"kind":"subway"},{"name":"Prince Street","lat":40.72433,"lng":-73.9977,"kind":"subway"},{"name":"8th Street–New York University","lat":40.73033,"lng":-73.99263,"kind":"subway"},{"name":"23rd Street-Baruch College","lat":40.74018,"lng":-73.98638,"kind":"subway"},{"name":"Astor Place","lat":40.72985,"lng":-73.99139,"kind":"subway"},{"name":"Bleecker Street","lat":40.72595,"lng":-73.99468,"kind":"subway"},{"name":"Spring Street","lat":40.7223,"lng":-73.99719,"kind":"subway"},{"name":"33rd Street","lat":40.74639,"lng":-73.98183,"kind":"subway"},{"name":"Sutter Avenue","lat":40.66956,"lng":-73.90202,"kind":"subway"},{"name":"Livonia Avenue","lat":40.6637,"lng":-73.90049,"kind":"subway"},{"name":"New Lots Avenue","lat":40.65896,"lng":-73.89928,"kind":"subway"},{"name":"East 105th Street","lat":40.65122,"lng":-73.89909,"kind":"subway"},{"name":"Canarsie–Rockaway Parkway","lat":40.64646,"lng":-73.90198,"kind":"subway"},{"name":"Halsey Street","lat":40.69559,"lng":-73.90404,"kind":"subway"},{"name":"Wilson Avenue","lat":40.68854,"lng":-73.90428,"kind":"subway"},{"name":"Bushwick Avenue–Aberdeen Street","lat":40.6828,"lng":-73.90521,"kind":"subway"},{"name":"Broadway Junction","lat":40.67919,"lng":-73.90335,"kind":"subway"},{"name":"Atlantic Avenue","lat":40.67557,"lng":-73.90299,"kind":"subway"},{"name":"Jefferson Street","lat":40.70669,"lng":-73.92307,"kind":"subway"},{"name":"DeKalb Avenue","lat":40.70387,"lng":-73.9185,"kind":"subway"},{"name":"1st Avenue","lat":40.73087,"lng":-73.98142,"kind":"subway"},{"name":"Lorimer Street","lat":40.71406,"lng":-73.95021,"kind":"subway"},{"name":"Graham Avenue","lat":40.71452,"lng":-73.94439,"kind":"subway"},{"name":"Canal Street","lat":40.72185,"lng":-74.0053,"kind":"subway"},{"name":"14th Street","lat":40.73805,"lng":-73.99634,"kind":"subway"},{"name":"3rd Avenue","lat":40.73315,"lng":-73.98682,"kind":"subway"},{"name":"42nd Street–Port Authority Bus Terminal","lat":40.75731,"lng":-73.98973,"kind":"subway"},{"name":"Spring Street","lat":40.72554,"lng":-74.00401,"kind":"subway"},{"name":"23rd Street","lat":40.74409,"lng":-73.99564,"kind":"subway"},{"name":"28th Street","lat":40.74722,"lng":-73.99336,"kind":"subway"},{"name":"50th Street","lat":40.76166,"lng":-73.9839,"kind":"subway"},{"name":"Houston Street","lat":40.7286,"lng":-74.00531,"kind":"subway"},{"name":"18th Street","lat":40.74104,"lng":-73.99787,"kind":"subway"},{"name":"Franklin Street","lat":40.71918,"lng":-74.00693,"kind":"subway"},{"name":"Marcy Avenue","lat":40.70841,"lng":-73.95791,"kind":"subway"},{"name":"Rockaway Avenue","lat":40.66256,"lng":-73.90886,"kind":"subway"},{"name":"Pennsylvania Avenue","lat":40.66465,"lng":-73.89477,"kind":"subway"},{"name":"Van Siclen Avenue","lat":40.66549,"lng":-73.88924,"kind":"subway"},{"name":"New Lots Avenue","lat":40.6663,"lng":-73.88372,"kind":"subway"},{"name":"Sutter Avenue–Rutland Road","lat":40.66483,"lng":-73.92276,"kind":"subway"},{"name":"Saratoga Avenue","lat":40.66147,"lng":-73.91627,"kind":"subway"},{"name":"Park Place","lat":40.67482,"lng":-73.95765,"kind":"subway"},{"name":"President Street–Medgar Evers College","lat":40.66807,"lng":-73.95065,"kind":"subway"},{"name":"Sterling Street","lat":40.6631,"lng":-73.95087,"kind":"subway"},{"name":"Winthrop Street","lat":40.6571,"lng":-73.95021,"kind":"subway"},{"name":"Ralph Avenue","lat":40.67888,"lng":-73.92167,"kind":"subway"},{"name":"Shepherd Avenue","lat":40.67409,"lng":-73.88081,"kind":"subway"},{"name":"Van Siclen Avenue","lat":40.67272,"lng":-73.89032,"kind":"subway"},{"name":"Liberty Avenue","lat":40.6744,"lng":-73.89651,"kind":"subway"},{"name":"88th Street","lat":40.67985,"lng":-73.8515,"kind":"subway"},{"name":"80th Street","lat":40.67938,"lng":-73.85898,"kind":"subway"},{"name":"111th Street","lat":40.68444,"lng":-73.83189,"kind":"subway"},{"name":"4th Avenue","lat":40.67027,"lng":-73.98978,"kind":"subway"},{"name":"15th Street–Prospect Park","lat":40.66036,"lng":-73.97949,"kind":"subway"},{"name":"Greenpoint Avenue","lat":40.73135,"lng":-73.95445,"kind":"subway"},{"name":"Valley Stream","lat":40.66148,"lng":-73.70459,"kind":"rail"},{"name":"Rosedale","lat":40.66589,"lng":-73.73579,"kind":"rail"},{"name":"77th Street","lat":40.62956,"lng":-74.02555,"kind":"subway"},{"name":"Middletown Road","lat":40.84391,"lng":-73.83626,"kind":"subway"},{"name":"Saint Lawrence Avenue","lat":40.83162,"lng":-73.86727,"kind":"subway"},{"name":"Morrison Avenue–Soundview","lat":40.8295,"lng":-73.87462,"kind":"subway"},{"name":"Elder Avenue","lat":40.82859,"lng":-73.87919,"kind":"subway"},{"name":"Whitlock Avenue","lat":40.82659,"lng":-73.88627,"kind":"subway"},{"name":"Ocean Parkway","lat":40.57631,"lng":-73.9685,"kind":"subway"},{"name":"Brighton Beach","lat":40.57762,"lng":-73.96138,"kind":"subway"},{"name":"Sheepshead Bay","lat":40.5869,"lng":-73.95416,"kind":"subway"},{"name":"Roosevelt Island","lat":40.75914,"lng":-73.95326,"kind":"subway"},{"name":"New York Penn Station","lat":40.75024,"lng":-73.99281,"kind":"rail"},{"name":"Tremont Avenue","lat":40.85041,"lng":-73.90523,"kind":"subway"},{"name":"Kingsbridge Road","lat":40.86698,"lng":-73.89351,"kind":"subway"},{"name":"Meadowlands","lat":40.81295,"lng":-74.07208,"kind":"rail"},{"name":"Flushing Avenue","lat":40.70028,"lng":-73.94117,"kind":"subway"},{"name":"Beach 90th Street","lat":40.58803,"lng":-73.81369,"kind":"subway"},{"name":"Beach 44th Street","lat":40.59296,"lng":-73.77594,"kind":"subway"},{"name":"Beach 36th Street","lat":40.59528,"lng":-73.76838,"kind":"subway"},{"name":"Beach 25th Street","lat":40.59964,"lng":-73.76172,"kind":"subway"},{"name":"Far Rockaway–Mott Avenue","lat":40.60453,"lng":-73.75438,"kind":"subway"},{"name":"Beach 67th Street","lat":40.591,"lng":-73.79633,"kind":"subway"},{"name":"Beach 60th Street","lat":40.59238,"lng":-73.78874,"kind":"subway"},{"name":"Beach 98th Street","lat":40.58534,"lng":-73.82048,"kind":"subway"},{"name":"Beach 105th Street","lat":40.58326,"lng":-73.82738,"kind":"subway"},{"name":"Parsons Boulevard","lat":40.70756,"lng":-73.80333,"kind":"subway"},{"name":"Briarwood","lat":40.70926,"lng":-73.82014,"kind":"subway"},{"name":"Jamaica–Van Wyck","lat":40.70272,"lng":-73.81721,"kind":"subway"},{"name":"Jamaica–179th Street","lat":40.71265,"lng":-73.78382,"kind":"subway"},{"name":"72nd Street","lat":40.77902,"lng":-73.98186,"kind":"subway"},{"name":"66th Street–Lincoln Center","lat":40.77328,"lng":-73.9822,"kind":"subway"},{"name":"Kew Gardens–Union Turnpike","lat":40.71444,"lng":-73.83101,"kind":"subway"},{"name":"75th Avenue","lat":40.71833,"lng":-73.83732,"kind":"subway"},{"name":"Forest Hills–71st Avenue","lat":40.72169,"lng":-73.84452,"kind":"subway"},{"name":"Woodhaven Boulevard","lat":40.73326,"lng":-73.8697,"kind":"subway"},{"name":"Elmhurst Avenue","lat":40.74206,"lng":-73.88126,"kind":"subway"},{"name":"63rd Drive–Rego Park","lat":40.73004,"lng":-73.86165,"kind":"subway"},{"name":"Northern Boulevard","lat":40.75308,"lng":-73.90621,"kind":"subway"},{"name":"46th Street","lat":40.75665,"lng":-73.91409,"kind":"subway"},{"name":"Steinway Street","lat":40.75751,"lng":-73.92018,"kind":"subway"},{"name":"Court Square","lat":40.74655,"lng":-73.94383,"kind":"subway"},{"name":"Neck Road","lat":40.59525,"lng":-73.95516,"kind":"subway"},{"name":"Grove Street","lat":40.71926,"lng":-74.0421,"kind":"subway"},{"name":"Church Avenue","lat":40.64404,"lng":-73.97968,"kind":"subway"},{"name":"18th Avenue","lat":40.62976,"lng":-73.97697,"kind":"subway"},{"name":"Avenue I","lat":40.62532,"lng":-73.97613,"kind":"subway"},{"name":"25th Avenue","lat":40.59769,"lng":-73.98679,"kind":"subway"},{"name":"77th Street","lat":40.77365,"lng":-73.95984,"kind":"subway"},{"name":"96th Street","lat":40.78586,"lng":-73.9509,"kind":"subway"},{"name":"71st Street","lat":40.61933,"lng":-73.99894,"kind":"subway"},{"name":"79th Street","lat":40.61342,"lng":-74.00063,"kind":"subway"},{"name":"9th Avenue","lat":40.64632,"lng":-73.99435,"kind":"subway"},{"name":"Fort Hamilton Parkway","lat":40.64094,"lng":-73.9943,"kind":"subway"},{"name":"55th Street","lat":40.63153,"lng":-73.99545,"kind":"subway"},{"name":"62nd Street","lat":40.62647,"lng":-73.99689,"kind":"subway"},{"name":"36th Street","lat":40.65514,"lng":-74.00355,"kind":"subway"},{"name":"World Trade Center","lat":40.7119,"lng":-74.01253,"kind":"subway"},{"name":"Exchange Place","lat":40.71673,"lng":-74.03246,"kind":"subway"},{"name":"Newport","lat":40.7268,"lng":-74.03476,"kind":"subway"},{"name":"Union","lat":40.68396,"lng":-74.23804,"kind":"rail"},{"name":"Dyckman Street","lat":40.86528,"lng":-73.9278,"kind":"subway"},{"name":"St. Albans","lat":40.69126,"lng":-73.76557,"kind":"rail"},{"name":"Nassau Avenue","lat":40.72463,"lng":-73.95128,"kind":"subway"},{"name":"69th Street","lat":40.74635,"lng":-73.8963,"kind":"subway"},{"name":"125th Street","lat":40.81574,"lng":-73.95828,"kind":"subway"},{"name":"Central Avenue","lat":40.69795,"lng":-73.92664,"kind":"subway"},{"name":"New Utrecht Avenue","lat":40.62484,"lng":-73.99635,"kind":"subway"},{"name":"20th Avenue","lat":40.61741,"lng":-73.98503,"kind":"subway"},{"name":"Bay Parkway","lat":40.61181,"lng":-73.98185,"kind":"subway"},{"name":"Kings Highway","lat":40.60392,"lng":-73.98035,"kind":"subway"},{"name":"Avenue U","lat":40.59747,"lng":-73.97914,"kind":"subway"},{"name":"86th Street","lat":40.59272,"lng":-73.97823,"kind":"subway"},{"name":"Fort Hamilton Parkway","lat":40.63139,"lng":-74.00535,"kind":"subway"},{"name":"8th Avenue","lat":40.63506,"lng":-74.01172,"kind":"subway"},{"name":"Coney Island–Stillwell Avenue","lat":40.57742,"lng":-73.98123,"kind":"subway"},{"name":"Knickerbocker Avenue","lat":40.69875,"lng":-73.91898,"kind":"subway"},{"name":"125th Street","lat":40.80775,"lng":-73.94554,"kind":"subway"},{"name":"135th Street","lat":40.81412,"lng":-73.94089,"kind":"subway"},{"name":"145th Street","lat":40.82046,"lng":-73.93622,"kind":"subway"},{"name":"Lorimer Street","lat":40.70383,"lng":-73.94736,"kind":"subway"},{"name":"Hewes Street","lat":40.70686,"lng":-73.95335,"kind":"subway"},{"name":"79th Street","lat":40.78386,"lng":-73.97999,"kind":"subway"},{"name":"86th Street","lat":40.78834,"lng":-73.9765,"kind":"subway"},{"name":"Alabama Avenue","lat":40.6769,"lng":-73.89929,"kind":"subway"},{"name":"Cleveland Street","lat":40.67961,"lng":-73.88574,"kind":"subway"},{"name":"Crescent Street","lat":40.68335,"lng":-73.87329,"kind":"subway"},{"name":"Cypress Hills","lat":40.68991,"lng":-73.87266,"kind":"subway"},{"name":"Norwood Avenue","lat":40.6817,"lng":-73.87908,"kind":"subway"},{"name":"Van Siclen Avenue","lat":40.67804,"lng":-73.89168,"kind":"subway"},{"name":"Woodhaven Boulevard","lat":40.69389,"lng":-73.85165,"kind":"subway"},{"name":"104th Street","lat":40.69519,"lng":-73.84427,"kind":"subway"},{"name":"111th Street","lat":40.69741,"lng":-73.83645,"kind":"subway"},{"name":"121st Street","lat":40.70053,"lng":-73.82832,"kind":"subway"},{"name":"75th Street–Elderts Lane","lat":40.69132,"lng":-73.86725,"kind":"subway"},{"name":"85th Street–Forest Parkway","lat":40.69244,"lng":-73.85994,"kind":"subway"},{"name":"Chauncey Street","lat":40.68293,"lng":-73.91053,"kind":"subway"},{"name":"Gates Avenue","lat":40.68958,"lng":-73.9222,"kind":"subway"},{"name":"Halsey Street","lat":40.68634,"lng":-73.91654,"kind":"subway"},{"name":"Myrtle–Willoughby Avenues","lat":40.69457,"lng":-73.94905,"kind":"subway"},{"name":"Bedford–Nostrand Avenues","lat":40.68963,"lng":-73.95352,"kind":"subway"},{"name":"Auburndale","lat":40.76145,"lng":-73.78972,"kind":"rail"},{"name":"Little Neck","lat":40.77453,"lng":-73.74126,"kind":"rail"},{"name":"Douglaston","lat":40.76836,"lng":-73.74925,"kind":"rail"},{"name":"Great Neck","lat":40.78703,"lng":-73.72676,"kind":"rail"},{"name":"Broadway","lat":40.76172,"lng":-73.80182,"kind":"rail"},{"name":"Cortelyou Road","lat":40.64093,"lng":-73.96389,"kind":"subway"},{"name":"Beverley Road","lat":40.64403,"lng":-73.96449,"kind":"subway"},{"name":"Church Avenue","lat":40.65053,"lng":-73.96298,"kind":"subway"},{"name":"Parkside Avenue","lat":40.65529,"lng":-73.96149,"kind":"subway"},{"name":"Prospect Park","lat":40.66161,"lng":-73.96225,"kind":"subway"},{"name":"Newkirk Plaza","lat":40.63497,"lng":-73.96278,"kind":"subway"},{"name":"59th Street","lat":40.64136,"lng":-74.01788,"kind":"subway"},{"name":"3rd Avenue–138th Street","lat":40.81044,"lng":-73.92605,"kind":"subway"},{"name":"110th Street","lat":40.79479,"lng":-73.94435,"kind":"subway"},{"name":"116th Street","lat":40.79859,"lng":-73.94157,"kind":"subway"},{"name":"103rd Street","lat":40.7903,"lng":-73.94762,"kind":"subway"},{"name":"125th Street","lat":40.80435,"lng":-73.93741,"kind":"subway"},{"name":"Jackson Avenue","lat":40.81652,"lng":-73.90778,"kind":"subway"},{"name":"Prospect Avenue","lat":40.81965,"lng":-73.90166,"kind":"subway"},{"name":"Intervale Avenue","lat":40.82216,"lng":-73.8968,"kind":"subway"},{"name":"174th–175th Streets","lat":40.8459,"lng":-73.91014,"kind":"subway"},{"name":"167th Street","lat":40.83438,"lng":-73.91784,"kind":"subway"},{"name":"155th Street","lat":40.83035,"lng":-73.93671,"kind":"subway"},{"name":"170th Street","lat":40.83888,"lng":-73.91366,"kind":"subway"},{"name":"116th Street","lat":40.80447,"lng":-73.95533,"kind":"subway"},{"name":"103rd Street","lat":40.79613,"lng":-73.96146,"kind":"subway"},{"name":"116th Street","lat":40.80205,"lng":-73.94973,"kind":"subway"},{"name":"110 St–Malcolm X Plaza","lat":40.79851,"lng":-73.95249,"kind":"subway"},{"name":"Westchester Square–East Tremont Avenue","lat":40.84005,"lng":-73.84277,"kind":"subway"},{"name":"East 143rd Street–Saint Mary’s Street","lat":40.8082,"lng":-73.90782,"kind":"subway"},{"name":"Zerega Avenue","lat":40.83678,"lng":-73.84669,"kind":"subway"},{"name":"Longwood Avenue","lat":40.81629,"lng":-73.89622,"kind":"subway"},{"name":"East 149th Street","lat":40.81208,"lng":-73.90416,"kind":"subway"},{"name":"Cypress Avenue","lat":40.80514,"lng":-73.91351,"kind":"subway"},{"name":"Brook Avenue","lat":40.80756,"lng":-73.91924,"kind":"subway"},{"name":"Bay Ridge–95th Street","lat":40.61619,"lng":-74.03101,"kind":"subway"},{"name":"45th Street","lat":40.64894,"lng":-74.01001,"kind":"subway"},{"name":"Bay Ridge Avenue","lat":40.63477,"lng":-74.02343,"kind":"subway"},{"name":"25th Street","lat":40.6604,"lng":-73.99809,"kind":"subway"},{"name":"9th Street","lat":40.67085,"lng":-73.9883,"kind":"subway"},{"name":"Smith–9th Streets","lat":40.67358,"lng":-73.99596,"kind":"subway"},{"name":"Jay Street–MetroTech","lat":40.69218,"lng":-73.98594,"kind":"subway"},{"name":"Avenue U","lat":40.5993,"lng":-73.95593,"kind":"subway"},{"name":"Avenue J","lat":40.62504,"lng":-73.9608,"kind":"subway"},{"name":"Avenue M","lat":40.6179,"lng":-73.95947,"kind":"subway"},{"name":"Avenue H","lat":40.62927,"lng":-73.96164,"kind":"subway"},{"name":"Kings Highway","lat":40.60867,"lng":-73.95773,"kind":"subway"},{"name":"Botanic Garden","lat":40.67065,"lng":-73.95915,"kind":"subway"},{"name":"Bedford Avenue","lat":40.7174,"lng":-73.957,"kind":"subway"},{"name":"14th Street","lat":40.74046,"lng":-74.002,"kind":"subway"},{"name":"Clark Street","lat":40.69747,"lng":-73.99302,"kind":"subway"},{"name":"21st Street–Queensbridge","lat":40.7542,"lng":-73.94284,"kind":"subway"},{"name":"103rd Street–Corona Plaza","lat":40.74989,"lng":-73.86268,"kind":"subway"},{"name":"90th Street–Elmhurst Avenue","lat":40.74839,"lng":-73.87679,"kind":"subway"},{"name":"82nd Street–Jackson Heights","lat":40.74762,"lng":-73.88414,"kind":"subway"},{"name":"57th Street","lat":40.76397,"lng":-73.97745,"kind":"subway"},{"name":"City Hall","lat":40.71328,"lng":-74.00698,"kind":"subway"},{"name":"155th Street","lat":40.83089,"lng":-73.94137,"kind":"subway"},{"name":"Brooklyn Bridge–City Hall","lat":40.71235,"lng":-74.00507,"kind":"subway"},{"name":"Harrison","lat":40.73934,"lng":-74.15567,"kind":"subway"},{"name":"Myrtle Avenue","lat":40.697,"lng":-73.93528,"kind":"subway"},{"name":"Newark Penn Station","lat":40.7346,"lng":-74.16396,"kind":"rail"},{"name":"Chambers Street","lat":40.71299,"lng":-74.00382,"kind":"subway"},{"name":"Park Place","lat":40.71322,"lng":-74.00916,"kind":"subway"},{"name":"Vernon Boulevard–Jackson Avenue","lat":40.74269,"lng":-73.954,"kind":"subway"},{"name":"Times Square–42nd Street","lat":40.75474,"lng":-73.98673,"kind":"subway"},{"name":"74th Street–Broadway","lat":40.74688,"lng":-73.89125,"kind":"subway"},{"name":"Aqueduct Racetrack","lat":40.67209,"lng":-73.83594,"kind":"subway"},{"name":"Aqueduct–North Conduit Avenue","lat":40.66831,"lng":-73.83409,"kind":"subway"},{"name":"Bay 50th Street","lat":40.58868,"lng":-73.98373,"kind":"subway"},{"name":"Broad Channel","lat":40.60802,"lng":-73.8158,"kind":"subway"},{"name":"Cortlandt Street","lat":40.71067,"lng":-74.01103,"kind":"subway"},{"name":"Howard Beach–JFK Airport","lat":40.66043,"lng":-73.83027,"kind":"subway"},{"name":"Kosciuszko Street","lat":40.69341,"lng":-73.92895,"kind":"subway"},{"name":"Myrtle–Wyckoff Avenues","lat":40.6995,"lng":-73.91179,"kind":"subway"},{"name":"Neptune Avenue","lat":40.58101,"lng":-73.97457,"kind":"subway"},{"name":"Rockaway Park–Beach 116th Street","lat":40.58076,"lng":-73.83615,"kind":"subway"},{"name":"West 8th Street–New York Aquarium","lat":40.57613,"lng":-73.97594,"kind":"subway"},{"name":"Harsimus Cove","lat":40.72252,"lng":-74.0372,"kind":"subway"},{"name":"8th Street","lat":40.65429,"lng":-74.12907,"kind":"subway"},{"name":"Melrose","lat":40.82567,"lng":-73.91524,"kind":"rail"},{"name":"Metropolitan Avenue","lat":40.71302,"lng":-73.95142,"kind":"subway"},{"name":"Arthur Kill","lat":40.5168,"lng":-74.24161,"kind":"subway"},{"name":"Newport","lat":40.72703,"lng":-74.03606,"kind":"subway"},{"name":"Tonnelle Avenue","lat":40.78768,"lng":-74.03155,"kind":"subway"},{"name":"Bergenline Avenue","lat":40.78217,"lng":-74.02202,"kind":"subway"},{"name":"Locust Manor","lat":40.6751,"lng":-73.76501,"kind":"rail"},{"name":"Highland Avenue","lat":40.76684,"lng":-74.24363,"kind":"rail"},{"name":"111th Street","lat":40.75179,"lng":-73.85523,"kind":"subway"},{"name":"Woodlawn","lat":40.89575,"lng":-73.86245,"kind":"rail"},{"name":"Hewlett","lat":40.63683,"lng":-73.70498,"kind":"rail"},{"name":"East Orange","lat":40.76115,"lng":-74.21102,"kind":"rail"},{"name":"Brick Church","lat":40.76542,"lng":-74.219,"kind":"rail"},{"name":"Orange","lat":40.77178,"lng":-74.23329,"kind":"rail"},{"name":"20th Avenue","lat":40.60458,"lng":-73.99825,"kind":"subway"},{"name":"86th Street","lat":40.62281,"lng":-74.0283,"kind":"subway"},{"name":"Atlantic Avenue–Barclays Center","lat":40.68446,"lng":-73.97689,"kind":"subway"},{"name":"18th Avenue","lat":40.62067,"lng":-73.99041,"kind":"subway"},{"name":"Jay Street–MetroTech","lat":40.69234,"lng":-73.98734,"kind":"subway"},{"name":"Court Street","lat":40.6941,"lng":-73.99178,"kind":"subway"},{"name":"Avenue X","lat":40.58962,"lng":-73.97425,"kind":"subway"},{"name":"Avenue U","lat":40.59606,"lng":-73.97336,"kind":"subway"},{"name":"Kings Highway","lat":40.60322,"lng":-73.97236,"kind":"subway"},{"name":"Avenue P","lat":40.60894,"lng":-73.97302,"kind":"subway"},{"name":"Avenue N","lat":40.61514,"lng":-73.9742,"kind":"subway"},{"name":"Bay Parkway","lat":40.62101,"lng":-73.97531,"kind":"subway"},{"name":"Ditmas Avenue","lat":40.63612,"lng":-73.97817,"kind":"subway"},{"name":"Franklin Avenue","lat":40.68112,"lng":-73.95569,"kind":"subway"},{"name":"36th Street","lat":40.75209,"lng":-73.92828,"kind":"subway"},{"name":"65th Street","lat":40.74944,"lng":-73.89779,"kind":"subway"},{"name":"Astoria–Ditmars Boulevard","lat":40.77499,"lng":-73.91212,"kind":"subway"},{"name":"Astoria Boulevard","lat":40.77044,"lng":-73.91769,"kind":"subway"},{"name":"30th Avenue","lat":40.7667,"lng":-73.92158,"kind":"subway"},{"name":"Broadway","lat":40.76178,"lng":-73.92558,"kind":"subway"},{"name":"36th Avenue","lat":40.75656,"lng":-73.92982,"kind":"subway"},{"name":"39th Avenue","lat":40.75269,"lng":-73.93294,"kind":"subway"},{"name":"Queensboro Plaza","lat":40.75061,"lng":-73.94026,"kind":"subway"},{"name":"Wakefield–241st Street","lat":40.90316,"lng":-73.8506,"kind":"subway"},{"name":"Nereid Avenue","lat":40.89845,"lng":-73.85434,"kind":"subway"},{"name":"233rd Street","lat":40.89338,"lng":-73.8574,"kind":"subway"},{"name":"225th Street","lat":40.88799,"lng":-73.86039,"kind":"subway"},{"name":"219th Street","lat":40.88382,"lng":-73.8627,"kind":"subway"},{"name":"Gun Hill Road","lat":40.87766,"lng":-73.86639,"kind":"subway"},{"name":"Burke Avenue","lat":40.87143,"lng":-73.86717,"kind":"subway"},{"name":"Allerton Avenue","lat":40.86543,"lng":-73.86737,"kind":"subway"},{"name":"Pelham Parkway","lat":40.85723,"lng":-73.86763,"kind":"subway"},{"name":"Bronx Park East","lat":40.84897,"lng":-73.86838,"kind":"subway"},{"name":"East 180th Street","lat":40.84189,"lng":-73.87352,"kind":"subway"},{"name":"West Farms Square–East Tremont Avenue","lat":40.84067,"lng":-73.87968,"kind":"subway"},{"name":"174th Street","lat":40.83732,"lng":-73.88774,"kind":"subway"},{"name":"Buhre Avenue","lat":40.84704,"lng":-73.83228,"kind":"subway"},{"name":"23rd Street","lat":40.7413,"lng":-73.98934,"kind":"subway"},{"name":"Bedford Park Boulevard–Lehman College","lat":40.87334,"lng":-73.89016,"kind":"subway"},{"name":"Burnside Avenue","lat":40.85343,"lng":-73.90773,"kind":"subway"},{"name":"Dyckman Street","lat":40.86093,"lng":-73.92525,"kind":"subway"},{"name":"Fordham Road","lat":40.86284,"lng":-73.90101,"kind":"subway"},{"name":"Kingsbridge Road","lat":40.86767,"lng":-73.89725,"kind":"subway"},{"name":"Marble Hill–225th Street","lat":40.8743,"lng":-73.91019,"kind":"subway"},{"name":"Mosholu Parkway","lat":40.87973,"lng":-73.88467,"kind":"subway"},{"name":"Mount Eden Avenue","lat":40.84434,"lng":-73.91475,"kind":"subway"},{"name":"Van Cortlandt Park–242nd Street","lat":40.88946,"lng":-73.89849,"kind":"subway"},{"name":"Woodlawn","lat":40.88627,"lng":-73.87858,"kind":"subway"},{"name":"161st Street–Yankee Stadium","lat":40.82773,"lng":-73.92566,"kind":"subway"},{"name":"167th Street","lat":40.83572,"lng":-73.92128,"kind":"subway"},{"name":"168th Street","lat":40.84097,"lng":-73.93947,"kind":"subway"},{"name":"170th Street","lat":40.84003,"lng":-73.91782,"kind":"subway"},{"name":"176th Street","lat":40.84848,"lng":-73.91178,"kind":"subway"},{"name":"181st Street","lat":40.8493,"lng":-73.93376,"kind":"subway"},{"name":"191st Street","lat":40.85526,"lng":-73.9294,"kind":"subway"},{"name":"207th Street","lat":40.8644,"lng":-73.91897,"kind":"subway"},{"name":"215th Street","lat":40.86957,"lng":-73.91519,"kind":"subway"},{"name":"231st Street","lat":40.87895,"lng":-73.9048,"kind":"subway"},{"name":"238th Street","lat":40.88497,"lng":-73.90069,"kind":"subway"},{"name":"Freeman Street","lat":40.83013,"lng":-73.89184,"kind":"subway"},{"name":"Pelham Bay Park","lat":40.85255,"lng":-73.82794,"kind":"subway"},{"name":"Simpson Street","lat":40.82413,"lng":-73.89296,"kind":"subway"},{"name":"Flushing–Main Street","lat":40.75963,"lng":-73.82993,"kind":"subway"},{"name":"High Street","lat":40.6993,"lng":-73.99143,"kind":"subway"},{"name":"137th Street–City College","lat":40.82142,"lng":-73.95415,"kind":"subway"},{"name":"145th Street","lat":40.8265,"lng":-73.95044,"kind":"subway"},{"name":"157th Street","lat":40.83407,"lng":-73.94492,"kind":"subway"},{"name":"103rd Street","lat":40.79918,"lng":-73.96853,"kind":"subway"},{"name":"Cathedral Parkway–110th Street","lat":40.80425,"lng":-73.9666,"kind":"subway"},{"name":"116th Street–Columbia University","lat":40.80806,"lng":-73.9639,"kind":"subway"},{"name":"Grant City","lat":40.57918,"lng":-74.10942,"kind":"subway"},{"name":"New Dorp","lat":40.57361,"lng":-74.11705,"kind":"subway"},{"name":"Oakwood Heights","lat":40.56485,"lng":-74.12666,"kind":"subway"},{"name":"Tompkinsville","lat":40.63717,"lng":-74.07489,"kind":"subway"},{"name":"Stapleton","lat":40.62796,"lng":-74.07517,"kind":"subway"},{"name":"72nd Street","lat":40.7688,"lng":-73.95842,"kind":"subway"},{"name":"86th Street","lat":40.77789,"lng":-73.95179,"kind":"subway"},{"name":"96th Street","lat":40.78432,"lng":-73.94715,"kind":"subway"},{"name":"34th Street","lat":40.67181,"lng":-74.10758,"kind":"subway"},{"name":"Murray Hill","lat":40.76271,"lng":-73.81461,"kind":"rail"},{"name":"149th Street–Grand Concourse","lat":40.8185,"lng":-73.92706,"kind":"subway"},{"name":"3rd Avenue–149th Street","lat":40.81607,"lng":-73.91768,"kind":"subway"},{"name":"Eastern Parkway–Brooklyn Museum","lat":40.67193,"lng":-73.96425,"kind":"subway"},{"name":"Bergen Street","lat":40.68081,"lng":-73.97509,"kind":"subway"},{"name":"Borough Hall","lat":40.69303,"lng":-73.98979,"kind":"subway"},{"name":"Grand Army Plaza","lat":40.67492,"lng":-73.97082,"kind":"subway"},{"name":"34th Street–Penn Station","lat":40.75101,"lng":-73.99062,"kind":"subway"},{"name":"Times Square–42nd Street","lat":40.75525,"lng":-73.98754,"kind":"subway"},{"name":"Nevins Street","lat":40.68871,"lng":-73.98081,"kind":"subway"},{"name":"Christopher Street–Stonewall Station","lat":40.73361,"lng":-74.00283,"kind":"subway"},{"name":"Canal Street","lat":40.72256,"lng":-74.00629,"kind":"subway"},{"name":"Flatbush Avenue–Brooklyn College","lat":40.63287,"lng":-73.94764,"kind":"subway"},{"name":"Newkirk Avenue","lat":40.63996,"lng":-73.94839,"kind":"subway"},{"name":"Beverly Road","lat":40.64513,"lng":-73.94893,"kind":"subway"},{"name":"Church Avenue","lat":40.6508,"lng":-73.94954,"kind":"subway"},{"name":"Kingston Avenue","lat":40.66941,"lng":-73.94218,"kind":"subway"},{"name":"Crown Heights–Utica Avenue","lat":40.66882,"lng":-73.93111,"kind":"subway"},{"name":"Nostrand Avenue","lat":40.66987,"lng":-73.95052,"kind":"subway"},{"name":"Clifton","lat":40.6215,"lng":-74.07149,"kind":"subway"},{"name":"Cathedral Parkway–110th Street","lat":40.8006,"lng":-73.95817,"kind":"subway"},{"name":"9th Street","lat":40.73407,"lng":-73.99964,"kind":"subway"},{"name":"14th Street","lat":40.7379,"lng":-74.00016,"kind":"subway"},{"name":"14th Street","lat":40.73705,"lng":-73.99707,"kind":"subway"},{"name":"33rd Street","lat":40.74854,"lng":-73.9887,"kind":"subway"},{"name":"Fulton Street","lat":40.71033,"lng":-74.00763,"kind":"subway"},{"name":"Jefferson Avenue","lat":40.5836,"lng":-74.10335,"kind":"subway"},{"name":"Wall Street","lat":40.70793,"lng":-74.01147,"kind":"subway"},{"name":"Grant Avenue","lat":40.67685,"lng":-73.8654,"kind":"subway"},{"name":"68th Street–Hunter College","lat":40.76788,"lng":-73.96412,"kind":"subway"},{"name":"34th Street–Penn Station","lat":40.7522,"lng":-73.99346,"kind":"subway"},{"name":"125th Street","lat":40.81081,"lng":-73.95257,"kind":"subway"},{"name":"145th Street","lat":40.82421,"lng":-73.94463,"kind":"subway"},{"name":"181st Street","lat":40.85176,"lng":-73.93796,"kind":"subway"},{"name":"190th Street","lat":40.85912,"lng":-73.93415,"kind":"subway"},{"name":"Sutphin Boulevard–Archer Avenue–JFK Airport","lat":40.70038,"lng":-73.80814,"kind":"subway"},{"name":"23rd Street","lat":40.74529,"lng":-73.99848,"kind":"subway"},{"name":"Queens Plaza","lat":40.7491,"lng":-73.93722,"kind":"subway"},{"name":"Jamaica Center–Parsons/Archer","lat":40.70224,"lng":-73.80082,"kind":"subway"},{"name":"Court Square–23rd Street","lat":40.74781,"lng":-73.94574,"kind":"subway"},{"name":"Lexington Avenue–53rd Street","lat":40.75821,"lng":-73.9706,"kind":"subway"},{"name":"47th–50th Streets–Rockefeller Center","lat":40.75866,"lng":-73.98133,"kind":"subway"},{"name":"Carroll Street","lat":40.6803,"lng":-73.99505,"kind":"subway"},{"name":"Bergen Street","lat":40.68615,"lng":-73.99086,"kind":"subway"},{"name":"Delancey Street","lat":40.71843,"lng":-73.98818,"kind":"subway"},{"name":"7th Avenue","lat":40.66627,"lng":-73.98031,"kind":"subway"},{"name":"34th Street–Herald Square","lat":40.74957,"lng":-73.98795,"kind":"subway"},{"name":"23rd Street","lat":40.74288,"lng":-73.99282,"kind":"subway"},{"name":"Christopher Street","lat":40.73299,"lng":-74.00691,"kind":"subway"},{"name":"Rutherford","lat":40.82836,"lng":-74.10063,"kind":"rail"},{"name":"Norwood–205th Street","lat":40.87481,"lng":-73.87886,"kind":"subway"},{"name":"Cedarhurst","lat":40.62231,"lng":-73.72596,"kind":"rail"},{"name":"Far Rockaway","lat":40.60904,"lng":-73.75065,"kind":"rail"},{"name":"67th Avenue","lat":40.7268,"lng":-73.85325,"kind":"subway"},{"name":"138th Street–Grand Concourse","lat":40.81313,"lng":-73.92997,"kind":"subway"},{"name":"New Rochelle","lat":40.91142,"lng":-73.78418,"kind":"rail"},{"name":"135th Street","lat":40.8172,"lng":-73.94798,"kind":"subway"},{"name":"81st Street–Museum of Natural History","lat":40.78178,"lng":-73.97192,"kind":"subway"},{"name":"86th Street","lat":40.78536,"lng":-73.96931,"kind":"subway"},{"name":"96th Street","lat":40.79172,"lng":-73.96467,"kind":"subway"},{"name":"72nd Street","lat":40.77624,"lng":-73.97601,"kind":"subway"},{"name":"59th Street–Columbus Circle","lat":40.76833,"lng":-73.98169,"kind":"subway"},{"name":"Fulton Street","lat":40.68712,"lng":-73.97537,"kind":"subway"},{"name":"169th Street","lat":40.71047,"lng":-73.7936,"kind":"subway"},{"name":"Hoboken","lat":40.73549,"lng":-74.02862,"kind":"subway"},{"name":"Bedford Park Boulevard","lat":40.87324,"lng":-73.88714,"kind":"subway"},{"name":"Canal Street","lat":40.71953,"lng":-74.00177,"kind":"subway"},{"name":"Whitehall Street–South Ferry","lat":40.70309,"lng":-74.01299,"kind":"subway"},{"name":"World Trade Center","lat":40.7122,"lng":-74.01002,"kind":"subway"},{"name":"14th Street–Union Square","lat":40.73479,"lng":-73.98998,"kind":"subway"},{"name":"Grand Central","lat":40.75277,"lng":-73.97919,"kind":"subway"},{"name":"Jamaica","lat":40.69876,"lng":-73.80883,"kind":"subway"},{"name":"NJPAC/Center Street","lat":40.73954,"lng":-74.16558,"kind":"subway"},{"name":"Broad Street Station","lat":40.74742,"lng":-74.17185,"kind":"subway"},{"name":"Orange Street","lat":40.75066,"lng":-74.18493,"kind":"subway"},{"name":"Branch Brook Park","lat":40.77967,"lng":-74.1747,"kind":"subway"},{"name":"Silver Lake","lat":40.78034,"lng":-74.18081,"kind":"subway"},{"name":"Grove Street","lat":40.78048,"lng":-74.18792,"kind":"subway"},{"name":"Warren Street/NJIT","lat":40.74262,"lng":-74.1811,"kind":"subway"},{"name":"Military Park","lat":40.73747,"lng":-74.17098,"kind":"subway"},{"name":"Davenport Avenue","lat":40.77207,"lng":-74.17812,"kind":"subway"},{"name":"Bloomfield Avenue","lat":40.76572,"lng":-74.1797,"kind":"subway"},{"name":"Washington Street","lat":40.73843,"lng":-74.17436,"kind":"subway"},{"name":"Inwood–207th Street","lat":40.86776,"lng":-73.92106,"kind":"subway"},{"name":"175th Street","lat":40.84757,"lng":-73.93963,"kind":"subway"},{"name":"50th Street","lat":40.76229,"lng":-73.9861,"kind":"subway"},{"name":"22nd Street","lat":40.66131,"lng":-74.11644,"kind":"subway"},{"name":"Danforth Avenue","lat":40.69246,"lng":-74.08724,"kind":"subway"},{"name":"Richard Street","lat":40.69926,"lng":-74.07851,"kind":"subway"},{"name":"2nd Street","lat":40.74178,"lng":-74.04276,"kind":"subway"},{"name":"Jersey Avenue","lat":40.71505,"lng":-74.04847,"kind":"subway"},{"name":"Port Imperial","lat":40.776,"lng":-74.01278,"kind":"subway"},{"name":"Garfield Avenue","lat":40.71058,"lng":-74.07113,"kind":"subway"},{"name":"Martin Luther King Drive","lat":40.7121,"lng":-74.07725,"kind":"subway"},{"name":"West Side Avenue","lat":40.71449,"lng":-74.08699,"kind":"subway"},{"name":"Tremont","lat":40.8469,"lng":-73.89976,"kind":"rail"},{"name":"Morris Heights","lat":40.8541,"lng":-73.91982,"kind":"rail"},{"name":"Fordham","lat":40.86148,"lng":-73.89054,"kind":"rail"},{"name":"University Heights","lat":40.86184,"lng":-73.91352,"kind":"rail"},{"name":"Yankees–East 153rd Street","lat":40.82561,"lng":-73.93022,"kind":"rail"},{"name":"Harlem–125th Street","lat":40.80524,"lng":-73.93891,"kind":"rail"},{"name":"Mount Vernon West","lat":40.91261,"lng":-73.85062,"kind":"rail"},{"name":"Wakefield","lat":40.9062,"lng":-73.85551,"kind":"rail"},{"name":"Newark Broad Street","lat":40.74762,"lng":-74.17188,"kind":"rail"},{"name":"North Elizabeth","lat":40.68021,"lng":-74.2062,"kind":"rail"},{"name":"Elizabeth","lat":40.66742,"lng":-74.21551,"kind":"rail"},{"name":"Linden","lat":40.62951,"lng":-74.25176,"kind":"rail"},{"name":"Clifton","lat":40.86791,"lng":-74.15341,"kind":"rail"},{"name":"Delawanna","lat":40.83177,"lng":-74.13149,"kind":"rail"},{"name":"Paterson","lat":40.91516,"lng":-74.16732,"kind":"rail"},{"name":"Passaic","lat":40.84951,"lng":-74.13379,"kind":"rail"},{"name":"Lyndhurst","lat":40.8141,"lng":-74.12283,"kind":"rail"},{"name":"Plauderville","lat":40.88479,"lng":-74.10282,"kind":"rail"},{"name":"Teterboro","lat":40.86474,"lng":-74.06273,"kind":"rail"},{"name":"New Bridge Landing","lat":40.91115,"lng":-74.03502,"kind":"rail"},{"name":"Anderson Street","lat":40.89432,"lng":-74.04402,"kind":"rail"},{"name":"Essex Street","lat":40.87883,"lng":-74.05206,"kind":"rail"},{"name":"Little Falls","lat":40.88065,"lng":-74.23525,"kind":"rail"},{"name":"Wayne Route 23 Transit Center","lat":40.89981,"lng":-74.25661,"kind":"rail"},{"name":"Montclair Heights","lat":40.85762,"lng":-74.20258,"kind":"rail"},{"name":"Glen Ridge","lat":40.8003,"lng":-74.20461,"kind":"rail"},{"name":"Mountain Avenue","lat":40.84884,"lng":-74.20546,"kind":"rail"},{"name":"Bay Street","lat":40.80819,"lng":-74.20874,"kind":"rail"},{"name":"Bloomfield","lat":40.79279,"lng":-74.2,"kind":"rail"},{"name":"Upper Montclair","lat":40.84211,"lng":-74.2094,"kind":"rail"},{"name":"Walnut Street","lat":40.81701,"lng":-74.20969,"kind":"rail"},{"name":"Watsessing Avenue","lat":40.78278,"lng":-74.19833,"kind":"rail"},{"name":"Montclair State University","lat":40.86958,"lng":-74.19748,"kind":"rail"},{"name":"Newark Liberty Airport","lat":40.70419,"lng":-74.19009,"kind":"rail"},{"name":"Secaucus Junction","lat":40.76133,"lng":-74.07575,"kind":"rail"},{"name":"Hoboken Terminal","lat":40.73494,"lng":-74.02738,"kind":"rail"},{"name":"Atlantic Terminal","lat":40.68466,"lng":-73.97731,"kind":"rail"},{"name":"Jamaica","lat":40.69984,"lng":-73.8077,"kind":"rail"},{"name":"Bellerose","lat":40.72216,"lng":-73.71668,"kind":"rail"},{"name":"Belmont Park","lat":40.71367,"lng":-73.7283,"kind":"rail"},{"name":"Queens Village","lat":40.71757,"lng":-73.73593,"kind":"rail"},{"name":"Inwood","lat":40.61221,"lng":-73.74441,"kind":"rail"},{"name":"Lawrence","lat":40.61515,"lng":-73.73692,"kind":"rail"},{"name":"Woodmere","lat":40.63163,"lng":-73.71334,"kind":"rail"},{"name":"Gibson","lat":40.64925,"lng":-73.70184,"kind":"rail"},{"name":"Grand Central Terminal","lat":40.75281,"lng":-73.97718,"kind":"rail"},{"name":"Pelham","lat":40.90998,"lng":-73.80904,"kind":"rail"},{"name":"Mount Vernon East","lat":40.91195,"lng":-73.83128,"kind":"rail"},{"name":"Botanical Garden","lat":40.86728,"lng":-73.88184,"kind":"rail"},{"name":"Spuyten Duyvil","lat":40.87887,"lng":-73.92217,"kind":"rail"},{"name":"Riverdale","lat":40.90463,"lng":-73.91368,"kind":"rail"},{"name":"Marble Hill","lat":40.87492,"lng":-73.9127,"kind":"rail"},{"name":"59th Street","lat":40.76271,"lng":-73.96788,"kind":"subway"},{"name":"Chambers Street","lat":40.71492,"lng":-74.00797,"kind":"subway"},{"name":"Eastchester–Dyre Avenue","lat":40.88806,"lng":-73.83099,"kind":"subway"},{"name":"Baychester Avenue","lat":40.87944,"lng":-73.83799,"kind":"subway"},{"name":"Gun Hill Road","lat":40.87007,"lng":-73.84591,"kind":"subway"},{"name":"Pelham Parkway","lat":40.85886,"lng":-73.85546,"kind":"subway"},{"name":"Morris Park","lat":40.85452,"lng":-73.8603,"kind":"subway"},{"name":"Parkchester","lat":40.8332,"lng":-73.86097,"kind":"subway"},{"name":"Castle Hill Avenue","lat":40.83424,"lng":-73.85127,"kind":"subway"},{"name":"Hoyt–Schermerhorn Streets","lat":40.68848,"lng":-73.985,"kind":"subway"},{"name":"49th Street","lat":40.7599,"lng":-73.98414,"kind":"subway"},{"name":"Union Square","lat":40.7346,"lng":-73.99036,"kind":"subway"},{"name":"Hunters Point Avenue","lat":40.74241,"lng":-73.9481,"kind":"subway"},{"name":"34th Street–Hudson Yards","lat":40.75591,"lng":-74.0019,"kind":"subway"},{"name":"Grand Avenue–Newtown","lat":40.73722,"lng":-73.87722,"kind":"subway"},{"name":"8th Avenue","lat":40.73988,"lng":-74.00274,"kind":"subway"},{"name":"Times Square","lat":40.75559,"lng":-73.98584,"kind":"subway"},{"name":"6th Avenue","lat":40.73746,"lng":-73.99707,"kind":"subway"},{"name":"168th Street","lat":40.84051,"lng":-73.94023,"kind":"subway"},{"name":"Atlantic Avenue–Barclays Center","lat":40.68381,"lng":-73.97866,"kind":"subway"},{"name":"Fulton Street","lat":40.71036,"lng":-74.00957,"kind":"subway"},{"name":"Fulton Street","lat":40.70943,"lng":-74.00659,"kind":"subway"},{"name":"Broadway Junction","lat":40.67829,"lng":-73.90408,"kind":"subway"},{"name":"45th Street","lat":40.67879,"lng":-74.10169,"kind":"subway"},{"name":"9th Street–Congress Street","lat":40.74873,"lng":-74.03866,"kind":"subway"},{"name":"Lincoln Harbor","lat":40.76165,"lng":-74.02385,"kind":"subway"},{"name":"Riverfront Stadium","lat":40.74561,"lng":-74.16921,"kind":"subway"},{"name":"Atlantic Street","lat":40.74403,"lng":-74.16839,"kind":"subway"},{"name":"Harriet Tubman Square","lat":40.74379,"lng":-74.16986,"kind":"subway"},{"name":"Terminal A","lat":40.68735,"lng":-74.19077,"kind":"rail"},{"name":"P3","lat":40.68965,"lng":-74.18737,"kind":"rail"},{"name":"Terminal B","lat":40.69076,"lng":-74.17663,"kind":"rail"},{"name":"Terminal C","lat":40.696,"lng":-74.17752,"kind":"rail"},{"name":"P4","lat":40.69675,"lng":-74.18218,"kind":"rail"},{"name":"Elmont","lat":40.72015,"lng":-73.72522,"kind":"rail"},{"name":"Howard Beach","lat":40.66103,"lng":-73.82956,"kind":"subway"},{"name":"Brooklyn Army Terminal","lat":40.64345,"lng":-74.02433,"kind":"subway"},{"name":"4th Avenue","lat":40.63717,"lng":-74.01971,"kind":"subway"},{"name":"8th Avenue","lat":40.63442,"lng":-74.00974,"kind":"subway"},{"name":"New Utrecht Avenue","lat":40.62729,"lng":-73.99777,"kind":"subway"},{"name":"McDonald Avenue","lat":40.62744,"lng":-73.97595,"kind":"subway"},{"name":"East 16th Street","lat":40.62926,"lng":-73.96075,"kind":"subway"},{"name":"Flatbush–Nostrand Avenue","lat":40.63054,"lng":-73.94835,"kind":"subway"},{"name":"Eliot Avenue","lat":40.7229,"lng":-73.88489,"kind":"subway"},{"name":"Grand Avenue","lat":40.73027,"lng":-73.88625,"kind":"subway"},{"name":"Roosevelt Avenue","lat":40.74611,"lng":-73.89423,"kind":"subway"},{"name":"Utica Avenue","lat":40.63704,"lng":-73.92845,"kind":"subway"},{"name":"Remsen Avenue","lat":40.64748,"lng":-73.91341,"kind":"subway"},{"name":"Linden Boulevard","lat":40.65788,"lng":-73.89977,"kind":"subway"},{"name":"Atlantic Avenue","lat":40.67662,"lng":-73.90417,"kind":"subway"},{"name":"Myrtle Avenue","lat":40.70169,"lng":-73.89355,"kind":"subway"},{"name":"Metropolitan Avenue","lat":40.71166,"lng":-73.88921,"kind":"subway"},{"name":"106th Street","lat":40.79165,"lng":-73.94169,"kind":"subway"},{"name":"116th Street","lat":40.79761,"lng":-73.93733,"kind":"subway"},{"name":"Malcolm X Boulevard","lat":40.80802,"lng":-73.94609,"kind":"subway"},{"name":"St. Nicholas Avenue","lat":40.81049,"lng":-73.95181,"kind":"subway"},{"name":"Broadway","lat":40.81453,"lng":-73.95726,"kind":"subway"},{"name":"Grasmere","lat":40.60317,"lng":-74.08406,"kind":"subway"},{"name":"Old Town","lat":40.59664,"lng":-74.08738,"kind":"subway"},{"name":"Dongan Hills","lat":40.58885,"lng":-74.09611,"kind":"subway"},{"name":"Wesmont","lat":40.85503,"lng":-74.09698,"kind":"rail"},{"name":"Hoboken Terminal","lat":40.73391,"lng":-74.0298,"kind":"subway"},{"name":"Watchung Avenue","lat":40.82949,"lng":-74.20698,"kind":"rail"},{"name":"Wood-Ridge","lat":40.84368,"lng":-74.07886,"kind":"rail"}]}