{"generated_at":"2026-07-20T13:59:21.647Z","city":"sf","source":"OpenStreetMap","count":94,"stations":[{"name":"2nd & King","lat":37.77935,"lng":-122.3902,"kind":"subway"},{"name":"Brannan","lat":37.78376,"lng":-122.38813,"kind":"subway"},{"name":"Folsom","lat":37.79045,"lng":-122.38957,"kind":"subway"},{"name":"Caltrain","lat":37.77599,"lng":-122.3945,"kind":"subway"},{"name":"4th & King","lat":37.77602,"lng":-122.39364,"kind":"subway"},{"name":"West Field Road","lat":37.6217,"lng":-122.39948,"kind":"subway"},{"name":"International Terminal A","lat":37.61459,"lng":-122.3888,"kind":"subway"},{"name":"Garage A","lat":37.61383,"lng":-122.3919,"kind":"subway"},{"name":"Garage G/BART","lat":37.61592,"lng":-122.39275,"kind":"subway"},{"name":"International Terminal G","lat":37.61663,"lng":-122.38962,"kind":"subway"},{"name":"Stonestown","lat":37.72745,"lng":-122.4749,"kind":"subway"},{"name":"S.F. State","lat":37.72166,"lng":-122.47521,"kind":"subway"},{"name":"Mission Rock","lat":37.77293,"lng":-122.38969,"kind":"subway"},{"name":"23rd Street","lat":37.75538,"lng":-122.38802,"kind":"subway"},{"name":"UCSF/Chase Center","lat":37.76819,"lng":-122.38925,"kind":"subway"},{"name":"Civic Center","lat":37.77936,"lng":-122.41396,"kind":"subway"},{"name":"Embarcadero","lat":37.79286,"lng":-122.3969,"kind":"subway"},{"name":"Millbrae","lat":37.60011,"lng":-122.38701,"kind":"rail"},{"name":"Powell Street","lat":37.78471,"lng":-122.40719,"kind":"subway"},{"name":"16th Street Mission","lat":37.76507,"lng":-122.41968,"kind":"subway"},{"name":"24th Street Mission","lat":37.75226,"lng":-122.41845,"kind":"subway"},{"name":"Bayshore","lat":37.70768,"lng":-122.40182,"kind":"rail"},{"name":"22nd Street","lat":37.75729,"lng":-122.3924,"kind":"rail"},{"name":"San Bruno","lat":37.63022,"lng":-122.4115,"kind":"rail"},{"name":"Montgomery Street","lat":37.78923,"lng":-122.40147,"kind":"subway"},{"name":"Castro","lat":37.7626,"lng":-122.43529,"kind":"subway"},{"name":"Church","lat":37.76727,"lng":-122.42926,"kind":"subway"},{"name":"Van Ness","lat":37.77519,"lng":-122.41927,"kind":"subway"},{"name":"Arleta","lat":37.71237,"lng":-122.4019,"kind":"subway"},{"name":"Carroll","lat":37.72548,"lng":-122.39427,"kind":"subway"},{"name":"Evans","lat":37.74271,"lng":-122.38795,"kind":"subway"},{"name":"Gilman/Paul","lat":37.72241,"lng":-122.39566,"kind":"subway"},{"name":"Hudson/Innes","lat":37.73995,"lng":-122.3889,"kind":"subway"},{"name":"Kirkwood/La Salle","lat":37.73753,"lng":-122.38976,"kind":"subway"},{"name":"Le Conte","lat":37.71853,"lng":-122.3978,"kind":"subway"},{"name":"Marin Street","lat":37.74903,"lng":-122.38749,"kind":"subway"},{"name":"Oakdale/Palou","lat":37.7344,"lng":-122.39086,"kind":"subway"},{"name":"Revere/Shafter","lat":37.73207,"lng":-122.39168,"kind":"subway"},{"name":"Sunnydale","lat":37.70921,"lng":-122.40497,"kind":"subway"},{"name":"UCSF Medical Center","lat":37.76433,"lng":-122.38887,"kind":"subway"},{"name":"Williams","lat":37.72925,"lng":-122.39266,"kind":"subway"},{"name":"20th Street","lat":37.7605,"lng":-122.38858,"kind":"subway"},{"name":"Balboa Park","lat":37.72087,"lng":-122.44671,"kind":"subway"},{"name":"City College","lat":37.723,"lng":-122.45118,"kind":"subway"},{"name":"Junipero Serra Boulevard & Ocean Avenue","lat":37.73143,"lng":-122.47177,"kind":"subway"},{"name":"Ocean Avenue & Lee Avenue","lat":37.72345,"lng":-122.45411,"kind":"subway"},{"name":"Saint Francis Circle","lat":37.73534,"lng":-122.47134,"kind":"subway"},{"name":"Church Street & 18th Street","lat":37.7613,"lng":-122.42834,"kind":"subway"},{"name":"Church Street & 24th Street","lat":37.7517,"lng":-122.42745,"kind":"subway"},{"name":"Church Street & Day Street","lat":37.7429,"lng":-122.42661,"kind":"subway"},{"name":"San Jose Avenue & Randall Street","lat":37.73951,"lng":-122.42427,"kind":"subway"},{"name":"Duboce Avenue & Church Street","lat":37.76945,"lng":-122.42917,"kind":"subway"},{"name":"Duboce Avenue & Noe Street","lat":37.76931,"lng":-122.43367,"kind":"subway"},{"name":"Judah Street & 9th Avenue","lat":37.76217,"lng":-122.46644,"kind":"subway"},{"name":"Judah Street & 28th Avenue","lat":37.76128,"lng":-122.48665,"kind":"subway"},{"name":"Emeryville","lat":37.84045,"lng":-122.29182,"kind":"rail"},{"name":"West Oakland","lat":37.80489,"lng":-122.29518,"kind":"subway"},{"name":"South San Francisco","lat":37.65486,"lng":-122.40608,"kind":"rail"},{"name":"Glen Park","lat":37.7331,"lng":-122.43381,"kind":"subway"},{"name":"Balboa Park","lat":37.72143,"lng":-122.44755,"kind":"subway"},{"name":"Daly City","lat":37.70631,"lng":-122.46889,"kind":"subway"},{"name":"San Bruno","lat":37.63775,"lng":-122.4163,"kind":"subway"},{"name":"South San Francisco","lat":37.66423,"lng":-122.44398,"kind":"subway"},{"name":"Colma","lat":37.68463,"lng":-122.46621,"kind":"subway"},{"name":"San Francisco International Airport","lat":37.61622,"lng":-122.39152,"kind":"subway"},{"name":"Judah Street & La Playa Street","lat":37.76032,"lng":-122.50863,"kind":"subway"},{"name":"Judah Street & Sunset Boulevard","lat":37.76088,"lng":-122.49577,"kind":"subway"},{"name":"Judah Street & 19th Avenue","lat":37.76171,"lng":-122.47703,"kind":"subway"},{"name":"Carl Street & Cole Street","lat":37.76581,"lng":-122.44998,"kind":"rail"},{"name":"UCSF Parnassus","lat":37.76439,"lng":-122.45839,"kind":"rail"},{"name":"West Portal","lat":37.74114,"lng":-122.46563,"kind":"subway"},{"name":"Taraval Street & 22nd Avenue","lat":37.74289,"lng":-122.47946,"kind":"subway"},{"name":"Wawona Street & 46th Avenue","lat":37.73611,"lng":-122.50456,"kind":"subway"},{"name":"Taraval Street & Sunset Boulevard","lat":37.74223,"lng":-122.49446,"kind":"subway"},{"name":"Ocean Avenue & Jules Avenue","lat":37.72496,"lng":-122.46123,"kind":"subway"},{"name":"Broad Street & Plymouth Avenue","lat":37.7132,"lng":-122.45607,"kind":"rail"},{"name":"Randolph Street & Arch Street","lat":37.71428,"lng":-122.46711,"kind":"subway"},{"name":"Terminal 1","lat":37.61519,"lng":-122.38567,"kind":"subway"},{"name":"Terminals 2 and 3","lat":37.61675,"lng":-122.3846,"kind":"subway"},{"name":"Terminal 3","lat":37.61752,"lng":-122.38661,"kind":"subway"},{"name":"Rental Car Center","lat":37.62818,"lng":-122.40122,"kind":"subway"},{"name":"Grand Hyatt","lat":37.61346,"lng":-122.39342,"kind":"subway"},{"name":"San Francisco 4th & King Street","lat":37.77636,"lng":-122.39494,"kind":"rail"},{"name":"Church Street & Market Street","lat":37.76711,"lng":-122.42889,"kind":"subway"},{"name":"Fourth/Brannan","lat":37.77868,"lng":-122.39699,"kind":"subway"},{"name":"Forest Hill","lat":37.74799,"lng":-122.45912,"kind":"subway"},{"name":"Long Term Parking","lat":37.6351,"lng":-122.40037,"kind":"subway"},{"name":"Yerba Buena/Moscone","lat":37.78223,"lng":-122.40173,"kind":"subway"},{"name":"Union Square/Market Street","lat":37.78685,"lng":-122.40645,"kind":"subway"},{"name":"Chinatown-Rose Pak","lat":37.79481,"lng":-122.40807,"kind":"subway"},{"name":"Church Street & 28th Street","lat":37.74529,"lng":-122.42684,"kind":"subway"},{"name":"Church Street & 26th Street","lat":37.74848,"lng":-122.42715,"kind":"subway"},{"name":"Powell Street Station","lat":37.78497,"lng":-122.40669,"kind":"subway"},{"name":"Montgomery Street Station","lat":37.78948,"lng":-122.40145,"kind":"subway"}]}