{"generated_at":"2026-07-20T14:42:09.392Z","city":"oak","source":"OpenStreetMap","count":20,"stations":[{"name":"Rockridge","lat":37.84476,"lng":-122.25126,"kind":"subway"},{"name":"Ashby","lat":37.85298,"lng":-122.26971,"kind":"subway"},{"name":"Orinda","lat":37.87849,"lng":-122.18368,"kind":"subway"},{"name":"Redwood Valley Railway","lat":37.88057,"lng":-122.22309,"kind":"rail"},{"name":"Berkeley","lat":37.86735,"lng":-122.30084,"kind":"rail"},{"name":"Lake Merritt","lat":37.79722,"lng":-122.26504,"kind":"subway"},{"name":"Oakland City Center - 12th Street","lat":37.8035,"lng":-122.27169,"kind":"subway"},{"name":"19th Street Oakland","lat":37.80766,"lng":-122.269,"kind":"subway"},{"name":"Emeryville","lat":37.84045,"lng":-122.29182,"kind":"rail"},{"name":"Oakland-Jack London Square","lat":37.79377,"lng":-122.27148,"kind":"rail"},{"name":"West Oakland","lat":37.80489,"lng":-122.29518,"kind":"subway"},{"name":"North Berkeley","lat":37.87397,"lng":-122.28344,"kind":"subway"},{"name":"Downtown Berkeley","lat":37.8701,"lng":-122.26814,"kind":"subway"},{"name":"Bay Fair","lat":37.69691,"lng":-122.12647,"kind":"subway"},{"name":"San Leandro","lat":37.72156,"lng":-122.16058,"kind":"subway"},{"name":"Oakland International Airport","lat":37.71311,"lng":-122.2124,"kind":"subway"},{"name":"Coliseum","lat":37.75397,"lng":-122.19721,"kind":"subway"},{"name":"Fruitvale","lat":37.77485,"lng":-122.2241,"kind":"subway"},{"name":"Oakland-Coliseum/Airport","lat":37.75226,"lng":-122.19795,"kind":"rail"},{"name":"MacArthur","lat":37.82881,"lng":-122.26712,"kind":"subway"}]}